[
  {
    "code": "15bed",
    "name": "Saint-Martin-de-Seignanx",
    "updated_at": "2014-09-22T21:18:57.342108Z",
    "country": "fr",
    "parent": null,
    "longitude": -1.38332998752594,
    "latitude": 43.5499992370605,
    "regions": [
      "106b"
    ]
  },
  {
    "code": "15bec",
    "name": "Saint-Martin-de-Valgalgues",
    "updated_at": "2014-09-22T21:18:57.316439Z",
    "country": "fr",
    "parent": null,
    "longitude": 4.08333015441895,
    "latitude": 44.1666984558105,
    "regions": [
      "1072"
    ]
  },
  {
    "code": "15beb",
    "name": "Saint-Martin-de-Varreville",
    "updated_at": "2014-09-22T21:18:57.288978Z",
    "country": "fr",
    "parent": null,
    "longitude": -1.2333300113678,
    "latitude": 49.4333000183105,
    "regions": [
      "1334"
    ]
  },
  {
    "code": "15bea",
    "name": "Saint-Martin-de-Villereglan",
    "updated_at": "2014-09-22T21:18:57.254519Z",
    "country": "fr",
    "parent": null,
    "longitude": 2.21667003631592,
    "latitude": 43.0999984741211,
    "regions": [
      "1072"
    ]
  },
  {
    "code": "15be9",
    "name": "Saint-Martin-dʼHères",
    "updated_at": "2014-09-22T21:18:57.219505Z",
    "country": "fr",
    "parent": null,
    "longitude": 5.76667022705078,
    "latitude": 45.1666984558105,
    "regions": [
      "107a"
    ]
  },
  {
    "code": "15be8",
    "name": "Saint-Martin-du-Bois",
    "updated_at": "2014-09-22T21:18:57.174474Z",
    "country": "fr",
    "parent": null,
    "longitude": -0.75,
    "latitude": 47.7000007629395,
    "regions": [
      "1077"
    ]
  },
  {
    "code": "15be7",
    "name": "Saint-Martin-du-Mont",
    "updated_at": "2014-09-22T21:18:57.155045Z",
    "country": "fr",
    "parent": null,
    "longitude": 5.33333015441895,
    "latitude": 46.0999984741211,
    "regions": [
      "107a"
    ]
  },
  {
    "code": "15be6",
    "name": "Saint-Martin-du-Puy",
    "updated_at": "2014-09-22T21:18:57.134397Z",
    "country": "fr",
    "parent": null,
    "longitude": 3.86666989326477,
    "latitude": 47.3333015441895,
    "regions": []
  },
  {
    "code": "15be5",
    "name": "Saint-Martin-dʼUriage",
    "updated_at": "2014-09-22T21:18:57.114620Z",
    "country": "fr",
    "parent": null,
    "longitude": 5.83333015441895,
    "latitude": 45.1500015258789,
    "regions": [
      "107a"
    ]
  },
  {
    "code": "15be4",
    "name": "Saint-Martin-du-Tartre",
    "updated_at": "2014-09-22T21:18:57.094281Z",
    "country": "fr",
    "parent": null,
    "longitude": 4.61667013168335,
    "latitude": 46.63330078125,
    "regions": [
      "106e"
    ]
  },
  {
    "code": "15be3",
    "name": "Saint-Martin-du-Vivier",
    "updated_at": "2014-09-22T21:18:57.068401Z",
    "country": "fr",
    "parent": null,
    "longitude": 1.16666996479034,
    "latitude": 49.4667015075684,
    "regions": [
      "1335"
    ]
  },
  {
    "code": "15be2",
    "name": "Saint-Martin-en-Bresse",
    "updated_at": "2014-09-22T21:18:57.042482Z",
    "country": "fr",
    "parent": null,
    "longitude": 5.06666994094849,
    "latitude": 46.8166999816895,
    "regions": [
      "106e"
    ]
  },
  {
    "code": "15be1",
    "name": "Saint-Martin-en-Haut",
    "updated_at": "2014-09-22T21:18:57.010294Z",
    "country": "fr",
    "parent": null,
    "longitude": 4.55000019073486,
    "latitude": 45.6500015258789,
    "regions": [
      "107a"
    ]
  },
  {
    "code": "15be0",
    "name": "Saint-Martin-en-Vercors",
    "updated_at": "2014-09-22T21:18:56.976265Z",
    "country": "fr",
    "parent": null,
    "longitude": 5.44999980926514,
    "latitude": 45.0167007446289,
    "regions": [
      "107a"
    ]
  },
  {
    "code": "15bdf",
    "name": "Saint-Martin-Labouval",
    "updated_at": "2014-09-22T21:18:56.941599Z",
    "country": "fr",
    "parent": null,
    "longitude": 1.7333300113678,
    "latitude": 44.4667015075684,
    "regions": [
      "1075"
    ]
  },
  {
    "code": "15bde",
    "name": "Saint-Martin-Lalande",
    "updated_at": "2014-09-22T21:18:56.918060Z",
    "country": "fr",
    "parent": null,
    "longitude": 2.0166699886322,
    "latitude": 43.2999992370605,
    "regions": [
      "1072"
    ]
  },
  {
    "code": "15bdd",
    "name": "Saint-Martin-la-Rivière",
    "updated_at": "2014-09-22T21:18:56.900093Z",
    "country": "fr",
    "parent": null,
    "longitude": 0.633333027362823,
    "latitude": 46.5167007446289,
    "regions": [
      "1232"
    ]
  },
  {
    "code": "15bdc",
    "name": "Saint-Martin-le-Beau",
    "updated_at": "2014-09-22T21:18:56.882014Z",
    "country": "fr",
    "parent": null,
    "longitude": 0.916666984558105,
    "latitude": 47.3499984741211,
    "regions": [
      "106f"
    ]
  },
  {
    "code": "15bdb",
    "name": "Saint-Martin-le-Redon",
    "updated_at": "2014-09-22T21:18:56.861885Z",
    "country": "fr",
    "parent": null,
    "longitude": 1.04999995231628,
    "latitude": 44.5332984924316,
    "regions": [
      "1075"
    ]
  },
  {
    "code": "15bda",
    "name": "Saint-Martin-le-Supérieur",
    "updated_at": "2014-09-22T21:18:56.843112Z",
    "country": "fr",
    "parent": null,
    "longitude": 4.65000009536743,
    "latitude": 44.63330078125,
    "regions": [
      "107a"
    ]
  },
  {
    "code": "15bd9",
    "name": "Saint-Martin-le-Vieil",
    "updated_at": "2014-09-22T21:18:56.819849Z",
    "country": "fr",
    "parent": null,
    "longitude": 2.15000009536743,
    "latitude": 43.2832984924316,
    "regions": [
      "1072"
    ]
  },
  {
    "code": "15bd8",
    "name": "Saint-Martin-Petit",
    "updated_at": "2014-09-22T21:18:56.792095Z",
    "country": "fr",
    "parent": null,
    "longitude": 0.100000001490116,
    "latitude": 44.5499992370605,
    "regions": [
      "106b"
    ]
  },
  {
    "code": "15bd7",
    "name": "Saint-Martin-Saint-Firmin",
    "updated_at": "2014-09-22T21:18:56.763365Z",
    "country": "fr",
    "parent": null,
    "longitude": 0.566667020320892,
    "latitude": 49.2832984924316,
    "regions": [
      "1335"
    ]
  },
  {
    "code": "15bd6",
    "name": "Saint-Martin-sur-Écaillon",
    "updated_at": "2014-09-22T21:18:56.728848Z",
    "country": "fr",
    "parent": null,
    "longitude": 3.53332996368408,
    "latitude": 50.25,
    "regions": [
      "1076",
      "1230"
    ]
  },
  {
    "code": "15bd5",
    "name": "Saint-Martin-sur-le-Pré",
    "updated_at": "2014-09-22T21:18:56.695897Z",
    "country": "fr",
    "parent": null,
    "longitude": 4.33333015441895,
    "latitude": 48.9832992553711,
    "regions": [
      "1070"
    ]
  },
  {
    "code": "15bd4",
    "name": "Saint-Martin-sur-Oreuse",
    "updated_at": "2014-09-22T21:18:56.659467Z",
    "country": "fr",
    "parent": null,
    "longitude": 3.33332991600037,
    "latitude": 48.2999992370605,
    "regions": [
      "106e"
    ]
  },
  {
    "code": "15bd3",
    "name": "Saint-Martin-sur-Oust",
    "updated_at": "2014-09-22T21:18:56.641397Z",
    "country": "fr",
    "parent": null,
    "longitude": -2.25,
    "latitude": 47.75,
    "regions": [
      "106d"
    ]
  },
  {
    "code": "15bd2",
    "name": "Saint-Martin-Terressus",
    "updated_at": "2014-09-22T21:18:56.623380Z",
    "country": "fr",
    "parent": null,
    "longitude": 1.45000004768372,
    "latitude": 45.9166984558105,
    "regions": [
      "1073"
    ]
  },
  {
    "code": "15bd1",
    "name": "Saint-Martin-Valmeroux",
    "updated_at": "2014-09-22T21:18:56.604968Z",
    "country": "fr",
    "parent": null,
    "longitude": 2.41667008399963,
    "latitude": 45.11669921875,
    "regions": [
      "106c"
    ]
  },
  {
    "code": "15bd0",
    "name": "Saint-Martin-Vésubie",
    "updated_at": "2014-09-22T21:18:56.586076Z",
    "country": "fr",
    "parent": null,
    "longitude": 7.25,
    "latitude": 44.0666999816895,
    "regions": [
      "1079"
    ]
  },
  {
    "code": "15bcf",
    "name": "Saint-Martory",
    "updated_at": "2014-09-22T21:18:56.566035Z",
    "country": "fr",
    "parent": null,
    "longitude": 0.933332979679108,
    "latitude": 43.1500015258789,
    "regions": [
      "1075"
    ]
  },
  {
    "code": "15bce",
    "name": "Saint-Mathieu",
    "updated_at": "2014-09-22T21:18:56.542939Z",
    "country": "fr",
    "parent": null,
    "longitude": 0.766667008399963,
    "latitude": 45.7000007629395,
    "regions": [
      "1073"
    ]
  },
  {
    "code": "15bcd",
    "name": "Saint-Matré",
    "updated_at": "2014-09-22T21:18:56.517038Z",
    "country": "fr",
    "parent": null,
    "longitude": 1.13332998752594,
    "latitude": 44.4000015258789,
    "regions": [
      "1075"
    ]
  },
  {
    "code": "15bcc",
    "name": "Saint-Maugan",
    "updated_at": "2014-09-22T21:18:56.490504Z",
    "country": "fr",
    "parent": null,
    "longitude": -2.08332991600037,
    "latitude": 48.13330078125,
    "regions": [
      "106d"
    ]
  },
  {
    "code": "15bcb",
    "name": "Saint-Maur",
    "updated_at": "2014-09-22T21:18:56.458079Z",
    "country": "fr",
    "parent": null,
    "longitude": 1.63332998752594,
    "latitude": 46.7999992370605,
    "regions": [
      "106f"
    ]
  },
  {
    "code": "15bca",
    "name": "Saint-Maur-des-Fossés",
    "updated_at": "2014-09-22T21:18:56.421689Z",
    "country": "fr",
    "parent": null,
    "longitude": 2.5,
    "latitude": 48.7999992370605,
    "regions": [
      "116b"
    ]
  },
  {
    "code": "15bc9",
    "name": "Saint-Maurice",
    "updated_at": "2014-09-22T21:18:56.391361Z",
    "country": "fr",
    "parent": null,
    "longitude": 3.2333300113678,
    "latitude": 45.6666984558105,
    "regions": [
      "106c"
    ]
  },
  {
    "code": "15bc8",
    "name": "Saint-Maurice",
    "updated_at": "2014-09-22T21:18:56.352218Z",
    "country": "fr",
    "parent": null,
    "longitude": 2.43333005905151,
    "latitude": 48.8166999816895,
    "regions": [
      "116b"
    ]
  },
  {
    "code": "15bc7",
    "name": "Saint-Maurice-dʼArdèche",
    "updated_at": "2014-09-22T21:18:56.332471Z",
    "country": "fr",
    "parent": null,
    "longitude": 4.40000009536743,
    "latitude": 44.5167007446289,
    "regions": [
      "107a"
    ]
  },
  {
    "code": "15bc6",
    "name": "Saint-Maurice-de-Beynost",
    "updated_at": "2014-09-22T21:18:56.312692Z",
    "country": "fr",
    "parent": null,
    "longitude": 4.96667003631592,
    "latitude": 45.8333015441895,
    "regions": [
      "107a"
    ]
  },
  {
    "code": "15bc5",
    "name": "Saint-Maurice-de-Lignon",
    "updated_at": "2014-09-22T21:18:56.292592Z",
    "country": "fr",
    "parent": null,
    "longitude": 4.15000009536743,
    "latitude": 45.2167015075684,
    "regions": [
      "106c"
    ]
  },
  {
    "code": "15bc4",
    "name": "Saint-Maurice-de-Tavernole",
    "updated_at": "2014-09-22T21:18:56.266708Z",
    "country": "fr",
    "parent": null,
    "longitude": -0.400000005960464,
    "latitude": 45.4832992553711,
    "regions": [
      "1232"
    ]
  },
  {
    "code": "15bc3",
    "name": "Saint-Maurice-dʼIbie",
    "updated_at": "2014-09-22T21:18:56.239972Z",
    "country": "fr",
    "parent": null,
    "longitude": 4.5,
    "latitude": 44.5,
    "regions": [
      "107a"
    ]
  },
  {
    "code": "15bc2",
    "name": "Saint-Maurice-Navacelles",
    "updated_at": "2014-09-22T21:18:56.216525Z",
    "country": "fr",
    "parent": null,
    "longitude": 3.5,
    "latitude": 43.8333015441895,
    "regions": [
      "1072"
    ]
  },
  {
    "code": "15bc1",
    "name": "Saint-Maurice-près-Pionsat",
    "updated_at": "2014-09-22T21:18:56.180231Z",
    "country": "fr",
    "parent": null,
    "longitude": 2.59999990463257,
    "latitude": 46.0666999816895,
    "regions": [
      "106c"
    ]
  },
  {
    "code": "15bc0",
    "name": "Saint-Maurice-sous-les-Côtes",
    "updated_at": "2014-09-22T21:18:56.148249Z",
    "country": "fr",
    "parent": null,
    "longitude": 5.68333005905151,
    "latitude": 49.0167007446289,
    "regions": [
      "1074"
    ]
  },
  {
    "code": "15bbf",
    "name": "Saint-Maurice-sur-Moselle",
    "updated_at": "2014-09-22T21:18:56.100069Z",
    "country": "fr",
    "parent": null,
    "longitude": 6.83333015441895,
    "latitude": 47.86669921875,
    "regions": [
      "1074"
    ]
  },
  {
    "code": "15bbe",
    "name": "Saint-Maximin",
    "updated_at": "2014-09-22T21:18:56.080491Z",
    "country": "fr",
    "parent": null,
    "longitude": 4.44999980926514,
    "latitude": 44.0,
    "regions": []
  },
  {
    "code": "15bbd",
    "name": "Saint-Maximin-la-Sainte-Baume",
    "updated_at": "2014-09-22T21:18:56.060706Z",
    "country": "fr",
    "parent": null,
    "longitude": 5.86667013168335,
    "latitude": 43.4500007629395,
    "regions": [
      "1079"
    ]
  },
  {
    "code": "15bbc",
    "name": "Saint-Mayeux",
    "updated_at": "2014-09-22T21:18:56.040843Z",
    "country": "fr",
    "parent": null,
    "longitude": -3.0,
    "latitude": 48.25,
    "regions": [
      "106d"
    ]
  },
  {
    "code": "15bbb",
    "name": "Saint-Médard-dʼExcideuil",
    "updated_at": "2014-09-22T21:18:55.995400Z",
    "country": "fr",
    "parent": null,
    "longitude": 1.08333003520966,
    "latitude": 45.3333015441895,
    "regions": [
      "106b"
    ]
  },
  {
    "code": "15bba",
    "name": "Saint-Médard-dʼEyrans",
    "updated_at": "2014-09-22T21:18:55.966453Z",
    "country": "fr",
    "parent": null,
    "longitude": -0.516667008399963,
    "latitude": 44.7167015075684,
    "regions": [
      "106b"
    ]
  },
  {
    "code": "15bb9",
    "name": "Saint-Médard-en-Jalles",
    "updated_at": "2014-09-22T21:18:55.937078Z",
    "country": "fr",
    "parent": null,
    "longitude": -0.733332991600037,
    "latitude": 44.9000015258789,
    "regions": [
      "106b"
    ]
  },
  {
    "code": "15bb8",
    "name": "Saint-Méloir-des-Ondes",
    "updated_at": "2014-09-22T21:18:55.871140Z",
    "country": "fr",
    "parent": null,
    "longitude": -1.89999997615814,
    "latitude": 48.6500015258789,
    "regions": [
      "106d"
    ]
  },
  {
    "code": "15bb7",
    "name": "Saint-Même",
    "updated_at": "2014-09-22T21:18:55.841919Z",
    "country": "fr",
    "parent": null,
    "longitude": 5.88332986831665,
    "latitude": 45.4000015258789,
    "regions": []
  },
  {
    "code": "15bb6",
    "name": "Saint-Menoux",
    "updated_at": "2014-09-22T21:18:55.823949Z",
    "country": "fr",
    "parent": null,
    "longitude": 3.15000009536743,
    "latitude": 46.5833015441895,
    "regions": [
      "106c"
    ]
  },
  {
    "code": "15bb5",
    "name": "Saint-Merd-de-Lapleau",
    "updated_at": "2014-09-22T21:18:55.805955Z",
    "country": "fr",
    "parent": null,
    "longitude": 2.08332991600037,
    "latitude": 45.2667007446289,
    "regions": [
      "1073"
    ]
  },
  {
    "code": "15bb4",
    "name": "Saint-Mesmin",
    "updated_at": "2014-09-22T21:18:55.769176Z",
    "country": "fr",
    "parent": null,
    "longitude": 3.93333005905151,
    "latitude": 48.4500007629395,
    "regions": [
      "1070"
    ]
  },
  {
    "code": "15bb3",
    "name": "Saint-Méxant",
    "updated_at": "2014-09-22T21:18:55.749239Z",
    "country": "fr",
    "parent": null,
    "longitude": 1.64999997615814,
    "latitude": 45.2832984924316,
    "regions": [
      "1073"
    ]
  },
  {
    "code": "15bb2",
    "name": "Saint-Mʼhervé",
    "updated_at": "2014-09-22T21:18:55.724129Z",
    "country": "fr",
    "parent": null,
    "longitude": -1.11667001247406,
    "latitude": 48.1833000183105,
    "regions": [
      "106d"
    ]
  },
  {
    "code": "15bb1",
    "name": "Saint-Michel",
    "updated_at": "2014-09-22T21:18:55.700130Z",
    "country": "fr",
    "parent": null,
    "longitude": -1.21667003631592,
    "latitude": 43.13330078125,
    "regions": [
      "106b"
    ]
  },
  {
    "code": "15bb0",
    "name": "Saint-Michel",
    "updated_at": "2014-09-22T21:18:55.672698Z",
    "country": "fr",
    "parent": null,
    "longitude": 5.91666984558105,
    "latitude": 45.3499984741211,
    "regions": [
      "107a"
    ]
  },
  {
    "code": "15baf",
    "name": "Saint-Michel",
    "updated_at": "2014-09-22T21:18:55.637815Z",
    "country": "fr",
    "parent": null,
    "longitude": 5.30000019073486,
    "latitude": 47.7167015075684,
    "regions": [
      "1070"
    ]
  },
  {
    "code": "15bae",
    "name": "Saint-Michel",
    "updated_at": "2014-09-22T21:18:55.602765Z",
    "country": "fr",
    "parent": null,
    "longitude": 4.13332986831665,
    "latitude": 49.9166984558105,
    "regions": []
  },
  {
    "code": "15bad",
    "name": "Saint-Michel-Chef-Chef",
    "updated_at": "2014-09-22T21:18:55.575750Z",
    "country": "fr",
    "parent": null,
    "longitude": -2.15000009536743,
    "latitude": 47.1833000183105,
    "regions": [
      "1077"
    ]
  },
  {
    "code": "15bac",
    "name": "Saint-Michel-de-Dèze",
    "updated_at": "2014-09-22T21:18:55.536793Z",
    "country": "fr",
    "parent": null,
    "longitude": 3.90000009536743,
    "latitude": 44.2332992553711,
    "regions": [
      "1072"
    ]
  },
  {
    "code": "15bab",
    "name": "Saint-Michel-de-Fronsac",
    "updated_at": "2014-09-22T21:18:55.516832Z",
    "country": "fr",
    "parent": null,
    "longitude": -0.31666699051857,
    "latitude": 44.9333000183105,
    "regions": [
      "106b"
    ]
  },
  {
    "code": "15baa",
    "name": "Saint-Michel-de-Lanès",
    "updated_at": "2014-09-22T21:18:55.497024Z",
    "country": "fr",
    "parent": null,
    "longitude": 1.75969994068146,
    "latitude": 43.3241004943848,
    "regions": [
      "1072",
      "1075"
    ]
  },
  {
    "code": "15ba9",
    "name": "Saint-Michel-de-la-Pierre",
    "updated_at": "2014-09-22T21:18:55.476740Z",
    "country": "fr",
    "parent": null,
    "longitude": -1.38332998752594,
    "latitude": 49.13330078125,
    "regions": [
      "1334"
    ]
  },
  {
    "code": "15ba8",
    "name": "Saint-Michel-de-Maurienne",
    "updated_at": "2014-09-22T21:18:55.449899Z",
    "country": "fr",
    "parent": null,
    "longitude": 6.46667003631592,
    "latitude": 45.2167015075684,
    "regions": [
      "107a"
    ]
  },
  {
    "code": "15ba7",
    "name": "Saint-Michel-de-Plélan",
    "updated_at": "2014-09-22T21:18:55.423939Z",
    "country": "fr",
    "parent": null,
    "longitude": -2.21667003631592,
    "latitude": 48.4667015075684,
    "regions": [
      "106d"
    ]
  },
  {
    "code": "15ba6",
    "name": "Saint-Michel-des-Andaines",
    "updated_at": "2014-09-22T21:18:55.393145Z",
    "country": "fr",
    "parent": null,
    "longitude": -0.416667014360428,
    "latitude": 48.5833015441895,
    "regions": [
      "1334"
    ]
  },
  {
    "code": "15ba5",
    "name": "Saint-Michel-des-Loups",
    "updated_at": "2014-09-22T21:18:55.361428Z",
    "country": "fr",
    "parent": null,
    "longitude": -1.53332996368408,
    "latitude": 48.7667007446289,
    "regions": [
      "1334"
    ]
  },
  {
    "code": "15ba4",
    "name": "Saint-Michel-en-Beaumont",
    "updated_at": "2014-09-22T21:18:55.325668Z",
    "country": "fr",
    "parent": null,
    "longitude": 5.90000009536743,
    "latitude": 44.86669921875,
    "regions": []
  },
  {
    "code": "15ba3",
    "name": "Saint-Michel-en-Brenne",
    "updated_at": "2014-09-22T21:18:55.300286Z",
    "country": "fr",
    "parent": null,
    "longitude": 1.16666996479034,
    "latitude": 46.7999992370605,
    "regions": []
  },
  {
    "code": "15ba2",
    "name": "Saint-Michel-Escalus",
    "updated_at": "2014-09-22T21:18:55.282258Z",
    "country": "fr",
    "parent": null,
    "longitude": -1.25,
    "latitude": 43.9000015258789,
    "regions": [
      "106b"
    ]
  },
  {
    "code": "15ba1",
    "name": "Saint-Michel-lʼObservatoire",
    "updated_at": "2014-09-22T21:18:55.264262Z",
    "country": "fr",
    "parent": null,
    "longitude": 5.71667003631592,
    "latitude": 43.9166984558105,
    "regions": [
      "1079"
    ]
  },
  {
    "code": "15ba0",
    "name": "Saint-Michel-sur-Loire",
    "updated_at": "2014-09-22T21:18:55.245403Z",
    "country": "fr",
    "parent": null,
    "longitude": 0.349999994039536,
    "latitude": 47.3166999816895,
    "regions": [
      "106f"
    ]
  },
  {
    "code": "15b9f",
    "name": "Saint-Michel-sur-Orge",
    "updated_at": "2014-09-22T21:18:55.226618Z",
    "country": "fr",
    "parent": null,
    "longitude": 2.29999995231628,
    "latitude": 48.63330078125,
    "regions": [
      "116b"
    ]
  },
  {
    "code": "15b9e",
    "name": "Saint-Michel-sur-Savasse",
    "updated_at": "2014-09-22T21:18:55.203213Z",
    "country": "fr",
    "parent": null,
    "longitude": 5.11667013168335,
    "latitude": 45.1500015258789,
    "regions": [
      "107a"
    ]
  },
  {
    "code": "15b9d",
    "name": "Saint-Mihiel",
    "updated_at": "2014-09-22T21:18:55.174158Z",
    "country": "fr",
    "parent": null,
    "longitude": 5.55000019073486,
    "latitude": 48.9000015258789,
    "regions": [
      "1074"
    ]
  },
  {
    "code": "15b9c",
    "name": "Saint-Molf",
    "updated_at": "2014-09-22T21:18:55.117011Z",
    "country": "fr",
    "parent": null,
    "longitude": -2.41667008399963,
    "latitude": 47.38330078125,
    "regions": [
      "1077"
    ]
  },
  {
    "code": "15b9b",
    "name": "Saint-Montant",
    "updated_at": "2016-02-09T09:32:31.687188Z",
    "country": "fr",
    "parent": null,
    "longitude": 4.61667013168335,
    "latitude": 44.4333000183105,
    "regions": [
      "107a"
    ]
  },
  {
    "code": "15b9a",
    "name": "Saint-Nabor",
    "updated_at": "2014-09-22T21:18:55.050116Z",
    "country": "fr",
    "parent": null,
    "longitude": 7.41666984558105,
    "latitude": 48.4500007629395,
    "regions": [
      "106a"
    ]
  },
  {
    "code": "15b99",
    "name": "Saint-Nabord",
    "updated_at": "2014-09-22T21:18:55.027760Z",
    "country": "fr",
    "parent": null,
    "longitude": 6.58333015441895,
    "latitude": 48.0499992370605,
    "regions": [
      "1074"
    ]
  },
  {
    "code": "15b98",
    "name": "Saint-Nazaire",
    "updated_at": "2014-09-22T21:18:55.007893Z",
    "country": "fr",
    "parent": null,
    "longitude": 4.59999990463257,
    "latitude": 44.2000007629395,
    "regions": [
      "1072",
      "1079"
    ]
  },
  {
    "code": "15b97",
    "name": "Saint-Nazaire",
    "updated_at": "2014-09-22T21:18:54.988201Z",
    "country": "fr",
    "parent": null,
    "longitude": -2.20000004768372,
    "latitude": 47.2832984924316,
    "regions": [
      "1077"
    ]
  },
  {
    "code": "15b96",
    "name": "Saint-Nazaire-de-Ladarez",
    "updated_at": "2014-09-22T21:18:54.968062Z",
    "country": "fr",
    "parent": null,
    "longitude": 3.08332991600037,
    "latitude": 43.5,
    "regions": [
      "1072"
    ]
  },
  {
    "code": "15b95",
    "name": "Saint-Nazaire-en-Royans",
    "updated_at": "2014-09-22T21:18:54.947944Z",
    "country": "fr",
    "parent": null,
    "longitude": 5.25,
    "latitude": 45.0666999816895,
    "regions": [
      "107a"
    ]
  },
  {
    "code": "15b94",
    "name": "Saint-Nectaire",
    "updated_at": "2014-09-22T21:18:54.924827Z",
    "country": "fr",
    "parent": null,
    "longitude": 3.0,
    "latitude": 45.5999984741211,
    "regions": [
      "106c"
    ]
  },
  {
    "code": "15b93",
    "name": "Saint-Nexans",
    "updated_at": "2014-09-22T21:18:54.898914Z",
    "country": "fr",
    "parent": null,
    "longitude": 0.550000011920929,
    "latitude": 44.7999992370605,
    "regions": [
      "106b"
    ]
  },
  {
    "code": "15b92",
    "name": "Saint-Nicolas",
    "updated_at": "2014-09-22T21:18:54.875016Z",
    "country": "fr",
    "parent": null,
    "longitude": 2.78332996368408,
    "latitude": 50.2999992370605,
    "regions": [
      "1076"
    ]
  },
  {
    "code": "15b91",
    "name": "Saint-Nicolas-de-la-Grave",
    "updated_at": "2014-09-22T21:18:54.839497Z",
    "country": "fr",
    "parent": null,
    "longitude": 1.03332996368408,
    "latitude": 44.0666999816895,
    "regions": [
      "1075"
    ]
  },
  {
    "code": "15b90",
    "name": "Saint-Nicolas-de-Port",
    "updated_at": "2014-09-22T21:18:54.804340Z",
    "country": "fr",
    "parent": null,
    "longitude": 6.30000019073486,
    "latitude": 48.63330078125,
    "regions": [
      "1074"
    ]
  },
  {
    "code": "15b8f",
    "name": "Saint-Nicolas-de-Redon",
    "updated_at": "2014-09-22T21:18:54.774096Z",
    "country": "fr",
    "parent": null,
    "longitude": -2.06356000900269,
    "latitude": 47.6442985534668,
    "regions": [
      "1077"
    ]
  },
  {
    "code": "15b8e",
    "name": "Saint-Nicolas-des-Biefs",
    "updated_at": "2014-09-22T21:18:54.754468Z",
    "country": "fr",
    "parent": null,
    "longitude": 3.78332996368408,
    "latitude": 46.0666999816895,
    "regions": [
      "106c"
    ]
  },
  {
    "code": "15b8d",
    "name": "Saint-Nicolas-la-Chapelle",
    "updated_at": "2014-09-22T21:18:54.673765Z",
    "country": "fr",
    "parent": null,
    "longitude": 6.5,
    "latitude": 45.8166999816895,
    "regions": [
      "107a"
    ]
  },
  {
    "code": "15b8c",
    "name": "Saint-Nicolas-lès-Cîteaux",
    "updated_at": "2014-09-22T21:18:54.647863Z",
    "country": "fr",
    "parent": null,
    "longitude": 5.05000019073486,
    "latitude": 47.11669921875,
    "regions": [
      "106e"
    ]
  },
  {
    "code": "15b8b",
    "name": "Saint-Nizier-dʼAzergues",
    "updated_at": "2014-09-22T21:18:54.619355Z",
    "country": "fr",
    "parent": null,
    "longitude": 4.46667003631592,
    "latitude": 46.0833015441895,
    "regions": [
      "107a"
    ]
  },
  {
    "code": "15b8a",
    "name": "Saint-Nizier-sous-Charlieu",
    "updated_at": "2014-09-22T21:18:54.554750Z",
    "country": "fr",
    "parent": null,
    "longitude": 4.13332986831665,
    "latitude": 46.1500015258789,
    "regions": [
      "107a"
    ]
  },
  {
    "code": "15b89",
    "name": "Saint-Oblas",
    "updated_at": "2014-09-22T21:18:54.520637Z",
    "country": "fr",
    "parent": null,
    "longitude": 5.03332996368408,
    "latitude": 45.5666999816895,
    "regions": []
  },
  {
    "code": "15b88",
    "name": "Saint-Omer",
    "updated_at": "2014-09-22T21:18:54.474075Z",
    "country": "fr",
    "parent": null,
    "longitude": 2.25,
    "latitude": 50.75,
    "regions": [
      "1076"
    ]
  },
  {
    "code": "15b87",
    "name": "Saint-Omer-en-Chaussée",
    "updated_at": "2014-09-22T21:18:54.455958Z",
    "country": "fr",
    "parent": null,
    "longitude": 2.0,
    "latitude": 49.5332984924316,
    "regions": [
      "1078"
    ]
  },
  {
    "code": "15b86",
    "name": "Saint-Onen-la-Chapelle",
    "updated_at": "2014-09-22T21:18:54.418604Z",
    "country": "fr",
    "parent": null,
    "longitude": -2.16667008399963,
    "latitude": 48.1666984558105,
    "regions": [
      "106d"
    ]
  },
  {
    "code": "15b85",
    "name": "Saint-Oradoux-de-Chirouze",
    "updated_at": "2014-09-22T21:18:54.398395Z",
    "country": "fr",
    "parent": null,
    "longitude": 2.33332991600037,
    "latitude": 45.7332992553711,
    "regions": [
      "1073"
    ]
  },
  {
    "code": "15b84",
    "name": "Saint-Orens",
    "updated_at": "2014-09-22T21:18:54.372657Z",
    "country": "fr",
    "parent": null,
    "longitude": 0.899999976158142,
    "latitude": 43.7167015075684,
    "regions": [
      "1075"
    ]
  },
  {
    "code": "15b83",
    "name": "Saint-Ost",
    "updated_at": "2014-09-22T21:18:54.346519Z",
    "country": "fr",
    "parent": null,
    "longitude": 0.466666996479034,
    "latitude": 43.38330078125,
    "regions": [
      "1075"
    ]
  },
  {
    "code": "15b82",
    "name": "Saint-Ouen",
    "updated_at": "2014-09-22T21:18:54.317682Z",
    "country": "fr",
    "parent": null,
    "longitude": 2.33332991600037,
    "latitude": 48.9000015258789,
    "regions": [
      "116b"
    ]
  },
  {
    "code": "15b81",
    "name": "Saint-Ouen-de-Mimbré",
    "updated_at": "2014-09-22T21:18:54.249014Z",
    "country": "fr",
    "parent": null,
    "longitude": 0.0500000007450581,
    "latitude": 48.2999992370605,
    "regions": [
      "1077"
    ]
  },
  {
    "code": "15b80",
    "name": "Saint-Ouen-des-Alleux",
    "updated_at": "2014-09-22T21:18:54.222839Z",
    "country": "fr",
    "parent": null,
    "longitude": -1.41666996479034,
    "latitude": 48.3333015441895,
    "regions": [
      "106d"
    ]
  },
  {
    "code": "15b7f",
    "name": "Saint-Ouen-lʼAumône",
    "updated_at": "2014-09-22T21:18:54.185480Z",
    "country": "fr",
    "parent": null,
    "longitude": 2.11666989326477,
    "latitude": 49.0499992370605,
    "regions": [
      "116b"
    ]
  },
  {
    "code": "15b7e",
    "name": "Saint-Ouen-les-Vignes",
    "updated_at": "2014-09-22T21:18:54.166822Z",
    "country": "fr",
    "parent": null,
    "longitude": 1.0,
    "latitude": 47.4667015075684,
    "regions": [
      "106f"
    ]
  },
  {
    "code": "15b7d",
    "name": "Saint-Ouen-sur-Morin",
    "updated_at": "2014-09-22T21:18:54.148286Z",
    "country": "fr",
    "parent": null,
    "longitude": 3.20000004768372,
    "latitude": 48.9000015258789,
    "regions": [
      "116b"
    ]
  },
  {
    "code": "15b7c",
    "name": "Saint-Ours",
    "updated_at": "2014-09-22T21:18:54.126305Z",
    "country": "fr",
    "parent": null,
    "longitude": 6.0,
    "latitude": 45.75,
    "regions": [
      "107a"
    ]
  },
  {
    "code": "15b7b",
    "name": "Saint-Ours",
    "updated_at": "2014-09-22T21:18:54.097785Z",
    "country": "fr",
    "parent": null,
    "longitude": 2.90000009536743,
    "latitude": 45.8499984741211,
    "regions": [
      "106c"
    ]
  },
  {
    "code": "15b7a",
    "name": "Saint-Pabu",
    "updated_at": "2014-09-22T21:18:54.069053Z",
    "country": "fr",
    "parent": null,
    "longitude": -4.59999990463257,
    "latitude": 48.5666999816895,
    "regions": [
      "106d"
    ]
  },
  {
    "code": "15b79",
    "name": "Saint-Pair-sur-Mer",
    "updated_at": "2014-09-22T21:18:54.037819Z",
    "country": "fr",
    "parent": null,
    "longitude": -1.56666994094849,
    "latitude": 48.8166999816895,
    "regions": [
      "1334"
    ]
  },
  {
    "code": "15b78",
    "name": "Saint-Palais",
    "updated_at": "2014-09-22T21:18:54.002085Z",
    "country": "fr",
    "parent": null,
    "longitude": -0.583333015441895,
    "latitude": 45.3166999816895,
    "regions": [
      "106b",
      "1232"
    ]
  },
  {
    "code": "15b77",
    "name": "Saint-Palais-de-Phiolin",
    "updated_at": "2014-09-22T21:18:53.966756Z",
    "country": "fr",
    "parent": null,
    "longitude": -0.600000023841858,
    "latitude": 45.5167007446289,
    "regions": [
      "1232"
    ]
  },
  {
    "code": "15b76",
    "name": "Saint-Palais-sur-Mer",
    "updated_at": "2014-09-22T21:18:53.948707Z",
    "country": "fr",
    "parent": null,
    "longitude": -1.08333003520966,
    "latitude": 45.63330078125,
    "regions": [
      "1232"
    ]
  },
  {
    "code": "15b75",
    "name": "Saint-Pancrace",
    "updated_at": "2014-09-22T21:18:53.910802Z",
    "country": "fr",
    "parent": null,
    "longitude": 6.33333015441895,
    "latitude": 45.2667007446289,
    "regions": [
      "107a"
    ]
  },
  {
    "code": "15b74",
    "name": "Saint-Pandelon",
    "updated_at": "2014-09-22T21:18:53.892648Z",
    "country": "fr",
    "parent": null,
    "longitude": -1.03332996368408,
    "latitude": 43.6666984558105,
    "regions": [
      "106b"
    ]
  },
  {
    "code": "15b73",
    "name": "Saint-Pantaléon",
    "updated_at": "2014-09-22T21:18:53.873956Z",
    "country": "fr",
    "parent": null,
    "longitude": 1.28332996368408,
    "latitude": 44.36669921875,
    "regions": [
      "1075"
    ]
  },
  {
    "code": "15b72",
    "name": "Saint-Pantaléon-de-Larche",
    "updated_at": "2014-09-22T21:18:53.855070Z",
    "country": "fr",
    "parent": null,
    "longitude": 1.45000004768372,
    "latitude": 45.13330078125,
    "regions": [
      "1073"
    ]
  },
  {
    "code": "15b71",
    "name": "Saint-Pantaléon-les-Vignes",
    "updated_at": "2014-09-22T21:18:51.200073Z",
    "country": "fr",
    "parent": null,
    "longitude": 5.03332996368408,
    "latitude": 44.4000015258789,
    "regions": [
      "107a"
    ]
  },
  {
    "code": "15b70",
    "name": "Saint-Papoul",
    "updated_at": "2014-09-22T21:18:51.168231Z",
    "country": "fr",
    "parent": null,
    "longitude": 2.03332996368408,
    "latitude": 43.3333015441895,
    "regions": [
      "1072"
    ]
  },
  {
    "code": "15b6f",
    "name": "Saint-Pardoux",
    "updated_at": "2014-09-22T21:18:51.133510Z",
    "country": "fr",
    "parent": null,
    "longitude": 1.28332996368408,
    "latitude": 46.0499992370605,
    "regions": [
      "1073"
    ]
  },
  {
    "code": "15b6e",
    "name": "Saint-Pardoux-Corbier",
    "updated_at": "2014-09-22T21:18:51.097539Z",
    "country": "fr",
    "parent": null,
    "longitude": 1.45000004768372,
    "latitude": 45.4333000183105,
    "regions": [
      "1073"
    ]
  },
  {
    "code": "15b6d",
    "name": "Saint-Pardoux-lʼOrtigier",
    "updated_at": "2014-09-22T21:18:51.073514Z",
    "country": "fr",
    "parent": null,
    "longitude": 1.56666994094849,
    "latitude": 45.2999992370605,
    "regions": [
      "1073"
    ]
  },
  {
    "code": "15b6c",
    "name": "Saint-Paterne",
    "updated_at": "2014-09-22T21:18:51.054098Z",
    "country": "fr",
    "parent": null,
    "longitude": 0.116667002439499,
    "latitude": 48.4000015258789,
    "regions": [
      "1077"
    ]
  },
  {
    "code": "15b6b",
    "name": "Saint-Paterne-Racan",
    "updated_at": "2014-09-22T21:18:51.034532Z",
    "country": "fr",
    "parent": null,
    "longitude": 0.483332991600037,
    "latitude": 47.5999984741211,
    "regions": [
      "106f"
    ]
  },
  {
    "code": "15b6a",
    "name": "Saint-Patrice",
    "updated_at": "2014-09-22T21:18:51.014560Z",
    "country": "fr",
    "parent": null,
    "longitude": 0.31666699051857,
    "latitude": 47.2832984924316,
    "regions": [
      "106f"
    ]
  },
  {
    "code": "15b69",
    "name": "Saint-Paul-de-Vence",
    "updated_at": "2014-09-22T21:18:50.972908Z",
    "country": "fr",
    "parent": null,
    "longitude": 7.12214756007597,
    "latitude": 43.6970573525908,
    "regions": [
      "1079"
    ]
  },
  {
    "code": "15b68",
    "name": "Saint-Paul",
    "updated_at": "2014-09-22T21:18:50.944412Z",
    "country": "fr",
    "parent": null,
    "longitude": 6.75,
    "latitude": 44.5167007446289,
    "regions": [
      "1079"
    ]
  },
  {
    "code": "15b67",
    "name": "Saint-Paul",
    "updated_at": "2014-09-22T21:18:50.915696Z",
    "country": "fr",
    "parent": null,
    "longitude": 5.88332986831665,
    "latitude": 48.3333015441895,
    "regions": [
      "1074"
    ]
  },
  {
    "code": "15b66",
    "name": "Saint-Paul-aux-Bois",
    "updated_at": "2014-09-22T21:18:50.885177Z",
    "country": "fr",
    "parent": null,
    "longitude": 3.20000004768372,
    "latitude": 49.5332984924316,
    "regions": [
      "1078"
    ]
  },
  {
    "code": "15b65",
    "name": "Saint-Paul-de-Fenouillet",
    "updated_at": "2014-09-22T21:18:50.849111Z",
    "country": "fr",
    "parent": null,
    "longitude": 2.5,
    "latitude": 42.8166999816895,
    "regions": [
      "1072"
    ]
  },
  {
    "code": "15b64",
    "name": "Saint-Paul-dʼEspis",
    "updated_at": "2014-09-22T21:18:50.813824Z",
    "country": "fr",
    "parent": null,
    "longitude": 0.968770980834961,
    "latitude": 44.143798828125,
    "regions": [
      "1075"
    ]
  },
  {
    "code": "15b63",
    "name": "Saint-Paul-dʼIzeaux",
    "updated_at": "2014-09-22T21:18:50.793518Z",
    "country": "fr",
    "parent": null,
    "longitude": 5.43333005905151,
    "latitude": 45.3166999816895,
    "regions": [
      "107a"
    ]
  },
  {
    "code": "15b62",
    "name": "Saint-Paul-dʼOueil",
    "updated_at": "2014-09-22T21:18:50.775185Z",
    "country": "fr",
    "parent": null,
    "longitude": 0.550000011920929,
    "latitude": 42.8333015441895,
    "regions": []
  },
  {
    "code": "15b61",
    "name": "Saint-Paul-du-Bois",
    "updated_at": "2014-09-22T21:18:50.756767Z",
    "country": "fr",
    "parent": null,
    "longitude": -0.550000011920929,
    "latitude": 47.0833015441895,
    "regions": [
      "1077"
    ]
  },
  {
    "code": "15b60",
    "name": "Saint-Paul-en-Born",
    "updated_at": "2014-09-22T21:18:50.738001Z",
    "country": "fr",
    "parent": null,
    "longitude": -1.14999997615814,
    "latitude": 44.2167015075684,
    "regions": [
      "106b"
    ]
  },
  {
    "code": "15b5f",
    "name": "Saint-Paul-en-Chablais",
    "updated_at": "2014-09-22T21:18:50.719397Z",
    "country": "fr",
    "parent": null,
    "longitude": 6.63332986831665,
    "latitude": 46.38330078125,
    "regions": [
      "107a"
    ]
  },
  {
    "code": "15b5e",
    "name": "Saint-Paul-en-Forêt",
    "updated_at": "2014-09-22T21:18:50.693924Z",
    "country": "fr",
    "parent": null,
    "longitude": 6.68333005905151,
    "latitude": 43.5666999816895,
    "regions": [
      "1079"
    ]
  },
  {
    "code": "15b5d",
    "name": "Saint-Paul-le-Jeune",
    "updated_at": "2014-09-22T21:18:50.665555Z",
    "country": "fr",
    "parent": null,
    "longitude": 4.15000009536743,
    "latitude": 44.3333015441895,
    "regions": [
      "107a"
    ]
  },
  {
    "code": "15b5c",
    "name": "Saint-Paul-lès-Dax",
    "updated_at": "2014-09-22T21:18:50.636876Z",
    "country": "fr",
    "parent": null,
    "longitude": -1.04999995231628,
    "latitude": 43.7332992553711,
    "regions": [
      "106b"
    ]
  },
  {
    "code": "15b5b",
    "name": "Saint-Paul-lès-Romans",
    "updated_at": "2014-09-22T21:18:50.569966Z",
    "country": "fr",
    "parent": null,
    "longitude": 5.13332986831665,
    "latitude": 45.0666999816895,
    "regions": [
      "107a"
    ]
  },
  {
    "code": "15b5a",
    "name": "Saint-Paul-lez-Durance",
    "updated_at": "2014-09-22T21:18:50.536336Z",
    "country": "fr",
    "parent": null,
    "longitude": 5.69999980926514,
    "latitude": 43.6833000183105,
    "regions": [
      "1079"
    ]
  },
  {
    "code": "15b59",
    "name": "Saint-Paul-Lizonne",
    "updated_at": "2014-09-22T21:18:50.516858Z",
    "country": "fr",
    "parent": null,
    "longitude": 0.266667008399963,
    "latitude": 45.3166999816895,
    "regions": [
      "106b"
    ]
  },
  {
    "code": "15b58",
    "name": "Saint-Paul-Mont-Penit",
    "updated_at": "2014-09-22T21:18:50.497129Z",
    "country": "fr",
    "parent": null,
    "longitude": -1.66666996479034,
    "latitude": 46.7999992370605,
    "regions": []
  },
  {
    "code": "15b57",
    "name": "Saint-Paul-sur-Yenne",
    "updated_at": "2014-09-22T21:18:50.476887Z",
    "country": "fr",
    "parent": null,
    "longitude": 5.78332996368408,
    "latitude": 45.6833000183105,
    "regions": [
      "107a"
    ]
  },
  {
    "code": "15b56",
    "name": "Saint-Paul-Trois-Châteaux",
    "updated_at": "2014-09-22T21:18:50.456959Z",
    "country": "fr",
    "parent": null,
    "longitude": 4.76667022705078,
    "latitude": 44.3499984741211,
    "regions": [
      "107a"
    ]
  },
  {
    "code": "15b55",
    "name": "Saint-Pée-sur-Nivelle",
    "updated_at": "2014-09-22T21:18:50.437048Z",
    "country": "fr",
    "parent": null,
    "longitude": -1.54999995231628,
    "latitude": 43.3499984741211,
    "regions": [
      "106b"
    ]
  },
  {
    "code": "15b54",
    "name": "Saint-Péray",
    "updated_at": "2014-09-22T21:18:50.411410Z",
    "country": "fr",
    "parent": null,
    "longitude": 4.83333015441895,
    "latitude": 44.9500007629395,
    "regions": [
      "107a"
    ]
  },
  {
    "code": "15b53",
    "name": "Saint-Perdon",
    "updated_at": "2014-09-22T21:18:50.385776Z",
    "country": "fr",
    "parent": null,
    "longitude": -0.583333015441895,
    "latitude": 43.86669921875,
    "regions": [
      "106b"
    ]
  },
  {
    "code": "15b52",
    "name": "Saint-Père",
    "updated_at": "2014-09-22T21:18:50.357581Z",
    "country": "fr",
    "parent": null,
    "longitude": 2.96667003631592,
    "latitude": 47.4166984558105,
    "regions": [
      "106e"
    ]
  },
  {
    "code": "15b51",
    "name": "Saint-Père",
    "updated_at": "2014-09-22T21:18:50.322038Z",
    "country": "fr",
    "parent": null,
    "longitude": 3.7666699886322,
    "latitude": 47.4667015075684,
    "regions": [
      "106e"
    ]
  },
  {
    "code": "15b50",
    "name": "Saint-Pey-de-Castets",
    "updated_at": "2014-09-22T21:18:50.283549Z",
    "country": "fr",
    "parent": null,
    "longitude": -0.0666666999459267,
    "latitude": 44.8166999816895,
    "regions": [
      "106b"
    ]
  },
  {
    "code": "15b4f",
    "name": "Saint-Philbert-de-Bouaine",
    "updated_at": "2014-09-22T21:18:50.254953Z",
    "country": "fr",
    "parent": null,
    "longitude": -1.5166699886322,
    "latitude": 46.9832992553711,
    "regions": [
      "1077"
    ]
  },
  {
    "code": "15b4e",
    "name": "Saint-Philbert-de-Grand-Lieu",
    "updated_at": "2014-09-22T21:18:50.236407Z",
    "country": "fr",
    "parent": null,
    "longitude": -1.63332998752594,
    "latitude": 47.0332984924316,
    "regions": []
  },
  {
    "code": "15b4d",
    "name": "Saint-Philbert-du-Peuple",
    "updated_at": "2014-09-22T21:18:50.216981Z",
    "country": "fr",
    "parent": null,
    "longitude": -0.0500000007450581,
    "latitude": 47.4000015258789,
    "regions": [
      "1077"
    ]
  },
  {
    "code": "15b4c",
    "name": "Saint-Philibert",
    "updated_at": "2014-09-22T21:18:50.198665Z",
    "country": "fr",
    "parent": null,
    "longitude": -3.0,
    "latitude": 47.5833015441895,
    "regions": [
      "106d"
    ]
  },
  {
    "code": "15b4b",
    "name": "Saint-Pierre",
    "updated_at": "2014-09-22T21:18:50.161176Z",
    "country": "fr",
    "parent": null,
    "longitude": 7.46667003631592,
    "latitude": 48.38330078125,
    "regions": [
      "106a"
    ]
  },
  {
    "code": "15b4a",
    "name": "Saint-Pierre-Aigle",
    "updated_at": "2014-09-22T21:18:50.132705Z",
    "country": "fr",
    "parent": null,
    "longitude": 3.18333005905151,
    "latitude": 49.3166999816895,
    "regions": [
      "1078"
    ]
  },
  {
    "code": "15b49",
    "name": "Saint-Pierre-Azif",
    "updated_at": "2014-09-22T21:18:50.104079Z",
    "country": "fr",
    "parent": null,
    "longitude": 0.0500000007450581,
    "latitude": 49.2999992370605,
    "regions": [
      "1334"
    ]
  },
  {
    "code": "15b48",
    "name": "Saint-Pierre-Bois",
    "updated_at": "2014-09-22T21:18:50.073229Z",
    "country": "fr",
    "parent": null,
    "longitude": 7.36667013168335,
    "latitude": 48.3333015441895,
    "regions": [
      "106a"
    ]
  },
  {
    "code": "15b47",
    "name": "Saint-Pierre-Brouck",
    "updated_at": "2014-09-22T21:18:50.035484Z",
    "country": "fr",
    "parent": null,
    "longitude": 2.18333005905151,
    "latitude": 50.9000015258789,
    "regions": [
      "1076",
      "1230"
    ]
  },
  {
    "code": "15b46",
    "name": "Saint-Pierre-Canivet",
    "updated_at": "2014-09-22T21:18:50.001097Z",
    "country": "fr",
    "parent": null,
    "longitude": -0.216666996479034,
    "latitude": 48.9333000183105,
    "regions": [
      "1334"
    ]
  },
  {
    "code": "15b45",
    "name": "Saint-Pierre-dʼAlbigny",
    "updated_at": "2014-09-22T21:18:49.957619Z",
    "country": "fr",
    "parent": null,
    "longitude": 6.15000009536743,
    "latitude": 45.5666999816895,
    "regions": [
      "107a"
    ]
  },
  {
    "code": "15b44",
    "name": "Saint-Pierre-dʼArgençon",
    "updated_at": "2014-09-22T21:18:49.937979Z",
    "country": "fr",
    "parent": null,
    "longitude": 5.69999980926514,
    "latitude": 44.5167007446289,
    "regions": [
      "1079"
    ]
  },
  {
    "code": "15b43",
    "name": "Saint-Pierre-de-Bat",
    "updated_at": "2014-09-22T21:18:49.917872Z",
    "country": "fr",
    "parent": null,
    "longitude": -0.233333006501198,
    "latitude": 44.6666984558105,
    "regions": [
      "106b"
    ]
  },
  {
    "code": "15b42",
    "name": "Saint-Pierre-de-Caubel",
    "updated_at": "2014-09-22T21:18:49.875353Z",
    "country": "fr",
    "parent": null,
    "longitude": 0.533333003520966,
    "latitude": 44.4667015075684,
    "regions": [
      "106b"
    ]
  },
  {
    "code": "15b41",
    "name": "Saint-Pierre-de-Chartreuse",
    "updated_at": "2014-09-22T21:18:49.849162Z",
    "country": "fr",
    "parent": null,
    "longitude": 5.81666994094849,
    "latitude": 45.3333015441895,
    "regions": [
      "107a"
    ]
  },
  {
    "code": "15b40",
    "name": "Saint-Pierre-de-Chignac",
    "updated_at": "2014-09-22T21:18:49.823102Z",
    "country": "fr",
    "parent": null,
    "longitude": 0.850000023841858,
    "latitude": 45.13330078125,
    "regions": [
      "106b"
    ]
  },
  {
    "code": "15b3f",
    "name": "Saint-Pierre-de-Côle",
    "updated_at": "2014-09-22T21:18:49.790932Z",
    "country": "fr",
    "parent": null,
    "longitude": 0.800000011920929,
    "latitude": 45.36669921875,
    "regions": [
      "106b"
    ]
  },
  {
    "code": "15b3e",
    "name": "Saint-Pierre-de-Colombier",
    "updated_at": "2014-09-22T21:18:49.756147Z",
    "country": "fr",
    "parent": null,
    "longitude": 4.26667022705078,
    "latitude": 44.7000007629395,
    "regions": [
      "107a"
    ]
  },
  {
    "code": "15b3d",
    "name": "Franqueville-Saint-Pierre",
    "updated_at": "2014-09-22T21:18:49.720375Z",
    "country": "fr",
    "parent": null,
    "longitude": 1.18333005905151,
    "latitude": 49.4000015258789,
    "regions": [
      "1335"
    ]
  },
  {
    "code": "15b3c",
    "name": "Saint-Pierre-de-Fursac",
    "updated_at": "2014-09-22T21:18:49.679613Z",
    "country": "fr",
    "parent": null,
    "longitude": 1.5166699886322,
    "latitude": 46.1500015258789,
    "regions": [
      "1073"
    ]
  },
  {
    "code": "15b3b",
    "name": "Saint-Pierre-des-Forcats",
    "updated_at": "2014-09-22T21:18:49.637346Z",
    "country": "fr",
    "parent": null,
    "longitude": 2.11666989326477,
    "latitude": 42.5,
    "regions": [
      "1072"
    ]
  },
  {
    "code": "15b3a",
    "name": "Saint-Pierre-dʼEntremont",
    "updated_at": "2014-09-22T21:18:49.595932Z",
    "country": "fr",
    "parent": null,
    "longitude": 5.84999990463257,
    "latitude": 45.4000015258789,
    "regions": [
      "107a"
    ]
  },
  {
    "code": "15b39",
    "name": "Saint-Pierre-de-Plesguen",
    "updated_at": "2014-09-22T21:18:49.567389Z",
    "country": "fr",
    "parent": null,
    "longitude": -1.91666996479034,
    "latitude": 48.4500007629395,
    "regions": [
      "106d"
    ]
  },
  {
    "code": "15b38",
    "name": "Saint-Pierre-de-Rivière",
    "updated_at": "2014-09-22T21:18:49.538710Z",
    "country": "fr",
    "parent": null,
    "longitude": 1.56666994094849,
    "latitude": 42.9667015075684,
    "regions": [
      "1075"
    ]
  },
  {
    "code": "15b37",
    "name": "Saint-Pierre-des-Champs",
    "updated_at": "2014-09-22T21:18:49.504410Z",
    "country": "fr",
    "parent": null,
    "longitude": 2.59999990463257,
    "latitude": 43.0499992370605,
    "regions": [
      "1072"
    ]
  },
  {
    "code": "15b36",
    "name": "Saint-Pierre-des-Corps",
    "updated_at": "2014-09-22T21:18:49.468456Z",
    "country": "fr",
    "parent": null,
    "longitude": 0.733332991600037,
    "latitude": 47.38330078125,
    "regions": [
      "106f"
    ]
  },
  {
    "code": "15b35",
    "name": "Saint-Pierre-des-Nids",
    "updated_at": "2014-09-22T21:18:49.416510Z",
    "country": "fr",
    "parent": null,
    "longitude": -0.100000001490116,
    "latitude": 48.4000015258789,
    "regions": [
      "1077"
    ]
  },
  {
    "code": "15b34",
    "name": "Saint-Pierre-de-Trivisy",
    "updated_at": "2014-09-22T21:18:49.397236Z",
    "country": "fr",
    "parent": null,
    "longitude": 2.43333005905151,
    "latitude": 43.7667007446289,
    "regions": [
      "1075"
    ]
  },
  {
    "code": "15b33",
    "name": "Saint-Pierre-dʼIrube",
    "updated_at": "2014-09-22T21:18:49.360419Z",
    "country": "fr",
    "parent": null,
    "longitude": -1.46667003631592,
    "latitude": 43.4832992553711,
    "regions": [
      "106b"
    ]
  },
  {
    "code": "15b32",
    "name": "Saint-Pierre-dʼOléron",
    "updated_at": "2014-09-22T21:18:49.341813Z",
    "country": "fr",
    "parent": null,
    "longitude": -1.31666994094849,
    "latitude": 45.9500007629395,
    "regions": [
      "1232",
      "136a"
    ]
  },
  {
    "code": "15b31",
    "name": "Saint-Pierre-du-Mont",
    "updated_at": "2014-09-22T21:18:49.318126Z",
    "country": "fr",
    "parent": null,
    "longitude": -0.516667008399963,
    "latitude": 43.88330078125,
    "regions": [
      "106b"
    ]
  },
  {
    "code": "15b30",
    "name": "Saint-Pierre-du-Mont",
    "updated_at": "2014-09-22T21:18:49.289683Z",
    "country": "fr",
    "parent": null,
    "longitude": -0.983332991600037,
    "latitude": 49.4000015258789,
    "regions": []
  },
  {
    "code": "15b2f",
    "name": "Saint-Pierre-du-Perray",
    "updated_at": "2014-09-22T21:18:49.261016Z",
    "country": "fr",
    "parent": null,
    "longitude": 2.5,
    "latitude": 48.61669921875,
    "regions": [
      "116b"
    ]
  },
  {
    "code": "15b2e",
    "name": "Saint-Pierre-du-Val",
    "updated_at": "2014-09-22T21:18:49.225048Z",
    "country": "fr",
    "parent": null,
    "longitude": 0.366667002439499,
    "latitude": 49.4000015258789,
    "regions": [
      "1335"
    ]
  },
  {
    "code": "15b2d",
    "name": "Saint-Pierre-du-Vauvray",
    "updated_at": "2014-09-22T21:18:49.191136Z",
    "country": "fr",
    "parent": null,
    "longitude": 1.21667003631592,
    "latitude": 49.2332992553711,
    "regions": [
      "1335"
    ]
  },
  {
    "code": "15b2c",
    "name": "Saint-Pierre-en-Port",
    "updated_at": "2014-09-22T21:18:49.158865Z",
    "country": "fr",
    "parent": null,
    "longitude": 0.483332991600037,
    "latitude": 49.7999992370605,
    "regions": [
      "1335"
    ]
  },
  {
    "code": "15b2b",
    "name": "Saint-Pierre-Eynac",
    "updated_at": "2014-09-22T21:18:49.140516Z",
    "country": "fr",
    "parent": null,
    "longitude": 4.03332996368408,
    "latitude": 45.0499992370605,
    "regions": [
      "106c"
    ]
  },
  {
    "code": "15b2a",
    "name": "Saint-Pierre-Lafeuille",
    "updated_at": "2014-09-22T21:18:49.122288Z",
    "country": "fr",
    "parent": null,
    "longitude": 1.43333005905151,
    "latitude": 44.5167007446289,
    "regions": [
      "1075"
    ]
  },
  {
    "code": "15b29",
    "name": "Saint-Pierre-la-Garenne",
    "updated_at": "2014-09-22T21:18:49.103723Z",
    "country": "fr",
    "parent": null,
    "longitude": 1.39999997615814,
    "latitude": 49.1500015258789,
    "regions": [
      "1335"
    ]
  },
  {
    "code": "15b28",
    "name": "Saint-Pierre-la-Noaille",
    "updated_at": "2014-09-22T21:18:49.085076Z",
    "country": "fr",
    "parent": null,
    "longitude": 4.09999990463257,
    "latitude": 46.1833000183105,
    "regions": [
      "106e",
      "107a"
    ]
  },
  {
    "code": "15b27",
    "name": "Saint-Pierre-la-Palud",
    "updated_at": "2014-09-22T21:18:49.063657Z",
    "country": "fr",
    "parent": null,
    "longitude": 4.61667013168335,
    "latitude": 45.7832984924316,
    "regions": [
      "107a"
    ]
  },
  {
    "code": "15b26",
    "name": "Saint-Pierre-le-Chastel",
    "updated_at": "2014-09-22T21:18:49.035297Z",
    "country": "fr",
    "parent": null,
    "longitude": 2.84999990463257,
    "latitude": 45.7999992370605,
    "regions": [
      "106c"
    ]
  },
  {
    "code": "15b25",
    "name": "Saint-Pierre-le-Moûtier",
    "updated_at": "2014-09-22T21:18:49.006463Z",
    "country": "fr",
    "parent": null,
    "longitude": 3.11666989326477,
    "latitude": 46.7999992370605,
    "regions": []
  },
  {
    "code": "15b24",
    "name": "Saint-Pierre-les-Bois",
    "updated_at": "2014-09-22T21:18:48.976923Z",
    "country": "fr",
    "parent": null,
    "longitude": 2.28332996368408,
    "latitude": 46.6666984558105,
    "regions": [
      "106f"
    ]
  },
  {
    "code": "15b23",
    "name": "Saint-Pierre-le-Vieux",
    "updated_at": "2014-09-22T21:18:48.941263Z",
    "country": "fr",
    "parent": null,
    "longitude": -0.75,
    "latitude": 46.38330078125,
    "regions": [
      "1077"
    ]
  },
  {
    "code": "15b22",
    "name": "Saint-Pierremont",
    "updated_at": "2014-09-22T21:18:48.903351Z",
    "country": "fr",
    "parent": null,
    "longitude": 6.58333015441895,
    "latitude": 48.4333000183105,
    "regions": [
      "1074"
    ]
  },
  {
    "code": "15b21",
    "name": "Saint-Pierre-Montlimart",
    "updated_at": "2014-09-22T21:18:48.875754Z",
    "country": "fr",
    "parent": null,
    "longitude": -1.03332996368408,
    "latitude": 47.2667007446289,
    "regions": [
      "1077"
    ]
  },
  {
    "code": "15b20",
    "name": "Saint-Pierre-Quiberon",
    "updated_at": "2014-09-22T21:18:48.853375Z",
    "country": "fr",
    "parent": null,
    "longitude": -3.12801003456116,
    "latitude": 47.5153007507324,
    "regions": [
      "106d"
    ]
  },
  {
    "code": "15b1f",
    "name": "Saint-Pierre-sur-Dropt",
    "updated_at": "2014-09-22T21:18:48.833433Z",
    "country": "fr",
    "parent": null,
    "longitude": 0.200000002980232,
    "latitude": 44.63330078125,
    "regions": [
      "106b"
    ]
  },
  {
    "code": "15b1e",
    "name": "Saint Pierre La Mer",
    "updated_at": "2014-09-22T21:18:48.812794Z",
    "country": "fr",
    "parent": null,
    "longitude": 3.20000004768372,
    "latitude": 43.1833000183105,
    "regions": [
      "1072"
    ]
  },
  {
    "code": "15b1d",
    "name": "Saint-Pierre-Toirac",
    "updated_at": "2014-09-22T21:18:48.792805Z",
    "country": "fr",
    "parent": null,
    "longitude": 1.96667003631592,
    "latitude": 44.5332984924316,
    "regions": [
      "1075"
    ]
  },
  {
    "code": "15b1c",
    "name": "Saint-Pierreville",
    "updated_at": "2014-09-22T21:18:48.772449Z",
    "country": "fr",
    "parent": null,
    "longitude": 4.48332977294922,
    "latitude": 44.8166999816895,
    "regions": []
  },
  {
    "code": "15b1b",
    "name": "Saint-Pol-de-Léon",
    "updated_at": "2014-09-22T21:18:48.746736Z",
    "country": "fr",
    "parent": null,
    "longitude": -3.9833300113678,
    "latitude": 48.6833000183105,
    "regions": [
      "106d"
    ]
  },
  {
    "code": "15b1a",
    "name": "Saint-Pol-sur-Mer",
    "updated_at": "2014-09-22T21:18:48.720441Z",
    "country": "fr",
    "parent": null,
    "longitude": 2.34999990463257,
    "latitude": 51.0332984924316,
    "regions": [
      "1076",
      "1230"
    ]
  },
  {
    "code": "15b19",
    "name": "Saint-Pol-sur-Ternoise",
    "updated_at": "2014-09-22T21:18:48.688856Z",
    "country": "fr",
    "parent": null,
    "longitude": 2.33332991600037,
    "latitude": 50.38330078125,
    "regions": [
      "1076"
    ]
  },
  {
    "code": "15b18",
    "name": "Saint-Poncy",
    "updated_at": "2014-09-22T21:18:48.618013Z",
    "country": "fr",
    "parent": null,
    "longitude": 3.18620991706848,
    "latitude": 45.1652984619141,
    "regions": [
      "106c"
    ]
  },
  {
    "code": "15b17",
    "name": "Saint-Pons",
    "updated_at": "2014-09-22T21:18:48.596102Z",
    "country": "fr",
    "parent": null,
    "longitude": 6.63332986831665,
    "latitude": 44.4000015258789,
    "regions": [
      "1079"
    ]
  },
  {
    "code": "15b16",
    "name": "Saint-Pons",
    "updated_at": "2014-09-22T21:18:48.577409Z",
    "country": "fr",
    "parent": null,
    "longitude": 4.58333015441895,
    "latitude": 44.5833015441895,
    "regions": [
      "107a"
    ]
  },
  {
    "code": "15b15",
    "name": "Saint-Pons-la-Calm",
    "updated_at": "2014-09-22T21:18:48.559546Z",
    "country": "fr",
    "parent": null,
    "longitude": 4.55000019073486,
    "latitude": 44.0999984741211,
    "regions": [
      "1072",
      "1079"
    ]
  },
  {
    "code": "15b14",
    "name": "Saint-Pourçain-sur-Sioule",
    "updated_at": "2014-09-22T21:18:48.522260Z",
    "country": "fr",
    "parent": null,
    "longitude": 3.28332996368408,
    "latitude": 46.2999992370605,
    "regions": [
      "106c"
    ]
  },
  {
    "code": "15b13",
    "name": "Saint-Preuil",
    "updated_at": "2014-09-22T21:18:48.500174Z",
    "country": "fr",
    "parent": null,
    "longitude": -0.166666999459267,
    "latitude": 45.5999984741211,
    "regions": [
      "1232"
    ]
  },
  {
    "code": "15b12",
    "name": "Saint-Priest",
    "updated_at": "2014-09-22T21:18:48.448341Z",
    "country": "fr",
    "parent": null,
    "longitude": 4.94999980926514,
    "latitude": 45.7000007629395,
    "regions": [
      "107a"
    ]
  },
  {
    "code": "15b11",
    "name": "Saint-Priest-Bramefant",
    "updated_at": "2014-09-22T21:18:48.415544Z",
    "country": "fr",
    "parent": null,
    "longitude": 3.43333005905151,
    "latitude": 46.0332984924316,
    "regions": [
      "106c"
    ]
  },
  {
    "code": "15b10",
    "name": "Saint-Priest-des-Champs",
    "updated_at": "2014-09-22T21:18:48.380062Z",
    "country": "fr",
    "parent": null,
    "longitude": 2.7666699886322,
    "latitude": 45.9832992553711,
    "regions": [
      "106c"
    ]
  },
  {
    "code": "15b0f",
    "name": "Saint-Priest-en-Jarez",
    "updated_at": "2014-09-22T21:18:48.345040Z",
    "country": "fr",
    "parent": null,
    "longitude": 4.36667013168335,
    "latitude": 45.4667015075684,
    "regions": [
      "107a"
    ]
  },
  {
    "code": "15b0e",
    "name": "Saint-Priest-la-Prugne",
    "updated_at": "2014-09-22T21:18:48.325112Z",
    "country": "fr",
    "parent": null,
    "longitude": 3.75,
    "latitude": 45.9667015075684,
    "regions": [
      "107a"
    ]
  },
  {
    "code": "15b0d",
    "name": "Saint-Privat",
    "updated_at": "2014-09-22T21:18:48.305111Z",
    "country": "fr",
    "parent": null,
    "longitude": 2.09999990463257,
    "latitude": 45.13330078125,
    "regions": [
      "1073"
    ]
  },
  {
    "code": "15b0c",
    "name": "Saint-Privat-dʼAllier",
    "updated_at": "2014-09-22T21:18:48.284783Z",
    "country": "fr",
    "parent": null,
    "longitude": 3.68333005905151,
    "latitude": 44.9832992553711,
    "regions": [
      "106c"
    ]
  },
  {
    "code": "15b0b",
    "name": "Saint-Privat-des-Prés",
    "updated_at": "2014-09-22T21:18:48.245166Z",
    "country": "fr",
    "parent": null,
    "longitude": 0.216666996479034,
    "latitude": 45.2332992553711,
    "regions": [
      "106b"
    ]
  },
  {
    "code": "15b0a",
    "name": "Saint-Privat-du-Dragon",
    "updated_at": "2014-09-22T21:18:48.221025Z",
    "country": "fr",
    "parent": null,
    "longitude": 3.46667003631592,
    "latitude": 45.1833000183105,
    "regions": [
      "106c"
    ]
  },
  {
    "code": "15b09",
    "name": "Saint-Prix",
    "updated_at": "2014-09-22T21:18:48.192461Z",
    "country": "fr",
    "parent": null,
    "longitude": 4.51667022705078,
    "latitude": 44.9500007629395,
    "regions": [
      "107a"
    ]
  },
  {
    "code": "15b08",
    "name": "Saint-Prix",
    "updated_at": "2014-09-22T21:18:48.163552Z",
    "country": "fr",
    "parent": null,
    "longitude": 3.65000009536743,
    "latitude": 46.2332992553711,
    "regions": [
      "106c"
    ]
  },
  {
    "code": "15b07",
    "name": "Saint-Prix",
    "updated_at": "2014-09-22T21:18:48.128922Z",
    "country": "fr",
    "parent": null,
    "longitude": 2.2666699886322,
    "latitude": 49.0167007446289,
    "regions": [
      "116b"
    ]
  },
  {
    "code": "15b06",
    "name": "Saint-Prouant",
    "updated_at": "2014-09-22T21:18:48.064658Z",
    "country": "fr",
    "parent": null,
    "longitude": -0.966666996479034,
    "latitude": 46.7667007446289,
    "regions": [
      "1077"
    ]
  },
  {
    "code": "15b05",
    "name": "Saint-Quay-Portrieux",
    "updated_at": "2014-09-22T21:18:48.044910Z",
    "country": "fr",
    "parent": null,
    "longitude": -2.83332991600037,
    "latitude": 48.6500015258789,
    "regions": [
      "106d"
    ]
  },
  {
    "code": "15b04",
    "name": "Saint-Quentin",
    "updated_at": "2014-09-22T21:18:48.025386Z",
    "country": "fr",
    "parent": null,
    "longitude": 3.28332996368408,
    "latitude": 49.8499984741211,
    "regions": [
      "1078"
    ]
  },
  {
    "code": "15b03",
    "name": "Saint-Quentin-de-Baron",
    "updated_at": "2014-09-22T21:18:48.005553Z",
    "country": "fr",
    "parent": null,
    "longitude": -0.283333003520966,
    "latitude": 44.8166999816895,
    "regions": [
      "106b"
    ]
  },
  {
    "code": "15b02",
    "name": "Saint-Quentin-de-Caplong",
    "updated_at": "2014-09-22T21:18:47.985727Z",
    "country": "fr",
    "parent": null,
    "longitude": 0.150000005960464,
    "latitude": 44.7832984924316,
    "regions": [
      "106b"
    ]
  },
  {
    "code": "15b01",
    "name": "Saint-Quentin-en-Tourmont",
    "updated_at": "2014-09-22T21:18:47.965699Z",
    "country": "fr",
    "parent": null,
    "longitude": 1.58333003520966,
    "latitude": 50.2832984924316,
    "regions": [
      "1078"
    ]
  },
  {
    "code": "15b00",
    "name": "Saint-Quentin-Fallavier",
    "updated_at": "2014-09-22T21:18:47.942178Z",
    "country": "fr",
    "parent": null,
    "longitude": 5.11667013168335,
    "latitude": 45.63330078125,
    "regions": [
      "107a"
    ]
  },
  {
    "code": "15aff",
    "name": "Saint-Quentin-Lamotte-Croix-au-Bailly",
    "updated_at": "2014-09-22T21:18:47.916334Z",
    "country": "fr",
    "parent": null,
    "longitude": 1.45000004768372,
    "latitude": 50.0666999816895,
    "regions": [
      "1078",
      "1335"
    ]
  },
  {
    "code": "15afe",
    "name": "Saint-Quentin-la-Poterie",
    "updated_at": "2014-09-22T21:18:47.892439Z",
    "country": "fr",
    "parent": null,
    "longitude": 4.43333005905151,
    "latitude": 44.0499992370605,
    "regions": [
      "1072",
      "1079"
    ]
  },
  {
    "code": "15afd",
    "name": "Saint-Quentin-sur-Isère",
    "updated_at": "2014-09-22T21:18:47.856869Z",
    "country": "fr",
    "parent": null,
    "longitude": 5.55000019073486,
    "latitude": 45.2832984924316,
    "regions": [
      "107a"
    ]
  },
  {
    "code": "15afc",
    "name": "Saint-Quentin-sur-le-Homme",
    "updated_at": "2014-09-22T21:18:47.821842Z",
    "country": "fr",
    "parent": null,
    "longitude": -1.31666994094849,
    "latitude": 48.6500015258789,
    "regions": [
      "1334"
    ]
  },
  {
    "code": "15afb",
    "name": "Saint-Rambert-dʼAlbon",
    "updated_at": "2014-09-22T21:18:47.773789Z",
    "country": "fr",
    "parent": null,
    "longitude": 4.81666994094849,
    "latitude": 45.2832984924316,
    "regions": [
      "107a"
    ]
  },
  {
    "code": "15afa",
    "name": "Saint-Rambert-en-Bugey",
    "updated_at": "2014-09-22T21:18:47.755728Z",
    "country": "fr",
    "parent": null,
    "longitude": 5.43333005905151,
    "latitude": 45.9500007629395,
    "regions": [
      "107a"
    ]
  },
  {
    "code": "15af9",
    "name": "Saint-Raphaël",
    "updated_at": "2014-09-22T21:18:47.737430Z",
    "country": "fr",
    "parent": null,
    "longitude": 6.76794433591567,
    "latitude": 43.4245995520736,
    "regions": [
      "1079"
    ]
  },
  {
    "code": "15af8",
    "name": "Saint-Raphaël",
    "updated_at": "2014-09-22T21:18:47.718927Z",
    "country": "fr",
    "parent": null,
    "longitude": 1.07365298271179,
    "latitude": 45.3038864135742,
    "regions": [
      "106b"
    ]
  },
  {
    "code": "15af7",
    "name": "Saint-Régis-du-Coin",
    "updated_at": "2014-09-22T21:18:47.700292Z",
    "country": "fr",
    "parent": null,
    "longitude": 4.44999980926514,
    "latitude": 45.2832984924316,
    "regions": [
      "107a"
    ]
  },
  {
    "code": "15af6",
    "name": "Saint-Règle",
    "updated_at": "2014-09-22T21:18:47.671752Z",
    "country": "fr",
    "parent": null,
    "longitude": 1.04999995231628,
    "latitude": 47.4166984558105,
    "regions": [
      "106f"
    ]
  },
  {
    "code": "15af5",
    "name": "Saint-Rémy",
    "updated_at": "2014-09-22T21:18:47.643029Z",
    "country": "fr",
    "parent": null,
    "longitude": 5.16666984558105,
    "latitude": 46.1833000183105,
    "regions": [
      "107a"
    ]
  },
  {
    "code": "15af4",
    "name": "Saint-Rémy",
    "updated_at": "2014-09-22T21:18:47.581863Z",
    "country": "fr",
    "parent": null,
    "longitude": 4.83333015441895,
    "latitude": 46.7667007446289,
    "regions": [
      "106e"
    ]
  },
  {
    "code": "15af3",
    "name": "Saint-Rémy-de-Chargnat",
    "updated_at": "2014-09-22T21:18:47.546543Z",
    "country": "fr",
    "parent": null,
    "longitude": 3.33332991600037,
    "latitude": 45.5167007446289,
    "regions": [
      "106c"
    ]
  },
  {
    "code": "15af2",
    "name": "Saint-Rémy-de-Provence",
    "updated_at": "2014-09-22T21:18:47.518692Z",
    "country": "fr",
    "parent": null,
    "longitude": 4.83333015441895,
    "latitude": 43.7832984924316,
    "regions": [
      "1079"
    ]
  },
  {
    "code": "15af1",
    "name": "Saint-Rémy-du-Plein",
    "updated_at": "2014-09-22T21:18:47.500563Z",
    "country": "fr",
    "parent": null,
    "longitude": -1.56666994094849,
    "latitude": 48.36669921875,
    "regions": [
      "106d"
    ]
  },
  {
    "code": "15af0",
    "name": "Saint-Rémy-lès-Chevreuse",
    "updated_at": "2014-09-22T21:18:47.443776Z",
    "country": "fr",
    "parent": null,
    "longitude": 2.08332991600037,
    "latitude": 48.7000007629395,
    "regions": [
      "116b"
    ]
  },
  {
    "code": "15aef",
    "name": "Saint-Renan",
    "updated_at": "2014-09-22T21:18:47.422329Z",
    "country": "fr",
    "parent": null,
    "longitude": -4.61667013168335,
    "latitude": 48.4333000183105,
    "regions": [
      "106d"
    ]
  },
  {
    "code": "15aee",
    "name": "Saint-Restitut",
    "updated_at": "2014-09-22T21:18:47.397256Z",
    "country": "fr",
    "parent": null,
    "longitude": 4.78332996368408,
    "latitude": 44.3333015441895,
    "regions": [
      "1079",
      "107a"
    ]
  },
  {
    "code": "15aed",
    "name": "Saint-Révérend",
    "updated_at": "2014-09-22T21:18:47.371470Z",
    "country": "fr",
    "parent": null,
    "longitude": -1.83333003520966,
    "latitude": 46.7000007629395,
    "regions": [
      "1077"
    ]
  },
  {
    "code": "15aec",
    "name": "Saint-Riquier",
    "updated_at": "2014-09-22T21:18:47.342893Z",
    "country": "fr",
    "parent": null,
    "longitude": 1.95000004768372,
    "latitude": 50.13330078125,
    "regions": [
      "1078"
    ]
  },
  {
    "code": "15aeb",
    "name": "Saint-Robert",
    "updated_at": "2014-09-22T21:18:47.307294Z",
    "country": "fr",
    "parent": null,
    "longitude": 1.29999995231628,
    "latitude": 45.25,
    "regions": [
      "1073"
    ]
  },
  {
    "code": "15aea",
    "name": "Saint-Romain",
    "updated_at": "2014-09-22T21:18:47.271049Z",
    "country": "fr",
    "parent": null,
    "longitude": 0.150000005960464,
    "latitude": 45.2832984924316,
    "regions": [
      "1232"
    ]
  },
  {
    "code": "15ae9",
    "name": "Saint-Romain-de-Benet",
    "updated_at": "2014-09-22T21:18:47.243757Z",
    "country": "fr",
    "parent": null,
    "longitude": -0.850000023841858,
    "latitude": 45.7000007629395,
    "regions": [
      "1232"
    ]
  },
  {
    "code": "15ae8",
    "name": "Saint-Romain-de-Colbosc",
    "updated_at": "2014-09-22T21:18:47.223414Z",
    "country": "fr",
    "parent": null,
    "longitude": 0.366667002439499,
    "latitude": 49.5332984924316,
    "regions": [
      "1335"
    ]
  },
  {
    "code": "15ae7",
    "name": "Saint-Romain-de-Lerps",
    "updated_at": "2014-09-22T21:18:47.203329Z",
    "country": "fr",
    "parent": null,
    "longitude": 4.80000019073486,
    "latitude": 44.9832992553711,
    "regions": [
      "107a"
    ]
  },
  {
    "code": "15ae6",
    "name": "Saint-Romain-et-Saint-Clément",
    "updated_at": "2014-09-22T21:18:47.182923Z",
    "country": "fr",
    "parent": null,
    "longitude": 0.866666972637177,
    "latitude": 45.4333000183105,
    "regions": [
      "106b"
    ]
  },
  {
    "code": "15ae5",
    "name": "Saint-Romain-la-Motte",
    "updated_at": "2014-09-22T21:18:47.162454Z",
    "country": "fr",
    "parent": null,
    "longitude": 3.9833300113678,
    "latitude": 46.0833015441895,
    "regions": [
      "107a"
    ]
  },
  {
    "code": "15ae4",
    "name": "Saint-Rome-de-Tarn",
    "updated_at": "2014-09-22T21:18:47.116326Z",
    "country": "fr",
    "parent": null,
    "longitude": 2.90000009536743,
    "latitude": 44.0499992370605,
    "regions": [
      "1075"
    ]
  },
  {
    "code": "15ae3",
    "name": "Saint-Saëns",
    "updated_at": "2014-09-22T21:18:47.089919Z",
    "country": "fr",
    "parent": null,
    "longitude": 1.28332996368408,
    "latitude": 49.6666984558105,
    "regions": [
      "1335"
    ]
  },
  {
    "code": "15ae2",
    "name": "Saint-Salvy",
    "updated_at": "2014-09-22T21:18:47.021452Z",
    "country": "fr",
    "parent": null,
    "longitude": 0.43333300948143,
    "latitude": 44.2999992370605,
    "regions": [
      "106b"
    ]
  },
  {
    "code": "15ae1",
    "name": "Saint-Samson-sur-Rance",
    "updated_at": "2014-09-22T21:18:46.964745Z",
    "country": "fr",
    "parent": null,
    "longitude": -2.03332996368408,
    "latitude": 48.5,
    "regions": [
      "106d"
    ]
  },
  {
    "code": "15ae0",
    "name": "Saint-Satur",
    "updated_at": "2014-09-22T21:18:46.923744Z",
    "country": "fr",
    "parent": null,
    "longitude": 2.84999990463257,
    "latitude": 47.3333015441895,
    "regions": [
      "106f"
    ]
  },
  {
    "code": "15adf",
    "name": "Saint-Saturnin",
    "updated_at": "2014-09-22T21:18:46.903538Z",
    "country": "fr",
    "parent": null,
    "longitude": 3.09999990463257,
    "latitude": 45.6500015258789,
    "regions": [
      "106c"
    ]
  },
  {
    "code": "15ade",
    "name": "Saint-Saturnin",
    "updated_at": "2014-09-22T21:18:46.883501Z",
    "country": "fr",
    "parent": null,
    "longitude": 0.150000005960464,
    "latitude": 48.0499992370605,
    "regions": [
      "1077"
    ]
  },
  {
    "code": "15add",
    "name": "Saint-Saturnin-dʼApt",
    "updated_at": "2014-09-22T21:18:46.865131Z",
    "country": "fr",
    "parent": null,
    "longitude": 5.38332986831665,
    "latitude": 43.9333000183105,
    "regions": [
      "1079"
    ]
  },
  {
    "code": "15adc",
    "name": "Saint-Saturnin-du-Bois",
    "updated_at": "2014-09-22T21:18:46.837535Z",
    "country": "fr",
    "parent": null,
    "longitude": -0.666666984558105,
    "latitude": 46.13330078125,
    "regions": [
      "1232"
    ]
  },
  {
    "code": "15adb",
    "name": "Saint-Saturnin-lès-Avignon",
    "updated_at": "2014-09-22T21:18:46.808901Z",
    "country": "fr",
    "parent": null,
    "longitude": 4.93333005905151,
    "latitude": 43.9500007629395,
    "regions": [
      "1079"
    ]
  },
  {
    "code": "15ada",
    "name": "Saint-Saud-Lacoussière",
    "updated_at": "2014-09-22T21:18:46.778391Z",
    "country": "fr",
    "parent": null,
    "longitude": 0.816667020320892,
    "latitude": 45.5332984924316,
    "regions": [
      "106b"
    ]
  },
  {
    "code": "15ad9",
    "name": "Saint-Saulge",
    "updated_at": "2014-09-22T21:18:46.741620Z",
    "country": "fr",
    "parent": null,
    "longitude": 3.5,
    "latitude": 47.0999984741211,
    "regions": [
      "106e"
    ]
  },
  {
    "code": "15ad8",
    "name": "Saint-Sauvant",
    "updated_at": "2014-09-22T21:18:46.706327Z",
    "country": "fr",
    "parent": null,
    "longitude": -0.5,
    "latitude": 45.7332992553711,
    "regions": [
      "1232"
    ]
  },
  {
    "code": "15ad7",
    "name": "Saint-Sauves- dʼAuvergne",
    "updated_at": "2014-09-22T21:18:46.680271Z",
    "country": "fr",
    "parent": null,
    "longitude": 2.68333005905151,
    "latitude": 45.5999984741211,
    "regions": [
      "106c"
    ]
  },
  {
    "code": "15ad6",
    "name": "Saint-Sauveur",
    "updated_at": "2014-09-22T21:18:46.662278Z",
    "country": "fr",
    "parent": null,
    "longitude": 1.39999997615814,
    "latitude": 43.75,
    "regions": [
      "1075"
    ]
  },
  {
    "code": "15ad5",
    "name": "Saint-Sauveur",
    "updated_at": "2014-09-22T21:18:46.644279Z",
    "country": "fr",
    "parent": null,
    "longitude": 0.583333015441895,
    "latitude": 44.86669921875,
    "regions": [
      "106b"
    ]
  },
  {
    "code": "15ad4",
    "name": "Saint-Sauveur-dʼÉmalleville",
    "updated_at": "2014-09-22T21:18:46.606862Z",
    "country": "fr",
    "parent": null,
    "longitude": 0.300000011920929,
    "latitude": 49.5999984741211,
    "regions": [
      "1335"
    ]
  },
  {
    "code": "15ad3",
    "name": "Saint-Sauveur-de-Montagut",
    "updated_at": "2014-09-22T21:18:46.584604Z",
    "country": "fr",
    "parent": null,
    "longitude": 4.58333015441895,
    "latitude": 44.8166999816895,
    "regions": [
      "107a"
    ]
  },
  {
    "code": "15ad2",
    "name": "Saint-Sauveur-en-Puisaye",
    "updated_at": "2014-09-22T21:18:46.558360Z",
    "country": "fr",
    "parent": null,
    "longitude": 3.20000004768372,
    "latitude": 47.61669921875,
    "regions": [
      "106e"
    ]
  },
  {
    "code": "15ad1",
    "name": "Saint-Sauveur-en-Rue",
    "updated_at": "2014-09-22T21:18:46.532167Z",
    "country": "fr",
    "parent": null,
    "longitude": 4.5,
    "latitude": 45.2667007446289,
    "regions": []
  },
  {
    "code": "15ad0",
    "name": "Saint-Sauveur-le-Vicomte",
    "updated_at": "2014-09-22T21:18:46.501680Z",
    "country": "fr",
    "parent": null,
    "longitude": -1.53332996368408,
    "latitude": 49.38330078125,
    "regions": [
      "1334"
    ]
  },
  {
    "code": "15acf",
    "name": "Saint-Sauveur-sur-Tinée",
    "updated_at": "2014-09-22T21:18:46.472592Z",
    "country": "fr",
    "parent": null,
    "longitude": 7.09999990463257,
    "latitude": 44.0833015441895,
    "regions": [
      "1079"
    ]
  },
  {
    "code": "15ace",
    "name": "Saint-Savin",
    "updated_at": "2014-09-22T21:18:46.434747Z",
    "country": "fr",
    "parent": null,
    "longitude": -0.0833332985639572,
    "latitude": 42.9832992553711,
    "regions": [
      "1075"
    ]
  },
  {
    "code": "15acd",
    "name": "Saint-Savinien",
    "updated_at": "2014-09-22T21:18:46.413137Z",
    "country": "fr",
    "parent": null,
    "longitude": -0.683332979679108,
    "latitude": 45.88330078125,
    "regions": [
      "1232"
    ]
  },
  {
    "code": "15acc",
    "name": "Saint-Sébastien-sur-Loire",
    "updated_at": "2014-09-22T21:18:46.394804Z",
    "country": "fr",
    "parent": null,
    "longitude": -1.5,
    "latitude": 47.2167015075684,
    "regions": [
      "1077"
    ]
  },
  {
    "code": "15acb",
    "name": "Saint-Seine",
    "updated_at": "2014-09-22T21:18:46.376589Z",
    "country": "fr",
    "parent": null,
    "longitude": 3.83332991600037,
    "latitude": 46.7332992553711,
    "regions": [
      "106e"
    ]
  },
  {
    "code": "15aca",
    "name": "Saint-Seine-lʼAbbaye",
    "updated_at": "2014-09-22T21:18:46.357749Z",
    "country": "fr",
    "parent": null,
    "longitude": 4.78332996368408,
    "latitude": 47.4333000183105,
    "regions": [
      "106e"
    ]
  },
  {
    "code": "15ac9",
    "name": "Saint-Seine-sur-Vingeanne",
    "updated_at": "2014-09-22T21:18:46.338907Z",
    "country": "fr",
    "parent": null,
    "longitude": 5.43333005905151,
    "latitude": 47.5167007446289,
    "regions": [
      "106e"
    ]
  },
  {
    "code": "15ac8",
    "name": "Saint-Seriès",
    "updated_at": "2014-09-22T21:18:46.315042Z",
    "country": "fr",
    "parent": null,
    "longitude": 4.09999990463257,
    "latitude": 43.7332992553711,
    "regions": [
      "1072"
    ]
  },
  {
    "code": "15ac7",
    "name": "Saint-Sernin-du-Plain",
    "updated_at": "2014-09-22T21:18:46.286605Z",
    "country": "fr",
    "parent": null,
    "longitude": 4.61667013168335,
    "latitude": 46.9000015258789,
    "regions": [
      "106e"
    ]
  },
  {
    "code": "15ac6",
    "name": "Saint-Sernin-sur-Rance",
    "updated_at": "2014-09-22T21:18:46.257877Z",
    "country": "fr",
    "parent": null,
    "longitude": 2.59999990463257,
    "latitude": 43.88330078125,
    "regions": [
      "1075"
    ]
  },
  {
    "code": "15ac5",
    "name": "Saint-Servais",
    "updated_at": "2014-09-22T21:18:46.223367Z",
    "country": "fr",
    "parent": null,
    "longitude": -3.38333010673523,
    "latitude": 48.38330078125,
    "regions": [
      "106d"
    ]
  },
  {
    "code": "15ac4",
    "name": "Saint-Seurin-de-Cadourne",
    "updated_at": "2014-09-22T21:18:46.188150Z",
    "country": "fr",
    "parent": null,
    "longitude": -0.783333003520966,
    "latitude": 45.2832984924316,
    "regions": [
      "106b"
    ]
  },
  {
    "code": "15ac3",
    "name": "Saint-Sever",
    "updated_at": "2014-09-22T21:18:46.136745Z",
    "country": "fr",
    "parent": null,
    "longitude": -0.566667020320892,
    "latitude": 43.7667007446289,
    "regions": [
      "106b"
    ]
  },
  {
    "code": "15ac2",
    "name": "Saint-Sever-de-Rustan",
    "updated_at": "2014-09-22T21:18:46.118558Z",
    "country": "fr",
    "parent": null,
    "longitude": 0.233333006501198,
    "latitude": 43.3499984741211,
    "regions": [
      "1075"
    ]
  },
  {
    "code": "15ac1",
    "name": "Saint-Séverin",
    "updated_at": "2014-09-22T21:18:46.099667Z",
    "country": "fr",
    "parent": null,
    "longitude": 0.25,
    "latitude": 45.3166999816895,
    "regions": [
      "1232"
    ]
  },
  {
    "code": "15ac0",
    "name": "Saint-Siffret",
    "updated_at": "2014-09-22T21:18:46.061874Z",
    "country": "fr",
    "parent": null,
    "longitude": 4.46667003631592,
    "latitude": 44.0167007446289,
    "regions": [
      "1072",
      "1079"
    ]
  },
  {
    "code": "15abf",
    "name": "Saint-Sigismond",
    "updated_at": "2014-09-22T21:18:46.034910Z",
    "country": "fr",
    "parent": null,
    "longitude": 6.63332986831665,
    "latitude": 46.0666999816895,
    "regions": [
      "107a"
    ]
  },
  {
    "code": "15abe",
    "name": "Saint-Siméon",
    "updated_at": "2014-09-22T21:18:45.982302Z",
    "country": "fr",
    "parent": null,
    "longitude": 0.516667008399963,
    "latitude": 49.2832984924316,
    "regions": [
      "1335"
    ]
  },
  {
    "code": "15abd",
    "name": "Saint-Simon-de-Pellouaille",
    "updated_at": "2014-09-22T21:18:45.947254Z",
    "country": "fr",
    "parent": null,
    "longitude": -0.699999988079071,
    "latitude": 45.61669921875,
    "regions": [
      "1232"
    ]
  },
  {
    "code": "15abc",
    "name": "Saint-Sorlin-dʼArves",
    "updated_at": "2014-09-22T21:18:45.912385Z",
    "country": "fr",
    "parent": null,
    "longitude": 6.23332977294922,
    "latitude": 45.2167015075684,
    "regions": [
      "107a"
    ]
  },
  {
    "code": "15abb",
    "name": "Saint-Sozy",
    "updated_at": "2014-09-22T21:18:45.861627Z",
    "country": "fr",
    "parent": null,
    "longitude": 1.56666994094849,
    "latitude": 44.88330078125,
    "regions": [
      "1075"
    ]
  },
  {
    "code": "15aba",
    "name": "Saint-Suliac",
    "updated_at": "2014-09-22T21:18:45.842210Z",
    "country": "fr",
    "parent": null,
    "longitude": -1.96667003631592,
    "latitude": 48.5666999816895,
    "regions": [
      "106d"
    ]
  },
  {
    "code": "15ab9",
    "name": "Saint-Sulpice-de-Faleyrens",
    "updated_at": "2014-09-22T21:18:45.822475Z",
    "country": "fr",
    "parent": null,
    "longitude": -0.183332994580269,
    "latitude": 44.86669921875,
    "regions": [
      "106b"
    ]
  },
  {
    "code": "15ab8",
    "name": "Saint-Sulpice-en-Pareds",
    "updated_at": "2014-09-22T21:18:45.782028Z",
    "country": "fr",
    "parent": null,
    "longitude": -0.833333015441895,
    "latitude": 46.5999984741211,
    "regions": [
      "1077"
    ]
  },
  {
    "code": "15ab7",
    "name": "Saint-Sulpice-et-Cameyrac",
    "updated_at": "2014-09-22T21:18:45.756392Z",
    "country": "fr",
    "parent": null,
    "longitude": -0.400000005960464,
    "latitude": 44.9166984558105,
    "regions": [
      "106b"
    ]
  },
  {
    "code": "15ab6",
    "name": "Saint-Sulpice-le-Verdon",
    "updated_at": "2014-09-22T21:18:45.703840Z",
    "country": "fr",
    "parent": null,
    "longitude": -1.41666996479034,
    "latitude": 46.9000015258789,
    "regions": [
      "1077"
    ]
  },
  {
    "code": "15ab5",
    "name": "Saint-Sylvain",
    "updated_at": "2014-09-22T21:18:45.667636Z",
    "country": "fr",
    "parent": null,
    "longitude": 0.666666984558105,
    "latitude": 49.8499984741211,
    "regions": [
      "1335"
    ]
  },
  {
    "code": "15ab4",
    "name": "Saint-Sylvain-Bellegarde",
    "updated_at": "2014-09-22T21:18:45.631449Z",
    "country": "fr",
    "parent": null,
    "longitude": 2.29999995231628,
    "latitude": 45.9667015075684,
    "regions": []
  },
  {
    "code": "15ab3",
    "name": "Saint-Sylvain-dʼAnjou",
    "updated_at": "2014-09-22T21:18:45.602616Z",
    "country": "fr",
    "parent": null,
    "longitude": -0.466666996479034,
    "latitude": 47.5167007446289,
    "regions": [
      "1077"
    ]
  },
  {
    "code": "15ab2",
    "name": "Saint-Sylvestre",
    "updated_at": "2014-09-22T21:18:45.565438Z",
    "country": "fr",
    "parent": null,
    "longitude": 6.01667022705078,
    "latitude": 45.8333015441895,
    "regions": []
  },
  {
    "code": "15ab1",
    "name": "Saint-Sylvestre-Cappel",
    "updated_at": "2014-09-22T21:18:45.545585Z",
    "country": "fr",
    "parent": null,
    "longitude": 2.54999995231628,
    "latitude": 50.7667007446289,
    "regions": [
      "1076",
      "1230"
    ]
  },
  {
    "code": "15ab0",
    "name": "Saint-Sylvestre-sur-Lot",
    "updated_at": "2014-09-22T21:18:45.525557Z",
    "country": "fr",
    "parent": null,
    "longitude": 0.816667020320892,
    "latitude": 44.4000015258789,
    "regions": [
      "106b"
    ]
  },
  {
    "code": "15aaf",
    "name": "Saint-Symphorien",
    "updated_at": "2014-09-22T21:18:45.505100Z",
    "country": "fr",
    "parent": null,
    "longitude": 1.68333005905151,
    "latitude": 48.5167007446289,
    "regions": [
      "106f"
    ]
  },
  {
    "code": "15aae",
    "name": "Saint-Symphorien",
    "updated_at": "2014-09-22T21:18:45.479211Z",
    "country": "fr",
    "parent": null,
    "longitude": 0.483332991600037,
    "latitude": 49.3166999816895,
    "regions": [
      "1335"
    ]
  },
  {
    "code": "15aad",
    "name": "Saint-Symphorien-de-Marmagne",
    "updated_at": "2014-09-22T21:18:45.452527Z",
    "country": "fr",
    "parent": null,
    "longitude": 4.33333015441895,
    "latitude": 46.8333015441895,
    "regions": [
      "106e"
    ]
  },
  {
    "code": "15aac",
    "name": "Saint-Symphorien-dʼOzon",
    "updated_at": "2014-09-22T21:18:45.389753Z",
    "country": "fr",
    "parent": null,
    "longitude": 4.86667013168335,
    "latitude": 45.63330078125,
    "regions": [
      "107a"
    ]
  },
  {
    "code": "15aab",
    "name": "Saint-Thégonnec",
    "updated_at": "2014-09-22T21:18:45.353432Z",
    "country": "fr",
    "parent": null,
    "longitude": -3.95000004768372,
    "latitude": 48.5167007446289,
    "regions": [
      "106d"
    ]
  },
  {
    "code": "15aaa",
    "name": "Saint-Thibault-des-Vignes",
    "updated_at": "2014-09-22T21:18:45.328415Z",
    "country": "fr",
    "parent": null,
    "longitude": 2.68333005905151,
    "latitude": 48.86669921875,
    "regions": [
      "116b"
    ]
  },
  {
    "code": "15aa9",
    "name": "Saint-Thibéry",
    "updated_at": "2014-09-22T21:18:45.310301Z",
    "country": "fr",
    "parent": null,
    "longitude": 3.41667008399963,
    "latitude": 43.4000015258789,
    "regions": [
      "1072"
    ]
  },
  {
    "code": "15aa8",
    "name": "Saint-Thierry",
    "updated_at": "2014-09-22T21:18:45.292156Z",
    "country": "fr",
    "parent": null,
    "longitude": 3.96667003631592,
    "latitude": 49.2999992370605,
    "regions": [
      "1070"
    ]
  },
  {
    "code": "15aa7",
    "name": "Saint-Thois",
    "updated_at": "2014-09-22T21:18:45.273704Z",
    "country": "fr",
    "parent": null,
    "longitude": -3.88333010673523,
    "latitude": 48.1666984558105,
    "regions": [
      "106d"
    ]
  },
  {
    "code": "15aa6",
    "name": "Saint-Thomas",
    "updated_at": "2014-09-22T21:18:45.254859Z",
    "country": "fr",
    "parent": null,
    "longitude": 1.08333003520966,
    "latitude": 43.5167007446289,
    "regions": [
      "1075"
    ]
  },
  {
    "code": "15aa5",
    "name": "Saint-Thomas-en-Royans",
    "updated_at": "2014-09-22T21:18:45.232955Z",
    "country": "fr",
    "parent": null,
    "longitude": 5.30000019073486,
    "latitude": 45.0499992370605,
    "regions": [
      "107a"
    ]
  },
  {
    "code": "15aa4",
    "name": "Saint-Trinit",
    "updated_at": "2014-09-22T21:18:45.175859Z",
    "country": "fr",
    "parent": null,
    "longitude": 5.46667003631592,
    "latitude": 44.0999984741211,
    "regions": [
      "1079"
    ]
  },
  {
    "code": "15aa3",
    "name": "Saint-Trojan-les-Bains",
    "updated_at": "2014-09-22T21:18:45.113057Z",
    "country": "fr",
    "parent": null,
    "longitude": -1.20000004768372,
    "latitude": 45.8333015441895,
    "regions": [
      "1232",
      "136a"
    ]
  },
  {
    "code": "15aa2",
    "name": "Saint-Tropez",
    "updated_at": "2014-09-22T21:18:45.077935Z",
    "country": "fr",
    "parent": null,
    "longitude": 6.63891983032227,
    "latitude": 43.268798828125,
    "regions": [
      "1079"
    ]
  },
  {
    "code": "15aa1",
    "name": "Saint-Urbain",
    "updated_at": "2014-09-22T21:18:45.054901Z",
    "country": "fr",
    "parent": null,
    "longitude": -2.0166699886322,
    "latitude": 46.86669921875,
    "regions": [
      "1077"
    ]
  },
  {
    "code": "15aa0",
    "name": "Saint-Urcisse",
    "updated_at": "2014-09-22T21:18:45.035439Z",
    "country": "fr",
    "parent": null,
    "longitude": 0.833333015441895,
    "latitude": 44.1666984558105,
    "regions": [
      "106b"
    ]
  },
  {
    "code": "15a9f",
    "name": "Saint-Uze",
    "updated_at": "2014-09-22T21:18:45.015897Z",
    "country": "fr",
    "parent": null,
    "longitude": 4.86667013168335,
    "latitude": 45.1833000183105,
    "regions": [
      "107a"
    ]
  },
  {
    "code": "15a9e",
    "name": "Saint-Vaast-la-Hougue",
    "updated_at": "2014-09-22T21:18:44.995937Z",
    "country": "fr",
    "parent": null,
    "longitude": -1.2666699886322,
    "latitude": 49.5999984741211,
    "regions": [
      "1334"
    ]
  },
  {
    "code": "15a9d",
    "name": "Saint-Vaast-lès-Mello",
    "updated_at": "2014-09-22T21:18:44.976184Z",
    "country": "fr",
    "parent": null,
    "longitude": 2.38333010673523,
    "latitude": 49.2667007446289,
    "regions": [
      "1078"
    ]
  },
  {
    "code": "15a9c",
    "name": "Saint-Vaast-sur-Seulles",
    "updated_at": "2014-09-22T21:18:44.953580Z",
    "country": "fr",
    "parent": null,
    "longitude": -0.633333027362823,
    "latitude": 49.1500015258789,
    "regions": [
      "1334"
    ]
  },
  {
    "code": "15a9b",
    "name": "Saint-Valery-en-Caux",
    "updated_at": "2016-02-09T09:32:30.066146Z",
    "country": "fr",
    "parent": null,
    "longitude": 0.733332991600037,
    "latitude": 49.86669921875,
    "regions": [
      "1335"
    ]
  },
  {
    "code": "15a9a",
    "name": "Saint-Valery-sur-Somme",
    "updated_at": "2016-02-09T09:32:27.428339Z",
    "country": "fr",
    "parent": null,
    "longitude": 1.63332998752594,
    "latitude": 50.1833000183105,
    "regions": [
      "1078"
    ]
  },
  {
    "code": "15a99",
    "name": "Saint-Vallier",
    "updated_at": "2014-09-22T21:18:44.834421Z",
    "country": "fr",
    "parent": null,
    "longitude": 4.36667013168335,
    "latitude": 46.63330078125,
    "regions": [
      "106e"
    ]
  },
  {
    "code": "15a98",
    "name": "Saint-Vallier-de-Thiey",
    "updated_at": "2014-09-22T21:18:44.801484Z",
    "country": "fr",
    "parent": null,
    "longitude": 6.84999990463257,
    "latitude": 43.7000007629395,
    "regions": [
      "1079"
    ]
  },
  {
    "code": "15a97",
    "name": "Saint-Vaury",
    "updated_at": "2014-09-22T21:18:44.783425Z",
    "country": "fr",
    "parent": null,
    "longitude": 1.75,
    "latitude": 46.2000007629395,
    "regions": [
      "1073"
    ]
  },
  {
    "code": "15a96",
    "name": "Saint-Venant",
    "updated_at": "2014-09-22T21:18:44.765370Z",
    "country": "fr",
    "parent": null,
    "longitude": 2.54999995231628,
    "latitude": 50.61669921875,
    "regions": [
      "1076"
    ]
  },
  {
    "code": "15a95",
    "name": "Saint-Véran",
    "updated_at": "2014-09-22T21:18:44.747075Z",
    "country": "fr",
    "parent": null,
    "longitude": 6.86667013168335,
    "latitude": 44.7000007629395,
    "regions": [
      "1079"
    ]
  },
  {
    "code": "15a94",
    "name": "Saint-Vérand",
    "updated_at": "2014-09-22T21:18:44.709886Z",
    "country": "fr",
    "parent": null,
    "longitude": 4.75,
    "latitude": 46.25,
    "regions": [
      "106e"
    ]
  },
  {
    "code": "15a93",
    "name": "Saint-Viance",
    "updated_at": "2014-09-22T21:18:44.683334Z",
    "country": "fr",
    "parent": null,
    "longitude": 1.45000004768372,
    "latitude": 45.2167015075684,
    "regions": []
  },
  {
    "code": "15a92",
    "name": "Saint-Viâtre",
    "updated_at": "2014-09-22T21:18:44.654660Z",
    "country": "fr",
    "parent": null,
    "longitude": 1.93333005905151,
    "latitude": 47.5167007446289,
    "regions": [
      "106f"
    ]
  },
  {
    "code": "15a91",
    "name": "Saint-Victor",
    "updated_at": "2014-09-22T21:18:44.627611Z",
    "country": "fr",
    "parent": null,
    "longitude": 4.66666984558105,
    "latitude": 45.0999984741211,
    "regions": [
      "107a"
    ]
  },
  {
    "code": "15a90",
    "name": "Saint-Victor",
    "updated_at": "2014-09-22T21:18:44.553832Z",
    "country": "fr",
    "parent": null,
    "longitude": 2.61666989326477,
    "latitude": 46.4000015258789,
    "regions": [
      "106c"
    ]
  },
  {
    "code": "15a8f",
    "name": "Saint-Victor-de-Malcap",
    "updated_at": "2014-09-22T21:18:44.525755Z",
    "country": "fr",
    "parent": null,
    "longitude": 4.21667003631592,
    "latitude": 44.25,
    "regions": [
      "1072"
    ]
  },
  {
    "code": "15a8e",
    "name": "Saint-Victor-sur-Loire",
    "updated_at": "2014-09-22T21:18:44.489700Z",
    "country": "fr",
    "parent": null,
    "longitude": 4.25,
    "latitude": 45.4500007629395,
    "regions": [
      "107a"
    ]
  },
  {
    "code": "15a8d",
    "name": "Saint-Vincent-de-Cosse",
    "updated_at": "2014-09-22T21:18:44.452501Z",
    "country": "fr",
    "parent": null,
    "longitude": 1.10000002384186,
    "latitude": 44.8333015441895,
    "regions": [
      "106b"
    ]
  },
  {
    "code": "15a8c",
    "name": "Saint-Vincent-de-Lamontjoie",
    "updated_at": "2014-09-22T21:18:44.433889Z",
    "country": "fr",
    "parent": null,
    "longitude": 0.5,
    "latitude": 44.0833015441895,
    "regions": [
      "106b"
    ]
  },
  {
    "code": "15a8b",
    "name": "Saint-Vincent-de-Paul",
    "updated_at": "2014-09-22T21:18:44.405169Z",
    "country": "fr",
    "parent": null,
    "longitude": -1.0,
    "latitude": 43.75,
    "regions": [
      "106b"
    ]
  },
  {
    "code": "15a8a",
    "name": "Saint-Vincent-de-Pertignas",
    "updated_at": "2014-09-22T21:18:44.376488Z",
    "country": "fr",
    "parent": null,
    "longitude": -0.116667002439499,
    "latitude": 44.7999992370605,
    "regions": [
      "106b"
    ]
  },
  {
    "code": "15a89",
    "name": "Saint-Vincent-la-Châtre",
    "updated_at": "2014-09-22T21:18:44.345944Z",
    "country": "fr",
    "parent": null,
    "longitude": -0.0333333015441895,
    "latitude": 46.2167015075684,
    "regions": [
      "1232"
    ]
  },
  {
    "code": "15a88",
    "name": "Saint-Vincent-les-Forts",
    "updated_at": "2014-09-22T21:18:44.312681Z",
    "country": "fr",
    "parent": null,
    "longitude": 6.38332986831665,
    "latitude": 44.4500007629395,
    "regions": [
      "1079"
    ]
  },
  {
    "code": "15a87",
    "name": "Saint-Vincent-Sterlanges",
    "updated_at": "2014-09-22T21:18:44.276978Z",
    "country": "fr",
    "parent": null,
    "longitude": -1.08333003520966,
    "latitude": 46.7332992553711,
    "regions": [
      "1077"
    ]
  },
  {
    "code": "15a86",
    "name": "Saint-Vincent-sur-Jard",
    "updated_at": "2014-09-22T21:18:44.248418Z",
    "country": "fr",
    "parent": null,
    "longitude": -1.54999995231628,
    "latitude": 46.4166984558105,
    "regions": [
      "1077"
    ]
  },
  {
    "code": "15a85",
    "name": "Saint-Vivien-de-Médoc",
    "updated_at": "2014-09-22T21:18:44.228818Z",
    "country": "fr",
    "parent": null,
    "longitude": -1.03332996368408,
    "latitude": 45.4333000183105,
    "regions": [
      "106b"
    ]
  },
  {
    "code": "15a84",
    "name": "Saint-Vulbas",
    "updated_at": "2014-09-22T21:18:44.209036Z",
    "country": "fr",
    "parent": null,
    "longitude": 5.28332996368408,
    "latitude": 45.8333015441895,
    "regions": [
      "107a"
    ]
  },
  {
    "code": "15a83",
    "name": "Saint-Witz",
    "updated_at": "2014-09-22T21:18:44.188826Z",
    "country": "fr",
    "parent": null,
    "longitude": 2.56666994094849,
    "latitude": 49.0833015441895,
    "regions": [
      "116b"
    ]
  },
  {
    "code": "15a82",
    "name": "Saint-Yorre",
    "updated_at": "2014-09-22T21:18:44.168709Z",
    "country": "fr",
    "parent": null,
    "longitude": 3.46667003631592,
    "latitude": 46.0666999816895,
    "regions": [
      "106c"
    ]
  },
  {
    "code": "15a81",
    "name": "Saint-Yrieix-la-Perche",
    "updated_at": "2014-09-22T21:18:44.146346Z",
    "country": "fr",
    "parent": null,
    "longitude": 1.20000004768372,
    "latitude": 45.5167007446289,
    "regions": [
      "1073"
    ]
  },
  {
    "code": "15a80",
    "name": "Saint-Yrieix-sur-Charente",
    "updated_at": "2014-09-22T21:18:44.120236Z",
    "country": "fr",
    "parent": null,
    "longitude": 0.116667002439499,
    "latitude": 45.6833000183105,
    "regions": [
      "1232"
    ]
  },
  {
    "code": "15a7f",
    "name": "Saint-Yzans-de-Médoc",
    "updated_at": "2014-09-22T21:18:44.094189Z",
    "country": "fr",
    "parent": null,
    "longitude": -0.816667020320892,
    "latitude": 45.3166999816895,
    "regions": []
  },
  {
    "code": "15a7e",
    "name": "Saint-Zacharie",
    "updated_at": "2014-09-22T21:18:44.066486Z",
    "country": "fr",
    "parent": null,
    "longitude": 5.71667003631592,
    "latitude": 43.38330078125,
    "regions": [
      "1079"
    ]
  },
  {
    "code": "15a7d",
    "name": "Saissac",
    "updated_at": "2014-09-22T21:18:44.030919Z",
    "country": "fr",
    "parent": null,
    "longitude": 2.16667008399963,
    "latitude": 43.36669921875,
    "regions": [
      "1072"
    ]
  },
  {
    "code": "15a7c",
    "name": "Saix",
    "updated_at": "2014-09-22T21:18:43.992503Z",
    "country": "fr",
    "parent": null,
    "longitude": 2.18333005905151,
    "latitude": 43.5833015441895,
    "regions": [
      "1075"
    ]
  },
  {
    "code": "15a7b",
    "name": "Saix",
    "updated_at": "2014-09-22T21:18:43.968668Z",
    "country": "fr",
    "parent": null,
    "longitude": 0.0,
    "latitude": 47.13330078125,
    "regions": [
      "1232"
    ]
  },
  {
    "code": "15a7a",
    "name": "Sajas",
    "updated_at": "2014-09-22T21:18:43.950506Z",
    "country": "fr",
    "parent": null,
    "longitude": 1.0166699886322,
    "latitude": 43.36669921875,
    "regions": [
      "1075"
    ]
  },
  {
    "code": "15a79",
    "name": "Salaise-sur-Sanne",
    "updated_at": "2014-09-22T21:18:43.932159Z",
    "country": "fr",
    "parent": null,
    "longitude": 4.81666994094849,
    "latitude": 45.3333015441895,
    "regions": [
      "107a"
    ]
  },
  {
    "code": "15a78",
    "name": "Salavas",
    "updated_at": "2014-09-22T21:18:43.910212Z",
    "country": "fr",
    "parent": null,
    "longitude": 4.38332986831665,
    "latitude": 44.4000015258789,
    "regions": [
      "107a"
    ]
  },
  {
    "code": "15a77",
    "name": "Salazac",
    "updated_at": "2014-09-22T21:18:43.890330Z",
    "country": "fr",
    "parent": null,
    "longitude": 4.51667022705078,
    "latitude": 44.2667007446289,
    "regions": []
  },
  {
    "code": "15a76",
    "name": "Salbris",
    "updated_at": "2014-09-22T21:18:43.868150Z",
    "country": "fr",
    "parent": null,
    "longitude": 2.04999995231628,
    "latitude": 47.4333000183105,
    "regions": [
      "106f"
    ]
  },
  {
    "code": "15a75",
    "name": "Salses-le-Chateau",
    "updated_at": "2014-09-22T21:18:43.844383Z",
    "country": "fr",
    "parent": null,
    "longitude": 2.91667008399963,
    "latitude": 42.8333015441895,
    "regions": [
      "1072"
    ]
  },
  {
    "code": "15a74",
    "name": "Saleilles",
    "updated_at": "2014-09-22T21:18:43.818164Z",
    "country": "fr",
    "parent": null,
    "longitude": 2.95000004768372,
    "latitude": 42.6500015258789,
    "regions": [
      "1072"
    ]
  },
  {
    "code": "15a73",
    "name": "Salernes",
    "updated_at": "2014-09-22T21:18:43.749616Z",
    "country": "fr",
    "parent": null,
    "longitude": 6.23332977294922,
    "latitude": 43.5499992370605,
    "regions": [
      "1079"
    ]
  },
  {
    "code": "15a72",
    "name": "Salers",
    "updated_at": "2014-09-22T21:18:43.714281Z",
    "country": "fr",
    "parent": null,
    "longitude": 2.5,
    "latitude": 45.13330078125,
    "regions": [
      "106c"
    ]
  },
  {
    "code": "15a71",
    "name": "Saliers",
    "updated_at": "2014-09-22T21:18:43.694976Z",
    "country": "fr",
    "parent": null,
    "longitude": 4.48332977294922,
    "latitude": 43.6666984558105,
    "regions": [
      "1079"
    ]
  },
  {
    "code": "15a70",
    "name": "Salies-de-Béarn",
    "updated_at": "2014-09-22T21:18:43.675719Z",
    "country": "fr",
    "parent": null,
    "longitude": -0.916666984558105,
    "latitude": 43.4832992553711,
    "regions": [
      "106b"
    ]
  },
  {
    "code": "15a6f",
    "name": "Salies-du-Salat",
    "updated_at": "2014-09-22T21:18:43.655783Z",
    "country": "fr",
    "parent": null,
    "longitude": 0.949999988079071,
    "latitude": 43.11669921875,
    "regions": [
      "1075"
    ]
  },
  {
    "code": "15a6e",
    "name": "Salignac-sur-Charente",
    "updated_at": "2014-09-22T21:18:43.636766Z",
    "country": "fr",
    "parent": null,
    "longitude": -0.416667014360428,
    "latitude": 45.6666984558105,
    "regions": [
      "1232"
    ]
  },
  {
    "code": "15a6d",
    "name": "Salin-de-Giraud",
    "updated_at": "2014-09-22T21:18:43.618601Z",
    "country": "fr",
    "parent": null,
    "longitude": 4.73332977294922,
    "latitude": 43.4166984558105,
    "regions": [
      "1079"
    ]
  },
  {
    "code": "15a6c",
    "name": "Salins",
    "updated_at": "2014-09-22T21:18:43.594833Z",
    "country": "fr",
    "parent": null,
    "longitude": 3.0166699886322,
    "latitude": 48.4166984558105,
    "regions": [
      "116b"
    ]
  },
  {
    "code": "15a6b",
    "name": "Salins-les-Bains",
    "updated_at": "2014-09-22T21:18:43.566722Z",
    "country": "fr",
    "parent": null,
    "longitude": 5.88332986831665,
    "latitude": 46.9500007629395,
    "regions": [
      "1071"
    ]
  },
  {
    "code": "15a6a",
    "name": "Salives",
    "updated_at": "2014-09-22T21:18:43.500968Z",
    "country": "fr",
    "parent": null,
    "longitude": 4.90000009536743,
    "latitude": 47.61669921875,
    "regions": [
      "106e"
    ]
  },