[
  {
    "code": "207ce",
    "name": "Lehen",
    "updated_at": "2016-02-09T09:32:13.237527Z",
    "country": "at",
    "parent": "1318b",
    "longitude": 13.0319859525923,
    "latitude": 47.8117049839263,
    "regions": []
  },
  {
    "code": "207cd",
    "name": "Maxglan",
    "updated_at": "2016-02-09T09:32:13.245785Z",
    "country": "at",
    "parent": "1318b",
    "longitude": 13.021874325272,
    "latitude": 47.7991443975118,
    "regions": []
  },
  {
    "code": "207cc",
    "name": "Nonntal",
    "updated_at": "2016-02-09T09:32:08.022135Z",
    "country": "at",
    "parent": "1318b",
    "longitude": 13.0534791731347,
    "latitude": 47.7919011117538,
    "regions": []
  },
  {
    "code": "207cb",
    "name": "Altstadt",
    "updated_at": "2016-02-09T09:32:13.385817Z",
    "country": "at",
    "parent": "1318b",
    "longitude": 13.0442183566449,
    "latitude": 47.7990031753429,
    "regions": []
  },
  {
    "code": "207ca",
    "name": "Rohrmoos",
    "updated_at": "2014-09-18T06:50:01.801338Z",
    "country": "at",
    "parent": "13125",
    "longitude": 13.6733208235897,
    "latitude": 47.3805792960299,
    "regions": []
  },
  {
    "code": "207c9",
    "name": "Zwieselstein",
    "updated_at": "2016-02-09T09:32:08.091472Z",
    "country": "at",
    "parent": "130ed",
    "longitude": 11.027833639658,
    "latitude": 46.9385596197421,
    "regions": []
  },
  {
    "code": "207c8",
    "name": "Huben",
    "updated_at": "2016-02-09T09:32:08.099820Z",
    "country": "at",
    "parent": "130ed",
    "longitude": 10.9760619,
    "latitude": 47.0379302,
    "regions": []
  },
  {
    "code": "207c7",
    "name": "23. Liesing",
    "updated_at": "2016-02-09T09:32:13.305170Z",
    "country": "at",
    "parent": "13035",
    "longitude": 16.300019144974,
    "latitude": 48.1456375269762,
    "regions": []
  },
  {
    "code": "207c6",
    "name": "22. Donaustadt",
    "updated_at": "2016-02-09T09:32:08.079578Z",
    "country": "at",
    "parent": "13035",
    "longitude": 16.4401378092136,
    "latitude": 48.2411218191057,
    "regions": []
  },
  {
    "code": "207c5",
    "name": "21. Floridsdorf",
    "updated_at": "2016-02-09T09:32:13.286088Z",
    "country": "at",
    "parent": "13035",
    "longitude": 16.4032621981695,
    "latitude": 48.2714101378607,
    "regions": []
  },
  {
    "code": "207c4",
    "name": "20. Brigittenau",
    "updated_at": "2016-02-09T09:32:13.297235Z",
    "country": "at",
    "parent": "13035",
    "longitude": 16.3748544021713,
    "latitude": 48.2331149182695,
    "regions": []
  },
  {
    "code": "207c3",
    "name": "19. Döbling",
    "updated_at": "2016-02-09T09:32:13.269797Z",
    "country": "at",
    "parent": "13035",
    "longitude": 16.3406460375638,
    "latitude": 48.2482944333939,
    "regions": []
  },
  {
    "code": "207c2",
    "name": "18. Währing",
    "updated_at": "2016-02-09T09:32:13.277851Z",
    "country": "at",
    "parent": "13035",
    "longitude": 16.3361958613532,
    "latitude": 48.2270683517606,
    "regions": []
  },
  {
    "code": "207c1",
    "name": "17. Hernals",
    "updated_at": "2016-02-09T09:32:13.261791Z",
    "country": "at",
    "parent": "13035",
    "longitude": 16.3264360187214,
    "latitude": 48.2187070823493,
    "regions": []
  },
  {
    "code": "207c0",
    "name": "16. Ottakring",
    "updated_at": "2016-02-09T09:32:08.071613Z",
    "country": "at",
    "parent": "13035",
    "longitude": 16.3187745611264,
    "latitude": 48.2126147773907,
    "regions": []
  },
  {
    "code": "207bf",
    "name": "15. Rudolfsheim-Fünfhaus",
    "updated_at": "2016-02-09T09:32:05.715379Z",
    "country": "at",
    "parent": "13035",
    "longitude": 16.3293369226133,
    "latitude": 48.1948687548687,
    "regions": []
  },
  {
    "code": "207be",
    "name": "14. Penzing",
    "updated_at": "2016-02-09T09:32:15.691834Z",
    "country": "at",
    "parent": "13035",
    "longitude": 16.2846015104227,
    "latitude": 48.198536387645,
    "regions": []
  },
  {
    "code": "207bd",
    "name": "13. Hietzing",
    "updated_at": "2016-02-09T09:32:05.723342Z",
    "country": "at",
    "parent": "13035",
    "longitude": 16.2823792755815,
    "latitude": 48.1830907783902,
    "regions": []
  },
  {
    "code": "207bc",
    "name": "12. Meidling",
    "updated_at": "2016-02-09T09:32:05.687166Z",
    "country": "at",
    "parent": "13035",
    "longitude": 16.3275808608904,
    "latitude": 48.1793044960684,
    "regions": []
  },
  {
    "code": "207bb",
    "name": "11. Simmering",
    "updated_at": "2016-02-09T09:32:15.393865Z",
    "country": "at",
    "parent": "13035",
    "longitude": 16.420764433501,
    "latitude": 48.1734923845834,
    "regions": []
  },
  {
    "code": "207ba",
    "name": "10. Favoriten",
    "updated_at": "2016-02-09T09:32:05.707057Z",
    "country": "at",
    "parent": "13035",
    "longitude": 16.3792253668776,
    "latitude": 48.1654580513177,
    "regions": []
  },
  {
    "code": "207b9",
    "name": "09. Alsergrund",
    "updated_at": "2016-02-09T09:32:14.752374Z",
    "country": "at",
    "parent": "13035",
    "longitude": 16.3572035654065,
    "latitude": 48.2214356995017,
    "regions": []
  },
  {
    "code": "207b8",
    "name": "08. Josefstadt",
    "updated_at": "2016-02-09T09:32:08.552531Z",
    "country": "at",
    "parent": "13035",
    "longitude": 16.3500763089565,
    "latitude": 48.2110661178779,
    "regions": []
  },
  {
    "code": "207b7",
    "name": "07. Neubau",
    "updated_at": "2016-02-09T09:32:05.574407Z",
    "country": "at",
    "parent": "13035",
    "longitude": 16.3463833701875,
    "latitude": 48.2019007904325,
    "regions": []
  },
  {
    "code": "207b6",
    "name": "06. Mariahilf",
    "updated_at": "2016-02-09T09:32:14.546916Z",
    "country": "at",
    "parent": "13035",
    "longitude": 16.3495007668162,
    "latitude": 48.1951614169095,
    "regions": []
  },
  {
    "code": "207b5",
    "name": "05. Margareten",
    "updated_at": "2016-02-09T09:32:14.630049Z",
    "country": "at",
    "parent": "13035",
    "longitude": 16.3564083475374,
    "latitude": 48.1880959510551,
    "regions": []
  },
  {
    "code": "207b4",
    "name": "04. Wieden",
    "updated_at": "2016-02-09T09:32:04.717377Z",
    "country": "at",
    "parent": "13035",
    "longitude": 16.3692982739475,
    "latitude": 48.1933170478733,
    "regions": []
  },
  {
    "code": "207b3",
    "name": "03. Landstraße",
    "updated_at": "2016-02-09T09:32:04.708369Z",
    "country": "at",
    "parent": "13035",
    "longitude": 16.3920369167382,
    "latitude": 48.1987609343937,
    "regions": []
  },
  {
    "code": "207b2",
    "name": "02. Leopoldstadt",
    "updated_at": "2016-02-09T09:32:14.505443Z",
    "country": "at",
    "parent": "13035",
    "longitude": 16.3869888977643,
    "latitude": 48.2183900709845,
    "regions": []
  },
  {
    "code": "207b1",
    "name": "01. Innere Stadt",
    "updated_at": "2016-02-09T09:32:14.530834Z",
    "country": "at",
    "parent": "13035",
    "longitude": 16.3717209599312,
    "latitude": 48.2089074896786,
    "regions": []
  },
  {
    "code": "207b0",
    "name": "Gandhi nagar",
    "updated_at": "2014-09-18T06:49:55.980545Z",
    "country": "in",
    "parent": "12fa1",
    "longitude": 77.578111788349,
    "latitude": 12.9806792504273,
    "regions": []
  },
  {
    "code": "207af",
    "name": "Indiranagar",
    "updated_at": "2014-09-13T16:54:22.650626Z",
    "country": "in",
    "parent": "12fa1",
    "longitude": 77.6418064703751,
    "latitude": 12.964782667293,
    "regions": []
  },
  {
    "code": "207ae",
    "name": "Koramangala",
    "updated_at": "2014-09-13T16:54:22.541278Z",
    "country": "in",
    "parent": "12fa1",
    "longitude": 77.6260094952824,
    "latitude": 12.9326087764391,
    "regions": []
  },
  {
    "code": "207ad",
    "name": "Whitefield",
    "updated_at": "2014-09-19T12:28:49.142826Z",
    "country": "in",
    "parent": "12fa1",
    "longitude": 77.7321121169279,
    "latitude": 12.9785686774416,
    "regions": []
  },
  {
    "code": "207ac",
    "name": "Electronic City",
    "updated_at": "2014-09-13T16:54:22.266533Z",
    "country": "in",
    "parent": "12fa1",
    "longitude": 77.6678802073002,
    "latitude": 12.837549991565,
    "regions": []
  },
  {
    "code": "207ab",
    "name": "Western Suburbs",
    "updated_at": "2014-09-19T12:28:48.995939Z",
    "country": "in",
    "parent": "12f7b",
    "longitude": 72.8571946922281,
    "latitude": 19.1080408855765,
    "regions": []
  },
  {
    "code": "207aa",
    "name": "Central",
    "updated_at": "2016-02-09T09:32:15.336538Z",
    "country": "in",
    "parent": "12f7b",
    "longitude": 72.8432247672564,
    "latitude": 19.0063217015733,
    "regions": []
  },
  {
    "code": "207a9",
    "name": "Central Suburbs",
    "updated_at": "2016-02-09T09:32:17.275902Z",
    "country": "in",
    "parent": "12f7b",
    "longitude": 72.9054666121891,
    "latitude": 19.0935274776271,
    "regions": []
  },
  {
    "code": "207a8",
    "name": "South Mumbai",
    "updated_at": "2016-02-09T09:32:15.370148Z",
    "country": "in",
    "parent": "12f7b",
    "longitude": 72.8265619511546,
    "latitude": 18.9387292906687,
    "regions": []
  },
  {
    "code": "207a7",
    "name": "Secunderabad",
    "updated_at": "2014-09-13T16:54:21.170305Z",
    "country": "in",
    "parent": "12f02",
    "longitude": 78.4938545181326,
    "latitude": 17.4394268529141,
    "regions": []
  },
  {
    "code": "207a6",
    "name": "Pallavaram",
    "updated_at": "2014-09-13T16:54:20.913017Z",
    "country": "in",
    "parent": "12e93",
    "longitude": 80.1485985344592,
    "latitude": 12.9682274645482,
    "regions": []
  },
  {
    "code": "207a5",
    "name": "Guindy",
    "updated_at": "2014-09-13T16:54:20.858458Z",
    "country": "in",
    "parent": "12e93",
    "longitude": 80.2204426284191,
    "latitude": 13.0074217543314,
    "regions": []
  },
  {
    "code": "207a4",
    "name": "T - Nagar",
    "updated_at": "2014-09-13T16:54:20.772254Z",
    "country": "in",
    "parent": "12e93",
    "longitude": 80.2382499189083,
    "latitude": 13.0425808735861,
    "regions": []
  },
  {
    "code": "207a3",
    "name": "South West",
    "updated_at": "2016-02-09T09:32:15.377747Z",
    "country": "in",
    "parent": "12e5c",
    "longitude": 77.0824762619673,
    "latitude": 28.5681646523826,
    "regions": []
  },
  {
    "code": "207a2",
    "name": "East Delhi",
    "updated_at": "2016-02-09T09:32:17.284064Z",
    "country": "in",
    "parent": "12e5c",
    "longitude": 77.302004096896,
    "latitude": 28.6374897956598,
    "regions": []
  },
  {
    "code": "207a1",
    "name": "Paharganj",
    "updated_at": "2016-02-09T09:32:15.385547Z",
    "country": "in",
    "parent": "12e5c",
    "longitude": 77.213673626174,
    "latitude": 28.6445789852738,
    "regions": []
  },
  {
    "code": "207a0",
    "name": "North Delhi",
    "updated_at": "2016-02-09T09:32:09.554966Z",
    "country": "in",
    "parent": "12e5c",
    "longitude": 77.2008594362369,
    "latitude": 28.6709932310235,
    "regions": []
  },
  {
    "code": "2079f",
    "name": "Central Delhi",
    "updated_at": "2016-02-09T09:32:04.390842Z",
    "country": "in",
    "parent": "12e5c",
    "longitude": 77.2182069460318,
    "latitude": 28.6189019903887,
    "regions": []
  },
  {
    "code": "2079e",
    "name": "South Delhi",
    "updated_at": "2016-02-09T09:32:09.126183Z",
    "country": "in",
    "parent": "12e5c",
    "longitude": 77.2232949527813,
    "latitude": 28.5503904842369,
    "regions": []
  },
  {
    "code": "2079d",
    "name": "West Delhi",
    "updated_at": "2016-02-09T09:32:15.754724Z",
    "country": "in",
    "parent": "12e5c",
    "longitude": 77.1099076530336,
    "latitude": 28.6345875045992,
    "regions": []
  },
  {
    "code": "2079c",
    "name": "Karol Bagh",
    "updated_at": "2016-02-09T09:32:05.208739Z",
    "country": "in",
    "parent": "12e5c",
    "longitude": 77.1882442570471,
    "latitude": 28.6488878275698,
    "regions": []
  },
  {
    "code": "2079b",
    "name": "Zuidoost",
    "updated_at": "2016-02-09T09:32:05.217924Z",
    "country": "nl",
    "parent": "12d83",
    "longitude": 4.96927356369758,
    "latitude": 52.315372268249,
    "regions": []
  },
  {
    "code": "2079a",
    "name": "Zuideramstel",
    "updated_at": "2016-02-09T09:32:09.134714Z",
    "country": "nl",
    "parent": "12d83",
    "longitude": 4.88904245861072,
    "latitude": 52.3388202205639,
    "regions": []
  },
  {
    "code": "20799",
    "name": "Zeeburg",
    "updated_at": "2016-02-09T09:32:10.459837Z",
    "country": "nl",
    "parent": "12d83",
    "longitude": 4.9476378123763,
    "latitude": 52.369069928158,
    "regions": []
  },
  {
    "code": "20798",
    "name": "Westpoort",
    "updated_at": "2016-02-09T09:32:04.799362Z",
    "country": "nl",
    "parent": "12d83",
    "longitude": 4.83986969431686,
    "latitude": 52.3896244496165,
    "regions": []
  },
  {
    "code": "20797",
    "name": "Westerpark",
    "updated_at": "2016-02-09T09:32:09.075167Z",
    "country": "nl",
    "parent": "12d83",
    "longitude": 4.87706879090052,
    "latitude": 52.3846306934347,
    "regions": []
  },
  {
    "code": "20796",
    "name": "Slotervaart",
    "updated_at": "2016-02-09T09:32:10.612383Z",
    "country": "nl",
    "parent": "12d83",
    "longitude": 4.83557580317354,
    "latitude": 52.3554566884991,
    "regions": []
  },
  {
    "code": "20795",
    "name": "Oud-West",
    "updated_at": "2016-02-09T09:32:10.420372Z",
    "country": "nl",
    "parent": "12d83",
    "longitude": 4.87155065149229,
    "latitude": 52.3641622945609,
    "regions": []
  },
  {
    "code": "20794",
    "name": "Osdorp",
    "updated_at": "2016-02-09T09:32:10.428574Z",
    "country": "nl",
    "parent": "12d83",
    "longitude": 4.78996894591836,
    "latitude": 52.3527217157967,
    "regions": []
  },
  {
    "code": "20793",
    "name": "Oost",
    "updated_at": "2016-02-09T09:32:04.494774Z",
    "country": "nl",
    "parent": "12d83",
    "longitude": 4.92131233723975,
    "latitude": 52.356109382769,
    "regions": []
  },
  {
    "code": "20792",
    "name": "Geuzenveld-Slotermeer",
    "updated_at": "2016-02-09T09:32:10.451436Z",
    "country": "nl",
    "parent": "12d83",
    "longitude": 4.81843906762797,
    "latitude": 52.3785138153024,
    "regions": []
  },
  {
    "code": "20791",
    "name": "Bos en Lommer",
    "updated_at": "2016-02-09T09:32:10.411978Z",
    "country": "nl",
    "parent": "12d83",
    "longitude": 4.85157009251936,
    "latitude": 52.3798103623026,
    "regions": []
  },
  {
    "code": "20790",
    "name": "De Baarsjes",
    "updated_at": "2016-02-09T09:32:09.083315Z",
    "country": "nl",
    "parent": "12d83",
    "longitude": 4.85418342516626,
    "latitude": 52.3679453055262,
    "regions": []
  },
  {
    "code": "2078f",
    "name": "Oud Zuid",
    "updated_at": "2016-02-09T09:32:08.698423Z",
    "country": "nl",
    "parent": "12d83",
    "longitude": 4.88207834425805,
    "latitude": 52.3547664463885,
    "regions": []
  },
  {
    "code": "2078e",
    "name": "Amsterdam Noord",
    "updated_at": "2016-02-09T09:32:08.683022Z",
    "country": "nl",
    "parent": "12d83",
    "longitude": 4.90682961729119,
    "latitude": 52.3888369904573,
    "regions": []
  },
  {
    "code": "2078d",
    "name": "Amsterdam City Centre",
    "updated_at": "2016-02-09T09:32:08.674359Z",
    "country": "nl",
    "parent": "12d83",
    "longitude": 4.89325377250963,
    "latitude": 52.3705557578594,
    "regions": []
  },
  {
    "code": "2078c",
    "name": "Stratum",
    "updated_at": "2016-02-09T09:32:08.665296Z",
    "country": "nl",
    "parent": "12c8d",
    "longitude": 5.49290715826659,
    "latitude": 51.4218641662977,
    "regions": []
  },
  {
    "code": "2078b",
    "name": "Eindhoven City Centre",
    "updated_at": "2016-02-09T09:32:08.656207Z",
    "country": "nl",
    "parent": "12c8d",
    "longitude": 5.47833186969359,
    "latitude": 51.4380724309747,
    "regions": []
  },
  {
    "code": "2078a",
    "name": "Strijp",
    "updated_at": "2016-02-09T09:32:08.647090Z",
    "country": "nl",
    "parent": "12c8d",
    "longitude": 5.41372507810593,
    "latitude": 51.4457143712778,
    "regions": []
  },
  {
    "code": "20789",
    "name": "Villa Park",
    "updated_at": "2016-02-09T09:32:12.194891Z",
    "country": "nl",
    "parent": "12b5e",
    "longitude": 5.69117149088192,
    "latitude": 50.8374548843998,
    "regions": []
  },
  {
    "code": "20788",
    "name": "Witte Vrouwenveld",
    "updated_at": "2016-02-09T09:32:12.186855Z",
    "country": "nl",
    "parent": "12b5e",
    "longitude": 5.71639582880248,
    "latitude": 50.853179508616,
    "regions": []
  },
  {
    "code": "20787",
    "name": "Heugum",
    "updated_at": "2016-02-09T09:32:11.893808Z",
    "country": "nl",
    "parent": "12b5e",
    "longitude": 5.7026611583828,
    "latitude": 50.8282332294356,
    "regions": []
  },
  {
    "code": "20786",
    "name": "Randwijck",
    "updated_at": "2016-02-09T09:32:08.721885Z",
    "country": "nl",
    "parent": "12b5e",
    "longitude": 5.71504846215248,
    "latitude": 50.8379392835254,
    "regions": []
  },
  {
    "code": "20785",
    "name": "Boschstraatkwartier",
    "updated_at": "2016-02-09T09:32:08.714016Z",
    "country": "nl",
    "parent": "12b5e",
    "longitude": 5.69161454817404,
    "latitude": 50.8533634790444,
    "regions": []
  },
  {
    "code": "20784",
    "name": "Statenkwartier",
    "updated_at": "2016-02-09T09:32:08.706131Z",
    "country": "nl",
    "parent": "12b5e",
    "longitude": 5.68606450850877,
    "latitude": 50.8514073297132,
    "regions": []
  },
  {
    "code": "20783",
    "name": "Kommelkwartier",
    "updated_at": "2016-02-09T09:32:12.178882Z",
    "country": "nl",
    "parent": "12b5e",
    "longitude": 5.6809777433094,
    "latitude": 50.8485072556911,
    "regions": []
  },
  {
    "code": "20782",
    "name": "Jekerkwartier",
    "updated_at": "2016-02-09T09:32:05.366971Z",
    "country": "nl",
    "parent": "12b5e",
    "longitude": 5.69245435559341,
    "latitude": 50.8443961143061,
    "regions": []
  },
  {
    "code": "20781",
    "name": "Wijck",
    "updated_at": "2016-02-09T09:32:12.170817Z",
    "country": "nl",
    "parent": "12b5e",
    "longitude": 5.70225579279595,
    "latitude": 50.8491617632475,
    "regions": []
  },
  {
    "code": "20780",
    "name": "Binnenstad",
    "updated_at": "2016-02-09T09:32:12.145851Z",
    "country": "nl",
    "parent": "12b5e",
    "longitude": 5.69068450377634,
    "latitude": 50.8484967532174,
    "regions": []
  },
  {
    "code": "2077f",
    "name": "Charlois",
    "updated_at": "2016-02-09T09:32:13.891188Z",
    "country": "nl",
    "parent": "12a79",
    "longitude": 4.47818779833167,
    "latitude": 51.8877781752943,
    "regions": []
  },
  {
    "code": "2077e",
    "name": "Prins Alexander",
    "updated_at": "2016-02-09T09:32:17.406240Z",
    "country": "nl",
    "parent": "12a79",
    "longitude": 4.55016391983271,
    "latitude": 51.9539894822984,
    "regions": []
  },
  {
    "code": "2077d",
    "name": "Feijenoord",
    "updated_at": "2016-02-09T09:32:17.414251Z",
    "country": "nl",
    "parent": "12a79",
    "longitude": 4.49360199590115,
    "latitude": 51.9052828553833,
    "regions": []
  },
  {
    "code": "2077c",
    "name": "Kralingen-Crooswijk",
    "updated_at": "2016-02-09T09:32:17.430469Z",
    "country": "nl",
    "parent": "12a79",
    "longitude": 4.50352549113011,
    "latitude": 51.9242854104137,
    "regions": []
  },
  {
    "code": "2077b",
    "name": "Hillegersberg-Schiebroek",
    "updated_at": "2016-02-09T09:32:17.438363Z",
    "country": "nl",
    "parent": "12a79",
    "longitude": 4.48408092410097,
    "latitude": 51.952475956224,
    "regions": []
  },
  {
    "code": "2077a",
    "name": "Noord",
    "updated_at": "2016-02-09T09:32:17.422537Z",
    "country": "nl",
    "parent": "12a79",
    "longitude": 4.46922777493593,
    "latitude": 51.9313907100008,
    "regions": []
  },
  {
    "code": "20779",
    "name": "Overschie",
    "updated_at": "2016-02-09T09:32:17.348965Z",
    "country": "nl",
    "parent": "12a79",
    "longitude": 4.42471303040293,
    "latitude": 51.9456889585322,
    "regions": []
  },
  {
    "code": "20778",
    "name": "Delfshaven",
    "updated_at": "2016-02-09T09:32:16.283858Z",
    "country": "nl",
    "parent": "12a79",
    "longitude": 4.45770623747302,
    "latitude": 51.9118077157204,
    "regions": []
  },
  {
    "code": "20777",
    "name": "Segbroek",
    "updated_at": "2016-02-09T09:32:17.364385Z",
    "country": "nl",
    "parent": "12a4b",
    "longitude": 4.27094385886299,
    "latitude": 52.0769798695651,
    "regions": []
  },
  {
    "code": "20776",
    "name": "Loosduinen",
    "updated_at": "2016-02-09T09:32:16.291854Z",
    "country": "nl",
    "parent": "12a4b",
    "longitude": 4.22998130194529,
    "latitude": 52.0634557574764,
    "regions": []
  },
  {
    "code": "20775",
    "name": "Haagse Hout",
    "updated_at": "2016-02-09T09:32:17.356787Z",
    "country": "nl",
    "parent": "12a4b",
    "longitude": 4.32977383292369,
    "latitude": 52.0875808733797,
    "regions": []
  },
  {
    "code": "20774",
    "name": "Escamp",
    "updated_at": "2016-02-09T09:32:07.842507Z",
    "country": "nl",
    "parent": "12a4b",
    "longitude": 4.27362397147022,
    "latitude": 52.0456676809066,
    "regions": []
  },
  {
    "code": "20773",
    "name": "The Hague City Centre",
    "updated_at": "2016-02-09T09:32:17.394141Z",
    "country": "nl",
    "parent": "12a4b",
    "longitude": 4.30833593191676,
    "latitude": 52.0794100609927,
    "regions": []
  },
  {
    "code": "20772",
    "name": "Berkel-Enschot",
    "updated_at": "2016-02-09T09:32:05.347967Z",
    "country": "nl",
    "parent": "129ed",
    "longitude": 5.14488458633423,
    "latitude": 51.5768161693458,
    "regions": []
  },
  {
    "code": "20771",
    "name": "Montechoro",
    "updated_at": "2016-02-09T09:32:17.372219Z",
    "country": "pt",
    "parent": "12906",
    "longitude": -8.2250218376377,
    "latitude": 37.0998378566057,
    "regions": []
  },
  {
    "code": "20770",
    "name": "Albufeira City Centre",
    "updated_at": "2016-02-09T09:32:17.384312Z",
    "country": "pt",
    "parent": "12906",
    "longitude": -8.25438242215361,
    "latitude": 37.0879086846287,
    "regions": []
  },
  {
    "code": "2076f",
    "name": "Olhos d'Água",
    "updated_at": "2016-02-09T09:32:11.956940Z",
    "country": "pt",
    "parent": "12906",
    "longitude": -8.19129825538348,
    "latitude": 37.0926226249398,
    "regions": []
  },
  {
    "code": "2076e",
    "name": "Areias de São João",
    "updated_at": "2016-02-09T09:32:13.007677Z",
    "country": "pt",
    "parent": "12906",
    "longitude": -8.22710712278797,
    "latitude": 37.0892700907957,
    "regions": []
  },
  {
    "code": "2076d",
    "name": "Aldeia das Açoteias",
    "updated_at": "2016-02-09T09:32:11.964917Z",
    "country": "pt",
    "parent": "12906",
    "longitude": -8.17252378804906,
    "latitude": 37.0948077792813,
    "regions": []
  },
  {
    "code": "2076c",
    "name": "Coracao de Jesus",
    "updated_at": "2016-02-09T09:32:11.984017Z",
    "country": "pt",
    "parent": "1277a",
    "longitude": -9.14697075796049,
    "latitude": 38.7242039543658,
    "regions": []
  },
  {
    "code": "2076b",
    "name": "Santiago",
    "updated_at": "2016-02-09T09:32:11.975249Z",
    "country": "pt",
    "parent": "1277a",
    "longitude": -9.13049036207282,
    "latitude": 38.7127495145143,
    "regions": []
  },
  {
    "code": "2076a",
    "name": "Castelo",
    "updated_at": "2016-02-09T09:32:11.992725Z",
    "country": "pt",
    "parent": "1277a",
    "longitude": -9.13265909252915,
    "latitude": 38.7137656588173,
    "regions": []
  },
  {
    "code": "20769",
    "name": "Se",
    "updated_at": "2016-02-09T09:32:13.015838Z",
    "country": "pt",
    "parent": "1277a",
    "longitude": -9.1318597287593,
    "latitude": 38.7095090237455,
    "regions": []
  },
  {
    "code": "20768",
    "name": "Santos",
    "updated_at": "2016-02-09T09:32:15.401736Z",
    "country": "pt",
    "parent": "1277a",
    "longitude": -9.15723397813375,
    "latitude": 38.7074803536445,
    "regions": []
  },
  {
    "code": "20767",
    "name": "Olivais",
    "updated_at": "2016-02-09T09:32:15.425905Z",
    "country": "pt",
    "parent": "1277a",
    "longitude": -9.09814503808782,
    "latitude": 38.7702119923187,
    "regions": []
  },
  {
    "code": "20766",
    "name": "Anjos",
    "updated_at": "2016-02-09T09:32:12.954404Z",
    "country": "pt",
    "parent": "1277a",
    "longitude": -9.13428524278293,
    "latitude": 38.7237953780787,
    "regions": []
  },
  {
    "code": "20765",
    "name": "Belem",
    "updated_at": "2016-02-09T09:32:12.001139Z",
    "country": "pt",
    "parent": "1277a",
    "longitude": -9.20426286232035,
    "latitude": 38.699198942215,
    "regions": []
  },
  {
    "code": "20764",
    "name": "Mexilhoeira Grande",
    "updated_at": "2016-02-09T09:32:13.025491Z",
    "country": "pt",
    "parent": "126c2",
    "longitude": -8.59125342991319,
    "latitude": 37.2017996830235,
    "regions": []
  },
  {
    "code": "20763",
    "name": "Massarelos",
    "updated_at": "2016-02-09T09:32:16.095112Z",
    "country": "pt",
    "parent": "126c1",
    "longitude": -8.62762046438931,
    "latitude": 41.1527694366564,
    "regions": []
  },
  {
    "code": "20762",
    "name": "Miragaia",
    "updated_at": "2016-02-09T09:32:13.033461Z",
    "country": "pt",
    "parent": "126c1",
    "longitude": -8.61940531295332,
    "latitude": 41.1450363422667,
    "regions": []
  },
  {
    "code": "20761",
    "name": "São Nicolau",
    "updated_at": "2016-02-09T09:32:15.433878Z",
    "country": "pt",
    "parent": "126c1",
    "longitude": -8.61432214725013,
    "latitude": 41.141248345003,
    "regions": []
  },
  {
    "code": "20760",
    "name": "Santo Ildefonso",
    "updated_at": "2016-02-09T09:32:12.016524Z",
    "country": "pt",
    "parent": "126c1",
    "longitude": -8.60683093765819,
    "latitude": 41.1507066995294,
    "regions": []
  },
  {
    "code": "2075f",
    "name": "Campanhã",
    "updated_at": "2016-02-09T09:32:06.837201Z",
    "country": "pt",
    "parent": "126c1",
    "longitude": -8.58481714501977,
    "latitude": 41.1531902125681,
    "regions": []
  },
  {
    "code": "2075e",
    "name": "Cedofeita",
    "updated_at": "2016-02-09T09:32:06.845709Z",
    "country": "pt",
    "parent": "126c1",
    "longitude": -8.6184058986403,
    "latitude": 41.1555158486737,
    "regions": []
  },
  {
    "code": "2075d",
    "name": "Paranhos",
    "updated_at": "2016-02-09T09:32:06.854578Z",
    "country": "pt",
    "parent": "126c1",
    "longitude": -8.60746931679453,
    "latitude": 41.171567541548,
    "regions": []
  },
  {
    "code": "2075c",
    "name": "Boavista",
    "updated_at": "2016-02-09T09:32:06.810536Z",
    "country": "pt",
    "parent": "126c1",
    "longitude": -8.63974607937754,
    "latitude": 41.1680023096971,
    "regions": []
  },
  {
    "code": "2075b",
    "name": "Sé",
    "updated_at": "2016-02-09T09:32:06.820211Z",
    "country": "pt",
    "parent": "126c1",
    "longitude": -8.60844932798183,
    "latitude": 41.1440377011371,
    "regions": []
  },
  {
    "code": "2075a",
    "name": "Bonfim",
    "updated_at": "2016-02-09T09:32:06.828401Z",
    "country": "pt",
    "parent": "126c1",
    "longitude": -8.59933542694804,
    "latitude": 41.1523255675736,
    "regions": []
  },
  {
    "code": "20759",
    "name": "Bayanzurkh",
    "updated_at": "2014-09-13T16:53:56.270816Z",
    "country": "mn",
    "parent": "1243f",
    "longitude": 106.945176585016,
    "latitude": 47.9183939342216,
    "regions": []
  },
  {
    "code": "20758",
    "name": "Bayangol",
    "updated_at": "2014-09-22T21:46:04.148755Z",
    "country": "mn",
    "parent": "1243f",
    "longitude": 106.881794340074,
    "latitude": 47.9152534184976,
    "regions": []
  },
  {
    "code": "20757",
    "name": "Sukhbaatar",
    "updated_at": "2014-09-19T21:46:16.110343Z",
    "country": "mn",
    "parent": "1243f",
    "longitude": 106.920303431029,
    "latitude": 47.9189200191496,
    "regions": []
  },
  {
    "code": "20756",
    "name": "Pudu",
    "updated_at": "2016-02-09T09:32:06.788178Z",
    "country": "my",
    "parent": "123c7",
    "longitude": 101.721126070555,
    "latitude": 3.12888128659609,
    "regions": []
  },
  {
    "code": "20755",
    "name": "Kuala Lumpur City Centre",
    "updated_at": "2016-02-09T09:32:17.447353Z",
    "country": "my",
    "parent": "123c7",
    "longitude": 101.714724695167,
    "latitude": 3.15585397761401,
    "regions": []
  },
  {
    "code": "20754",
    "name": "Mid Valley",
    "updated_at": "2016-02-09T09:32:10.237721Z",
    "country": "my",
    "parent": "123c7",
    "longitude": 101.685296815717,
    "latitude": 3.1118669047094,
    "regions": []
  },
  {
    "code": "20753",
    "name": "Ampang",
    "updated_at": "2016-02-09T09:32:06.756198Z",
    "country": "my",
    "parent": "123c7",
    "longitude": 101.749700744876,
    "latitude": 3.14434634583448,
    "regions": []
  },
  {
    "code": "20752",
    "name": "Chow Kit",
    "updated_at": "2016-02-09T09:32:10.214707Z",
    "country": "my",
    "parent": "123c7",
    "longitude": 101.697018673704,
    "latitude": 3.16722242465745,
    "regions": []
  },
  {
    "code": "20751",
    "name": "Bukit Bintang",
    "updated_at": "2016-02-09T09:32:06.772116Z",
    "country": "my",
    "parent": "123c7",
    "longitude": 101.709262333378,
    "latitude": 3.14491065532776,
    "regions": []
  },
  {
    "code": "20750",
    "name": "Manoc-manoc",
    "updated_at": "2016-02-09T09:32:06.780375Z",
    "country": "ph",
    "parent": "12310",
    "longitude": 121.943440039503,
    "latitude": 11.9503424352008,
    "regions": []
  },
  {
    "code": "2074f",
    "name": "Yapak",
    "updated_at": "2016-02-09T09:32:04.790478Z",
    "country": "ph",
    "parent": "12310",
    "longitude": 121.913870733656,
    "latitude": 11.982915633597,
    "regions": []
  },
  {
    "code": "2074e",
    "name": "Bulabog Beach",
    "updated_at": "2016-02-09T09:32:09.101925Z",
    "country": "ph",
    "parent": "12310",
    "longitude": 121.92906683902,
    "latitude": 11.9660033541171,
    "regions": []
  },
  {
    "code": "2074d",
    "name": "Station 3",
    "updated_at": "2016-02-09T09:32:07.016367Z",
    "country": "ph",
    "parent": "12310",
    "longitude": 121.931095689391,
    "latitude": 11.9518870073265,
    "regions": []
  },
  {
    "code": "2074c",
    "name": "Station 2",
    "updated_at": "2016-02-09T09:32:04.806950Z",
    "country": "ph",
    "parent": "12310",
    "longitude": 121.927309476352,
    "latitude": 11.959582157303,
    "regions": []
  },
  {
    "code": "2074b",
    "name": "Station 1",
    "updated_at": "2016-02-09T09:32:07.024393Z",
    "country": "ph",
    "parent": "12310",
    "longitude": 121.921046280004,
    "latitude": 11.9675749396702,
    "regions": []
  },
  {
    "code": "2074a",
    "name": "Muntinlupa City",
    "updated_at": "2014-09-13T16:53:52.581789Z",
    "country": "ph",
    "parent": "1230d",
    "longitude": 121.054469123483,
    "latitude": 14.4660939233869,
    "regions": []
  },
  {
    "code": "20749",
    "name": "Majorna",
    "updated_at": "2014-09-13T16:53:52.229357Z",
    "country": "se",
    "parent": "1211c",
    "longitude": 11.9197703897953,
    "latitude": 57.6945292645838,
    "regions": []
  },
  {
    "code": "20748",
    "name": "Innerstaden",
    "updated_at": "2014-09-13T16:53:52.094313Z",
    "country": "se",
    "parent": "11f60",
    "longitude": 13.0065450131442,
    "latitude": 55.5901241305849,
    "regions": []
  },
  {
    "code": "20747",
    "name": "Vaster",
    "updated_at": "2014-09-18T06:49:43.156873Z",
    "country": "se",
    "parent": "11f60",
    "longitude": 12.9534191078731,
    "latitude": 55.5771009308964,
    "regions": []
  },
  {
    "code": "20746",
    "name": "Soder",
    "updated_at": "2014-09-13T16:53:51.818239Z",
    "country": "se",
    "parent": "11f60",
    "longitude": 13.0107341678912,
    "latitude": 55.5776566774118,
    "regions": []
  },
  {
    "code": "20745",
    "name": "Oster",
    "updated_at": "2014-09-13T16:53:51.760713Z",
    "country": "se",
    "parent": "11f60",
    "longitude": 13.0696320533752,
    "latitude": 55.5802443145604,
    "regions": []
  },
  {
    "code": "20744",
    "name": "Norr",
    "updated_at": "2014-09-22T21:46:03.965852Z",
    "country": "se",
    "parent": "11f60",
    "longitude": 13.0029665991513,
    "latitude": 55.6047482563723,
    "regions": []
  },
  {
    "code": "20743",
    "name": "Vasastan",
    "updated_at": "2016-02-09T09:32:07.041159Z",
    "country": "se",
    "parent": "11dc0",
    "longitude": 18.0502492534483,
    "latitude": 59.3413861934834,
    "regions": []
  },
  {
    "code": "20742",
    "name": "Gamla stan",
    "updated_at": "2016-02-09T09:32:07.032627Z",
    "country": "se",
    "parent": "11dc0",
    "longitude": 18.0705459661071,
    "latitude": 59.3246442027796,
    "regions": []
  },
  {
    "code": "20741",
    "name": "Östermalm",
    "updated_at": "2016-02-09T09:32:05.004326Z",
    "country": "se",
    "parent": "11dc0",
    "longitude": 18.0867143398502,
    "latitude": 59.3392192199058,
    "regions": []
  },
  {
    "code": "20740",
    "name": "Kungsholmen",
    "updated_at": "2016-02-09T09:32:15.699837Z",
    "country": "se",
    "parent": "11dc0",
    "longitude": 18.0260657178178,
    "latitude": 59.3331492275361,
    "regions": []
  },
  {
    "code": "2073f",
    "name": "Södermalm",
    "updated_at": "2016-02-09T09:32:06.695313Z",
    "country": "se",
    "parent": "11dc0",
    "longitude": 18.0633865090434,
    "latitude": 59.31527195353,
    "regions": []
  },
  {
    "code": "2073e",
    "name": "Cité",
    "updated_at": "2014-09-18T06:49:43.109158Z",
    "country": "ch",
    "parent": "11b67",
    "longitude": 6.15003877452442,
    "latitude": 46.201883298208,
    "regions": []
  },
  {
    "code": "2073d",
    "name": "Petit-Saconnex / Servette",
    "updated_at": "2014-09-18T06:49:43.098975Z",
    "country": "ch",
    "parent": "11b67",
    "longitude": 6.1301706519488,
    "latitude": 46.2163757768389,
    "regions": []
  },
  {
    "code": "2073c",
    "name": "Saint-Jean and Charmilles",
    "updated_at": "2014-09-13T16:53:48.107816Z",
    "country": "ch",
    "parent": "11b67",
    "longitude": 6.13490134477615,
    "latitude": 46.2068980230641,
    "regions": []
  },
  {
    "code": "2073b",
    "name": "Jonction",
    "updated_at": "2014-09-13T16:53:48.061922Z",
    "country": "ch",
    "parent": "11b67",
    "longitude": 6.13700374697494,
    "latitude": 46.2012350649114,
    "regions": []
  },
  {
    "code": "2073a",
    "name": "Acacias",
    "updated_at": "2014-09-13T16:53:47.950336Z",
    "country": "ch",
    "parent": "11b67",
    "longitude": 6.13805562257767,
    "latitude": 46.1924056163759,
    "regions": []
  },
  {
    "code": "20739",
    "name": "Saint-Gervais / des Grottes",
    "updated_at": "2014-09-18T06:49:43.079490Z",
    "country": "ch",
    "parent": "11b67",
    "longitude": 6.14237037932722,
    "latitude": 46.2089153605147,
    "regions": []
  },
  {
    "code": "20738",
    "name": "Paquis",
    "updated_at": "2014-09-22T21:46:03.838847Z",
    "country": "ch",
    "parent": "11b67",
    "longitude": 6.14769270202962,
    "latitude": 46.2127579981547,
    "regions": []
  },
  {
    "code": "20737",
    "name": "Eaux-Vives",
    "updated_at": "2014-09-13T16:53:47.458797Z",
    "country": "ch",
    "parent": "11b67",
    "longitude": 6.16105490309902,
    "latitude": 46.202412107015,
    "regions": []
  },
  {
    "code": "20736",
    "name": "Plainpalais",
    "updated_at": "2014-09-13T16:53:47.317983Z",
    "country": "ch",
    "parent": "11b67",
    "longitude": 6.14397570587086,
    "latitude": 46.1945531640214,
    "regions": []
  },
  {
    "code": "20735",
    "name": "Les Rapes",
    "updated_at": "2014-09-13T16:53:47.214832Z",
    "country": "ch",
    "parent": "11ac9",
    "longitude": 6.69488690793514,
    "latitude": 46.5613006251831,
    "regions": []
  },
  {
    "code": "20734",
    "name": "Lausanne Centre",
    "updated_at": "2016-02-09T09:32:06.383368Z",
    "country": "ch",
    "parent": "11ac9",
    "longitude": 6.63257207349866,
    "latitude": 46.5196311136273,
    "regions": []
  },
  {
    "code": "20733",
    "name": "Montoie-Bourdonnette",
    "updated_at": "2014-09-13T16:53:46.992411Z",
    "country": "ch",
    "parent": "11ac9",
    "longitude": 6.59769773483276,
    "latitude": 46.5193260115618,
    "regions": []
  },
  {
    "code": "20732",
    "name": "Montriond-Cour",
    "updated_at": "2014-09-13T16:53:46.938320Z",
    "country": "ch",
    "parent": "11ac9",
    "longitude": 6.61417990922928,
    "latitude": 46.5159114434792,
    "regions": []
  },
  {
    "code": "20731",
    "name": "Sous-Gare-Ouchy",
    "updated_at": "2014-09-13T16:53:46.908426Z",
    "country": "ch",
    "parent": "11ac9",
    "longitude": 6.6280783520618,
    "latitude": 46.5122350569289,
    "regions": []
  },
  {
    "code": "20730",
    "name": "Orselina",
    "updated_at": "2014-09-13T16:53:46.843300Z",
    "country": "ch",
    "parent": "11aa5",
    "longitude": 8.79628751625993,
    "latitude": 46.1782997810002,
    "regions": []
  },
  {
    "code": "2072f",
    "name": "Minusio",
    "updated_at": "2014-09-13T16:53:46.719655Z",
    "country": "ch",
    "parent": "11aa5",
    "longitude": 8.82003289452485,
    "latitude": 46.1776412411999,
    "regions": []
  },
  {
    "code": "2072e",
    "name": "Muralto",
    "updated_at": "2014-09-13T16:53:46.628278Z",
    "country": "ch",
    "parent": "11aa5",
    "longitude": 8.80440343188074,
    "latitude": 46.173925611254,
    "regions": []
  },
  {
    "code": "2072d",
    "name": "Locarno Center",
    "updated_at": "2014-09-22T21:46:03.651204Z",
    "country": "ch",
    "parent": "11aa5",
    "longitude": 8.79305301213301,
    "latitude": 46.1695655350944,
    "regions": []
  },
  {
    "code": "2072c",
    "name": "11 Zürich Nord",
    "updated_at": "2016-02-09T09:32:08.278086Z",
    "country": "ch",
    "parent": "118b2",
    "longitude": 8.54415828364751,
    "latitude": 47.4137075304165,
    "regions": []
  },
  {
    "code": "2072b",
    "name": "9. Albisrieden - Altstetten",
    "updated_at": "2016-02-09T09:32:08.269237Z",
    "country": "ch",
    "parent": "118b2",
    "longitude": 8.49313474030808,
    "latitude": 47.3848103528533,
    "regions": []
  },
  {
    "code": "2072a",
    "name": "8. Seefeld - Riesbach",
    "updated_at": "2016-02-09T09:32:08.286475Z",
    "country": "ch",
    "parent": "118b2",
    "longitude": 8.55006311489336,
    "latitude": 47.3624156063932,
    "regions": []
  },
  {
    "code": "20729",
    "name": "6. Unterstrass - Oberstrass",
    "updated_at": "2016-02-09T09:32:14.514510Z",
    "country": "ch",
    "parent": "118b2",
    "longitude": 8.5433513840843,
    "latitude": 47.3863738885172,
    "regions": []
  },
  {
    "code": "20728",
    "name": "7. Zürichberg - Hirslanden",
    "updated_at": "2016-02-09T09:32:08.221840Z",
    "country": "ch",
    "parent": "118b2",
    "longitude": 8.56079163506954,
    "latitude": 47.3729472314335,
    "regions": []
  },
  {
    "code": "20727",
    "name": "5. Gewerbeschule - Escher Wyss",
    "updated_at": "2016-02-09T09:32:14.497264Z",
    "country": "ch",
    "parent": "118b2",
    "longitude": 8.52375623810122,
    "latitude": 47.3861632437227,
    "regions": []
  },
  {
    "code": "20726",
    "name": "4. Aussersihl",
    "updated_at": "2016-02-09T09:32:08.203314Z",
    "country": "ch",
    "parent": "118b2",
    "longitude": 8.52133271010066,
    "latitude": 47.3770692384521,
    "regions": []
  },
  {
    "code": "20725",
    "name": "3. Wiedikon",
    "updated_at": "2016-02-09T09:32:08.491191Z",
    "country": "ch",
    "parent": "118b2",
    "longitude": 8.51405665602379,
    "latitude": 47.3694466981478,
    "regions": []
  },
  {
    "code": "20724",
    "name": "2. Wollishofen-Enge",
    "updated_at": "2016-02-09T09:32:16.103542Z",
    "country": "ch",
    "parent": "118b2",
    "longitude": 8.53002317838099,
    "latitude": 47.3567463939683,
    "regions": []
  },
  {
    "code": "20723",
    "name": "1. Zurich Old Town–City Centre",
    "updated_at": "2016-02-09T09:32:08.466114Z",
    "country": "ch",
    "parent": "118b2",
    "longitude": 8.54271363037158,
    "latitude": 47.3736599318376,
    "regions": []
  },
  {
    "code": "20722",
    "name": "Hendon",
    "updated_at": "2016-02-09T09:32:08.457189Z",
    "country": "gb",
    "parent": "11789",
    "longitude": -0.219018459320068,
    "latitude": 51.5944285400065,
    "regions": []
  },
  {
    "code": "20721",
    "name": "Finchley",
    "updated_at": "2016-02-09T09:32:08.482877Z",
    "country": "gb",
    "parent": "11789",
    "longitude": -0.176936388015747,
    "latitude": 51.6133295532874,
    "regions": []
  },
  {
    "code": "20720",
    "name": "Hadley Wood",
    "updated_at": "2016-02-09T09:32:08.474535Z",
    "country": "gb",
    "parent": "11789",
    "longitude": -0.179236605763435,
    "latitude": 51.6635129389013,
    "regions": []
  },
  {
    "code": "2071f",
    "name": "Edgbaston",
    "updated_at": "2016-02-09T09:32:04.000815Z",
    "country": "gb",
    "parent": "11736",
    "longitude": -1.93553484882556,
    "latitude": 52.4700795690396,
    "regions": []
  },
  {
    "code": "2071e",
    "name": "Montpelier and Clifton Hill",
    "updated_at": "2014-09-13T16:53:42.951630Z",
    "country": "gb",
    "parent": "116d5",
    "longitude": -0.15103139809824,
    "latitude": 50.8270196361681,
    "regions": []
  },
  {
    "code": "2071d",
    "name": "Regency",
    "updated_at": "2016-02-09T09:32:11.670338Z",
    "country": "gb",
    "parent": "116d5",
    "longitude": -0.150852950853041,
    "latitude": 50.8227184163503,
    "regions": []
  },
  {
    "code": "2071c",
    "name": "Kemptown",
    "updated_at": "2014-09-19T12:28:40.459433Z",
    "country": "gb",
    "parent": "116d5",
    "longitude": -0.130856766412157,
    "latitude": 50.8201208112647,
    "regions": []
  },
  {
    "code": "2071b",
    "name": "North Laine",
    "updated_at": "2014-09-13T16:53:42.679464Z",
    "country": "gb",
    "parent": "116d5",
    "longitude": -0.138713359778377,
    "latitude": 50.825768426699,
    "regions": []
  },
  {
    "code": "2071a",
    "name": "Temple",
    "updated_at": "2016-02-09T09:32:10.253226Z",
    "country": "gb",
    "parent": "116d2",
    "longitude": -2.586743925433,
    "latitude": 51.4515174474846,
    "regions": []
  },
  {
    "code": "20719",
    "name": "Broadmead",
    "updated_at": "2014-09-13T16:53:42.420574Z",
    "country": "gb",
    "parent": "116d2",
    "longitude": -2.58885790455365,
    "latitude": 51.4574209498338,
    "regions": []
  },
  {
    "code": "20718",
    "name": "Harbourside",
    "updated_at": "2014-09-13T16:53:42.343449Z",
    "country": "gb",
    "parent": "116d2",
    "longitude": -2.60327339172363,
    "latitude": 51.4485176862206,
    "regions": []
  },
  {
    "code": "20717",
    "name": "Clifton",
    "updated_at": "2016-02-09T09:32:09.969097Z",
    "country": "gb",
    "parent": "116d2",
    "longitude": -2.61566529520402,
    "latitude": 51.4562398095441,
    "regions": []
  },
  {
    "code": "20716",
    "name": "Cotham",
    "updated_at": "2016-02-09T09:32:09.983123Z",
    "country": "gb",
    "parent": "116d2",
    "longitude": -2.59640347212553,
    "latitude": 51.4724880034641,
    "regions": []
  },
  {
    "code": "20715",
    "name": "Cardiff Bay",
    "updated_at": "2016-02-09T09:32:09.991326Z",
    "country": "gb",
    "parent": "1166f",
    "longitude": -3.16792391454994,
    "latitude": 51.4663405581496,
    "regions": []
  },
  {
    "code": "20714",
    "name": "East Croydon",
    "updated_at": "2016-02-09T09:32:11.627826Z",
    "country": "gb",
    "parent": "11594",
    "longitude": -0.0965162306521416,
    "latitude": 51.3696971354125,
    "regions": []
  },
  {
    "code": "20713",
    "name": "Thornton Heath",
    "updated_at": "2016-02-09T09:32:11.636023Z",
    "country": "gb",
    "parent": "11594",
    "longitude": -0.112576560085373,
    "latitude": 51.3902149906783,
    "regions": []
  },
  {
    "code": "20712",
    "name": "South Croydon",
    "updated_at": "2016-02-09T09:32:11.645675Z",
    "country": "gb",
    "parent": "11594",
    "longitude": -0.0846818089485168,
    "latitude": 51.3530001142116,
    "regions": []
  },
  {
    "code": "20711",
    "name": "Stockbridge",
    "updated_at": "2014-09-13T16:53:40.973758Z",
    "country": "gb",
    "parent": "11504",
    "longitude": -3.21422324479741,
    "latitude": 55.9570610235671,
    "regions": []
  },
  {
    "code": "20710",
    "name": "Inverleith",
    "updated_at": "2016-02-09T09:32:11.653772Z",
    "country": "gb",
    "parent": "11504",
    "longitude": -3.20249863180975,
    "latitude": 55.964326162835,
    "regions": []
  },
  {
    "code": "2070f",
    "name": "Prestonfield",
    "updated_at": "2016-02-09T09:32:10.329347Z",
    "country": "gb",
    "parent": "11504",
    "longitude": -3.16041469573975,
    "latitude": 55.9296438920405,
    "regions": []
  },
  {
    "code": "2070e",
    "name": "Broughton",
    "updated_at": "2016-02-09T09:32:11.374104Z",
    "country": "gb",
    "parent": "11504",
    "longitude": -3.18811711441464,
    "latitude": 55.9622305641502,
    "regions": []
  },
  {
    "code": "2070d",
    "name": "Duddingston",
    "updated_at": "2016-02-09T09:32:11.359447Z",
    "country": "gb",
    "parent": "11504",
    "longitude": -3.1281434321115,
    "latitude": 55.9457718672188,
    "regions": []
  },
  {
    "code": "2070c",
    "name": "Morningside",
    "updated_at": "2016-02-09T09:32:11.342566Z",
    "country": "gb",
    "parent": "11504",
    "longitude": -3.21163617272437,
    "latitude": 55.9199767852469,
    "regions": []
  },
  {
    "code": "2070b",
    "name": "Portobello",
    "updated_at": "2016-02-09T09:32:11.316030Z",
    "country": "gb",
    "parent": "11504",
    "longitude": -3.09947830860157,
    "latitude": 55.9493555960359,
    "regions": []
  },
  {
    "code": "2070a",
    "name": "Merchiston",
    "updated_at": "2016-02-09T09:32:08.780405Z",
    "country": "gb",
    "parent": "11504",
    "longitude": -3.2115105535297,
    "latitude": 55.939213133057,
    "regions": []
  },
  {
    "code": "20709",
    "name": "Newington",
    "updated_at": "2016-02-09T09:32:10.987244Z",
    "country": "gb",
    "parent": "11504",
    "longitude": -3.1755757424238,
    "latitude": 55.9346253002175,
    "regions": []
  },
  {
    "code": "20708",
    "name": "Haymarket",
    "updated_at": "2016-02-09T09:32:11.481503Z",
    "country": "gb",
    "parent": "11504",
    "longitude": -3.21734618456074,
    "latitude": 55.9469781334041,
    "regions": []
  },
  {
    "code": "20707",
    "name": "Corstorphine",
    "updated_at": "2016-02-09T09:32:11.605966Z",
    "country": "gb",
    "parent": "11504",
    "longitude": -3.29003154603004,
    "latitude": 55.9428445291532,
    "regions": []
  },
  {
    "code": "20706",
    "name": "Murrayfield",
    "updated_at": "2016-02-09T09:32:15.915080Z",
    "country": "gb",
    "parent": "11504",
    "longitude": -3.25262767066528,
    "latitude": 55.9459103509664,
    "regions": []
  },
  {
    "code": "20705",
    "name": "Leith",
    "updated_at": "2016-02-09T09:32:08.854677Z",
    "country": "gb",
    "parent": "11504",
    "longitude": -3.17617183879396,
    "latitude": 55.974141704283,
    "regions": []
  },
  {
    "code": "20704",
    "name": "New Town",
    "updated_at": "2016-02-09T09:32:11.557935Z",
    "country": "gb",
    "parent": "11504",
    "longitude": -3.19583170721226,
    "latitude": 55.9539554438689,
    "regions": []
  },
  {
    "code": "20703",
    "name": "Old Town",
    "updated_at": "2016-02-09T09:32:11.027784Z",
    "country": "gb",
    "parent": "11504",
    "longitude": -3.18836540142844,
    "latitude": 55.9496058659072,
    "regions": []
  },
  {
    "code": "20702",
    "name": "South",
    "updated_at": "2016-02-09T09:32:14.646172Z",
    "country": "gb",
    "parent": "11475",
    "longitude": -4.2632931342514,
    "latitude": 55.833797694844,
    "regions": []
  },
  {
    "code": "20701",
    "name": "North West",
    "updated_at": "2016-02-09T09:32:08.845562Z",
    "country": "gb",
    "parent": "11475",
    "longitude": -4.28556281694879,
    "latitude": 55.8711712301534,
    "regions": []
  },
  {
    "code": "20700",
    "name": "Glasgow City Centre",
    "updated_at": "2016-02-09T09:32:09.306703Z",
    "country": "gb",
    "parent": "11475",
    "longitude": -4.25663485741515,
    "latitude": 55.8618651223284,
    "regions": []
  },
  {
    "code": "206ff",
    "name": "West Drayton",
    "updated_at": "2016-02-09T09:32:10.025154Z",
    "country": "gb",
    "parent": "113bb",
    "longitude": -0.465925156826973,
    "latitude": 51.5049316104341,
    "regions": []
  },
  {
    "code": "206fe",
    "name": "Longford",
    "updated_at": "2016-02-09T09:32:10.034116Z",
    "country": "gb",
    "parent": "113bb",
    "longitude": -0.487390905618668,
    "latitude": 51.4801117067589,
    "regions": []
  },
  {
    "code": "206fd",
    "name": "Hayes",
    "updated_at": "2016-02-09T09:32:14.903544Z",
    "country": "gb",
    "parent": "113bb",
    "longitude": -0.434430322863839,
    "latitude": 51.4934843509285,
    "regions": []
  },
  {
    "code": "206fc",
    "name": "Ruislip",
    "updated_at": "2016-02-09T09:32:10.008014Z",
    "country": "gb",
    "parent": "113bb",
    "longitude": -0.397755236481316,
    "latitude": 51.55702227382,
    "regions": []
  },
  {
    "code": "206fb",
    "name": "Brentford",
    "updated_at": "2016-02-09T09:32:14.895540Z",
    "country": "gb",
    "parent": "11390",
    "longitude": -0.339590460062027,
    "latitude": 51.4760535493987,
    "regions": []
  },
  {
    "code": "206fa",
    "name": "Osterley",
    "updated_at": "2016-02-09T09:32:10.015951Z",
    "country": "gb",
    "parent": "11390",
    "longitude": -0.356769740581512,
    "latitude": 51.4774173869288,
    "regions": []
  },
  {
    "code": "206f9",
    "name": "Cranford",
    "updated_at": "2016-02-09T09:32:10.042141Z",
    "country": "gb",
    "parent": "11390",
    "longitude": -0.409732972051621,
    "latitude": 51.4811640416424,
    "regions": []
  },
  {
    "code": "206f8",
    "name": "Feltham",
    "updated_at": "2016-02-09T09:32:15.021085Z",
    "country": "gb",
    "parent": "11390",
    "longitude": -0.410616589103699,
    "latitude": 51.4498946736419,
    "regions": []
  },
  {
    "code": "206f7",
    "name": "Surbiton",
    "updated_at": "2016-02-09T09:32:10.076782Z",
    "country": "gb",
    "parent": "11325",
    "longitude": -0.302608162164688,
    "latitude": 51.393304827278,
    "regions": []
  },
  {
    "code": "206f6",
    "name": "Hampton Wick",
    "updated_at": "2016-02-09T09:32:10.090276Z",
    "country": "gb",
    "parent": "11325",
    "longitude": -0.328196167945862,
    "latitude": 51.4084966588883,
    "regions": []
  },
  {
    "code": "206f5",
    "name": "Anfield",
    "updated_at": "2016-02-09T09:32:10.098211Z",
    "country": "gb",
    "parent": "11299",
    "longitude": -2.96346631577478,
    "latitude": 53.432974502468,
    "regions": []
  },
  {
    "code": "206f4",
    "name": "Everton",
    "updated_at": "2016-02-09T09:32:09.604329Z",
    "country": "gb",
    "parent": "11299",
    "longitude": -2.96764401334216,
    "latitude": 53.4220276832653,
    "regions": []
  },
  {
    "code": "206f3",
    "name": "Liverpool City Centre",
    "updated_at": "2016-02-09T09:32:10.051234Z",
    "country": "gb",
    "parent": "11299",
    "longitude": -2.98368486810103,
    "latitude": 53.4039492674675,
    "regions": []
  },
  {
    "code": "206f2",
    "name": "Wimbledon ",
    "updated_at": "2016-02-09T09:32:07.742560Z",
    "country": "gb",
    "parent": "11260",
    "longitude": -0.213530776568779,
    "latitude": 51.4218548880007,
    "regions": []
  },
  {
    "code": "206f1",
    "name": "Brent",
    "updated_at": "2016-02-09T09:32:10.060270Z",
    "country": "gb",
    "parent": "11260",
    "longitude": -0.234564991749842,
    "latitude": 51.5495257974571,
    "regions": []
  },
  {
    "code": "206f0",
    "name": "Kensington and Chelsea",
    "updated_at": "2016-02-09T09:32:10.068686Z",
    "country": "gb",
    "parent": "11260",
    "longitude": -0.186804494253281,
    "latitude": 51.4961221729413,
    "regions": []
  },
  {
    "code": "206ef",
    "name": "Camden",
    "updated_at": "2016-02-09T09:32:15.108088Z",
    "country": "gb",
    "parent": "11260",
    "longitude": -0.13512448056362,
    "latitude": 51.5296145869178,
    "regions": []
  },
  {
    "code": "206ee",
    "name": "Newham",
    "updated_at": "2016-02-09T09:32:15.124019Z",
    "country": "gb",
    "parent": "11260",
    "longitude": 0.0241975977845407,
    "latitude": 51.5322633387219,
    "regions": []
  },
  {
    "code": "206ed",
    "name": "Wandsworth",
    "updated_at": "2016-02-09T09:32:15.116006Z",
    "country": "gb",
    "parent": "11260",
    "longitude": -0.19953892851296,
    "latitude": 51.4586615148721,
    "regions": []
  },
  {
    "code": "206ec",
    "name": "Southwark",
    "updated_at": "2016-02-09T09:32:15.132156Z",
    "country": "gb",
    "parent": "11260",
    "longitude": -0.0852169462568188,
    "latitude": 51.4976007683017,
    "regions": []
  },
  {
    "code": "206eb",
    "name": "Lewisham",
    "updated_at": "2016-02-09T09:32:03.764415Z",
    "country": "gb",
    "parent": "11260",
    "longitude": -0.0301695096824604,
    "latitude": 51.4674770033332,
    "regions": []
  },
  {
    "code": "206ea",
    "name": "Lambeth",
    "updated_at": "2016-02-09T09:32:15.140557Z",
    "country": "gb",
    "parent": "11260",
    "longitude": -0.119159645636046,
    "latitude": 51.4831032550818,
    "regions": []
  },
  {
    "code": "206e9",
    "name": "Islington",
    "updated_at": "2016-02-09T09:32:14.914001Z",
    "country": "gb",
    "parent": "11260",
    "longitude": -0.107890280589045,
    "latitude": 51.5365611719502,
    "regions": []
  },
  {
    "code": "206e8",
    "name": "Hackney",
    "updated_at": "2016-02-09T09:32:04.239757Z",
    "country": "gb",
    "parent": "11260",
    "longitude": -0.0737902672979923,
    "latitude": 51.540216365997,
    "regions": []
  },
  {
    "code": "206e7",
    "name": "Richmond",
    "updated_at": "2016-02-09T09:32:14.930799Z",
    "country": "gb",
    "parent": "11260",
    "longitude": -0.315379500389099,
    "latitude": 51.4779851833683,
    "regions": []
  },
  {
    "code": "206e6",
    "name": "City of London",
    "updated_at": "2016-02-09T09:32:14.922606Z",
    "country": "gb",
    "parent": "11260",
    "longitude": -0.0891809608868468,
    "latitude": 51.51443998867,
    "regions": []
  },
  {
    "code": "206e5",
    "name": "Greenwich",
    "updated_at": "2016-02-09T09:32:14.951563Z",
    "country": "gb",
    "parent": "11260",
    "longitude": 0.0154988414658936,
    "latitude": 51.4846923591843,
    "regions": []
  },
  {
    "code": "206e4",
    "name": "Westminster",
    "updated_at": "2016-02-09T09:32:14.943478Z",
    "country": "gb",
    "parent": "11260",
    "longitude": -0.158587141247499,
    "latitude": 51.5101281018178,
    "regions": []
  },
  {
    "code": "206e3",
    "name": "Salford",
    "updated_at": "2016-02-09T09:32:14.969052Z",
    "country": "gb",
    "parent": "11222",
    "longitude": -2.31395215585785,
    "latitude": 53.4834464847431,
    "regions": []
  },
  {
    "code": "206e2",
    "name": "Manchester City Centre",
    "updated_at": "2016-02-09T09:32:14.960915Z",
    "country": "gb",
    "parent": "11222",
    "longitude": -2.24261346547154,
    "latitude": 53.4801640735839,
    "regions": []
  },
  {
    "code": "206e1",
    "name": "Richmond Town",
    "updated_at": "2016-02-09T09:32:14.985272Z",
    "country": "gb",
    "parent": "11093",
    "longitude": -0.299330273863088,
    "latitude": 51.4596040585891,
    "regions": []
  },
  {
    "code": "206e0",
    "name": "Kew",
    "updated_at": "2016-02-09T09:32:14.977050Z",
    "country": "gb",
    "parent": "11093",
    "longitude": -0.286492109298706,
    "latitude": 51.4832503609823,
    "regions": []
  },
  {
    "code": "206df",
    "name": "Carshalton",
    "updated_at": "2016-02-09T09:32:06.928013Z",
    "country": "gb",
    "parent": "10f63",
    "longitude": -0.164705067873001,
    "latitude": 51.364977589286,
    "regions": []
  },
  {
    "code": "206de",
    "name": "Zverynas",
    "updated_at": "2014-09-13T16:53:21.598074Z",
    "country": "lt",
    "parent": "10d87",
    "longitude": 25.2492430500375,
    "latitude": 54.6967960853974,
    "regions": []
  },
  {
    "code": "206dd",
    "name": "Zirmunai",
    "updated_at": "2016-02-09T09:32:06.870211Z",
    "country": "lt",
    "parent": "10d87",
    "longitude": 25.2971436059565,
    "latitude": 54.7113664573002,
    "regions": []
  },
  {
    "code": "206dc",
    "name": "Virsuliskes",
    "updated_at": "2014-09-13T16:53:21.521042Z",
    "country": "lt",
    "parent": "10d87",
    "longitude": 25.2339971065521,
    "latitude": 54.7073111376658,
    "regions": []
  },
  {
    "code": "206db",
    "name": "Vilkpede",
    "updated_at": "2014-09-13T16:53:21.503017Z",
    "country": "lt",
    "parent": "10d87",
    "longitude": 25.2374620495276,
    "latitude": 54.6627019237637,
    "regions": []
  },
  {
    "code": "206da",
    "name": "Verkiai",
    "updated_at": "2016-02-09T09:32:11.282221Z",
    "country": "lt",
    "parent": "10d87",
    "longitude": 25.275331299651,
    "latitude": 54.7365586876117,
    "regions": []
  },
  {
    "code": "206d9",
    "name": "Snipiskes",
    "updated_at": "2014-09-13T16:53:21.450834Z",
    "country": "lt",
    "parent": "10d87",
    "longitude": 25.2784848234391,
    "latitude": 54.6969965102764,
    "regions": []
  },
  {
    "code": "206d8",
    "name": "Vilnius Old Town",
    "updated_at": "2016-02-09T09:32:06.258789Z",
    "country": "lt",
    "parent": "10d87",
    "longitude": 25.2854460217671,
    "latitude": 54.6794686523843,
    "regions": []
  },
  {
    "code": "206d7",
    "name": "Rasos",
    "updated_at": "2016-02-09T09:32:07.608265Z",
    "country": "lt",
    "parent": "10d87",
    "longitude": 25.3079314180504,
    "latitude": 54.6666304356432,
    "regions": []
  },
  {
    "code": "206d6",
    "name": "Pasilaiciai",
    "updated_at": "2016-02-09T09:32:07.615996Z",
    "country": "lt",
    "parent": "10d87",
    "longitude": 25.2274642891116,
    "latitude": 54.735438166163,
    "regions": []
  },
  {
    "code": "206d5",
    "name": "Naujininkai",
    "updated_at": "2014-09-13T16:53:21.043079Z",
    "country": "lt",
    "parent": "10d87",
    "longitude": 25.2714052714226,
    "latitude": 54.6481335089043,
    "regions": []
  },
  {
    "code": "206d4",
    "name": "Naujamiestis",
    "updated_at": "2016-02-09T09:32:07.956696Z",
    "country": "lt",
    "parent": "10d87",
    "longitude": 25.2677387194559,
    "latitude": 54.684010483539,
    "regions": []
  },
  {
    "code": "206d3",
    "name": "Lazdynai",
    "updated_at": "2016-02-09T09:32:07.642295Z",
    "country": "lt",
    "parent": "10d87",
    "longitude": 25.1984818648681,
    "latitude": 54.6637552792788,
    "regions": []
  },
  {
    "code": "206d2",
    "name": "Karoliniskes",
    "updated_at": "2016-02-09T09:32:08.055239Z",
    "country": "lt",
    "parent": "10d87",
    "longitude": 25.2159230411053,
    "latitude": 54.6955443118491,
    "regions": []
  },
  {
    "code": "206d1",
    "name": "Fabijoniskes",
    "updated_at": "2016-02-09T09:32:07.626754Z",
    "country": "lt",
    "parent": "10d87",
    "longitude": 25.2479150406358,
    "latitude": 54.7303166310384,
    "regions": []
  },
  {
    "code": "206d0",
    "name": "Antakalnis",
    "updated_at": "2016-02-09T09:32:07.634487Z",
    "country": "lt",
    "parent": "10d87",
    "longitude": 25.31208628083,
    "latitude": 54.7141507046228,
    "regions": []
  },
  {
    "code": "206cf",
    "name": "Viimsi",
    "updated_at": "2016-02-09T09:32:12.056842Z",
    "country": "ee",
    "parent": "10cd9",
    "longitude": 24.8350077867508,
    "latitude": 59.5020829110393,
    "regions": []
  },
  {
    "code": "206ce",
    "name": "Lasnamae",
    "updated_at": "2016-02-09T09:32:04.076152Z",
    "country": "ee",
    "parent": "10cd9",
    "longitude": 24.8296935012362,
    "latitude": 59.437475979791,
    "regions": []
  },
  {
    "code": "206cd",
    "name": "Tallinn City-Centre",
    "updated_at": "2016-02-09T09:32:12.041723Z",
    "country": "ee",
    "parent": "10cd9",
    "longitude": 24.7519534720596,
    "latitude": 59.4352559461343,
    "regions": []
  },
  {
    "code": "206cc",
    "name": "Nomme",
    "updated_at": "2016-02-09T09:32:08.115809Z",
    "country": "ee",
    "parent": "10cd9",
    "longitude": 24.6903214828715,
    "latitude": 59.3848977366672,
    "regions": []
  },
  {
    "code": "206cb",
    "name": "Mustamae",
    "updated_at": "2016-02-09T09:32:13.360918Z",
    "country": "ee",
    "parent": "10cd9",
    "longitude": 24.6778147132549,
    "latitude": 59.4001790470787,
    "regions": []
  },
  {
    "code": "206ca",
    "name": "Kristiine",
    "updated_at": "2016-02-09T09:32:12.032561Z",
    "country": "ee",
    "parent": "10cd9",
    "longitude": 24.7177113058148,
    "latitude": 59.4183222877982,
    "regions": []
  },
  {
    "code": "206c9",
    "name": "Põhja-Tallinn",
    "updated_at": "2016-02-09T09:32:13.412599Z",
    "country": "ee",
    "parent": "10cd9",
    "longitude": 24.7264656766039,
    "latitude": 59.4451899561115,
    "regions": []
  },
  {
    "code": "206c8",
    "name": "Haabersti",
    "updated_at": "2016-02-09T09:32:13.404749Z",
    "country": "ee",
    "parent": "10cd9",
    "longitude": 24.6373558345544,
    "latitude": 59.4304676156026,
    "regions": []
  },
  {
    "code": "206c7",
    "name": "Pirita",
    "updated_at": "2016-02-09T09:32:13.420607Z",
    "country": "ee",
    "parent": "10cd9",
    "longitude": 24.8450327793203,
    "latitude": 59.4747973162275,
    "regions": []
  },
  {
    "code": "206c6",
    "name": "Ji'an Township",
    "updated_at": "2016-02-09T09:32:12.121971Z",
    "country": "tw",
    "parent": "10c8f",
    "longitude": 121.57417953302,
    "latitude": 23.9711199759756,
    "regions": []
  },
  {
    "code": "206c5",
    "name": "Xincheng Township",
    "updated_at": "2016-02-09T09:32:12.111496Z",
    "country": "tw",
    "parent": "10c8f",
    "longitude": 121.620579459416,
    "latitude": 24.0272535463203,
    "regions": []
  },
  {
    "code": "206c4",
    "name": "Xiaogang",
    "updated_at": "2016-02-09T09:32:12.103831Z",
    "country": "tw",
    "parent": "10c8c",
    "longitude": 120.344379857161,
    "latitude": 22.5669404098914,
    "regions": []
  },
  {
    "code": "206c3",
    "name": "Qijin",
    "updated_at": "2016-02-09T09:32:12.096178Z",
    "country": "tw",
    "parent": "10c8c",
    "longitude": 120.268279463053,
    "latitude": 22.6101990339736,
    "regions": []
  },
  {
    "code": "206c2",
    "name": "Qianzhen",
    "updated_at": "2016-02-09T09:32:12.088516Z",
    "country": "tw",
    "parent": "10c8c",
    "longitude": 120.309222201933,
    "latitude": 22.6119218800615,
    "regions": []
  },
  {
    "code": "206c1",
    "name": "Lingya",
    "updated_at": "2016-02-09T09:32:12.080872Z",
    "country": "tw",
    "parent": "10c8c",
    "longitude": 120.310104578783,
    "latitude": 22.6197984552687,
    "regions": []
  },
  {
    "code": "206c0",
    "name": "Qianjin",
    "updated_at": "2016-02-09T09:32:12.072804Z",
    "country": "tw",
    "parent": "10c8c",
    "longitude": 120.295197493103,
    "latitude": 22.6276703562715,
    "regions": []
  },
  {
    "code": "206bf",
    "name": "Xinxing",
    "updated_at": "2016-02-09T09:32:05.234717Z",
    "country": "tw",
    "parent": "10c8c",
    "longitude": 120.303689540287,
    "latitude": 22.6322317131486,
    "regions": []
  },
  {
    "code": "206be",
    "name": "Sanmin",
    "updated_at": "2016-02-09T09:32:17.528947Z",
    "country": "tw",
    "parent": "10c8c",
    "longitude": 120.303038870829,
    "latitude": 22.6399078183717,
    "regions": []
  },
  {
    "code": "206bd",
    "name": "Nanzi",
    "updated_at": "2016-02-09T09:32:17.536567Z",
    "country": "tw",
    "parent": "10c8c",
    "longitude": 120.333876013756,
    "latitude": 22.7330097530115,
    "regions": []
  },
  {
    "code": "206bc",
    "name": "Zuoying",
    "updated_at": "2016-02-09T09:32:17.544174Z",
    "country": "tw",
    "parent": "10c8c",
    "longitude": 120.306779656559,
    "latitude": 22.6768951141743,
    "regions": []
  },
  {
    "code": "206bb",
    "name": "Gushan",
    "updated_at": "2016-02-09T09:32:17.551825Z",
    "country": "tw",
    "parent": "10c8c",
    "longitude": 120.289027231099,
    "latitude": 22.6478721284173,
    "regions": []
  },
  {
    "code": "206ba",
    "name": "Yancheng",
    "updated_at": "2016-02-09T09:32:17.563736Z",
    "country": "tw",
    "parent": "10c8c",
    "longitude": 120.284432126118,
    "latitude": 22.6251822953307,
    "regions": []
  },
  {
    "code": "206b9",
    "name": "Nantun",
    "updated_at": "2016-02-09T09:32:17.474456Z",
    "country": "tw",
    "parent": "10c50",
    "longitude": 120.645331230403,
    "latitude": 24.1430668493812,
    "regions": []
  },
  {
    "code": "206b8",
    "name": "East District",
    "updated_at": "2016-02-09T09:32:17.482062Z",
    "country": "tw",
    "parent": "10c50",
    "longitude": 120.686020199272,
    "latitude": 24.1372783260196,
    "regions": []
  },
  {
    "code": "206b7",
    "name": "Xitun",
    "updated_at": "2016-02-09T09:32:17.489624Z",
    "country": "tw",
    "parent": "10c50",
    "longitude": 120.642521260803,
    "latitude": 24.1723754437091,
    "regions": []
  },
  {
    "code": "206b6",
    "name": "West District",
    "updated_at": "2016-02-09T09:32:16.647124Z",
    "country": "tw",
    "parent": "10c50",
    "longitude": 120.665123827284,
    "latitude": 24.149211745809,
    "regions": []
  },
  {
    "code": "206b5",
    "name": "North District",
    "updated_at": "2016-02-09T09:32:17.497174Z",
    "country": "tw",
    "parent": "10c50",
    "longitude": 120.677111575283,
    "latitude": 24.1584057088277,
    "regions": []
  },
  {
    "code": "206b4",
    "name": "Central District",
    "updated_at": "2016-02-09T09:32:17.504765Z",
    "country": "tw",
    "parent": "10c50",
    "longitude": 120.682242650596,
    "latitude": 24.1406039150428,
    "regions": []
  },
  {
    "code": "206b3",
    "name": "Wanhua District",
    "updated_at": "2016-02-09T09:32:16.657939Z",
    "country": "tw",
    "parent": "10c4e",
    "longitude": 121.505711597853,
    "latitude": 25.0436495487556,
    "regions": []
  },
  {
    "code": "206b2",
    "name": "Neihu District",
    "updated_at": "2016-02-09T09:32:17.513306Z",
    "country": "tw",
    "parent": "10c4e",
    "longitude": 121.576552567259,
    "latitude": 25.0809113326735,
    "regions": []
  },
  {
    "code": "206b1",
    "name": "Zhongshan District",
    "updated_at": "2016-02-09T09:32:17.521383Z",
    "country": "tw",
    "parent": "10c4e",
    "longitude": 121.529948497099,
    "latitude": 25.0580328716724,
    "regions": []
  },
  {
    "code": "206b0",
    "name": "Xinyi District",
    "updated_at": "2016-02-09T09:32:16.665733Z",
    "country": "tw",
    "parent": "10c4e",
    "longitude": 121.565333420739,
    "latitude": 25.0381663203436,
    "regions": []
  },
  {
    "code": "206af",
    "name": "Datong District",
    "updated_at": "2016-02-09T09:32:05.608153Z",
    "country": "tw",
    "parent": "10c4e",
    "longitude": 121.514928948162,
    "latitude": 25.0538393806177,
    "regions": []
  },
  {
    "code": "206ae",
    "name": "Da'an District",
    "updated_at": "2016-02-09T09:32:05.616093Z",
    "country": "tw",
    "parent": "10c4e",
    "longitude": 121.544090058831,
    "latitude": 25.0350324422405,
    "regions": []
  },
  {
    "code": "206ad",
    "name": "Beitou District",
    "updated_at": "2016-02-09T09:32:06.056189Z",
    "country": "tw",
    "parent": "10c4e",
    "longitude": 121.507854041227,
    "latitude": 25.1352698097186,
    "regions": []
  },
  {
    "code": "206ac",
    "name": "Nangang District",
    "updated_at": "2016-02-09T09:32:14.192033Z",
    "country": "tw",
    "parent": "10c4e",
    "longitude": 121.600402539982,
    "latitude": 25.0551238476125,
    "regions": []
  },
  {
    "code": "206ab",
    "name": "Songshan District",
    "updated_at": "2016-02-09T09:32:08.952242Z",
    "country": "tw",
    "parent": "10c4e",
    "longitude": 121.550696496389,
    "latitude": 25.0525540242718,
    "regions": []
  },
  {
    "code": "206aa",
    "name": "Zhongzheng District",
    "updated_at": "2016-02-09T09:32:05.699155Z",
    "country": "tw",
    "parent": "10c4e",
    "longitude": 121.5179359449,
    "latitude": 25.0421783961241,
    "regions": []
  },
  {
    "code": "206a9",
    "name": "Sukajadi",
    "updated_at": "2014-09-18T06:49:29.650321Z",
    "country": "id",
    "parent": "10b73",
    "longitude": 107.599582760573,
    "latitude": -6.88928826162051,
    "regions": []
  },
  {
    "code": "206a8",
    "name": "Sumurbandung",
    "updated_at": "2014-09-18T06:49:29.541469Z",
    "country": "id",
    "parent": "10b73",
    "longitude": 107.62254125332,
    "latitude": -6.91346550149535,
    "regions": []
  },
  {
    "code": "206a7",
    "name": "Kiaracondong",
    "updated_at": "2014-09-13T16:53:16.399631Z",
    "country": "id",
    "parent": "10b73",
    "longitude": 107.654207835242,
    "latitude": -6.9263222715296,
    "regions": []
  },
  {
    "code": "206a6",
    "name": "Bandung Wetan",
    "updated_at": "2014-09-13T16:53:16.357041Z",
    "country": "id",
    "parent": "10b73",
    "longitude": 107.620530532462,
    "latitude": -6.90436765898219,
    "regions": []
  },
  {
    "code": "206a5",
    "name": "Bandung Kidul",
    "updated_at": "2014-09-13T16:53:16.322482Z",
    "country": "id",
    "parent": "10b73",
    "longitude": 107.637951001525,
    "latitude": -6.94846182779408,
    "regions": []
  },
  {
    "code": "206a4",
    "name": "Palmerah",
    "updated_at": "2014-09-13T16:53:16.289122Z",
    "country": "id",
    "parent": "10b25",
    "longitude": 106.800641233576,
    "latitude": -6.18586465604513,
    "regions": []
  },
  {
    "code": "206a3",
    "name": "Sawah Besar",
    "updated_at": "2014-09-13T16:53:16.218202Z",
    "country": "id",
    "parent": "10b25",
    "longitude": 106.83450748262,
    "latitude": -6.14518569635961,
    "regions": []
  },
  {
    "code": "206a2",
    "name": "Cempaka Putih",
    "updated_at": "2014-09-13T16:53:16.144652Z",
    "country": "id",
    "parent": "10b25",
    "longitude": 106.867826112834,
    "latitude": -6.18045232289435,
    "regions": []
  },
  {
    "code": "206a1",
    "name": "Penjaringan",
    "updated_at": "2014-09-18T06:49:29.498540Z",
    "country": "id",
    "parent": "10b25",
    "longitude": 106.792635718131,
    "latitude": -6.12314838920878,
    "regions": []
  },
  {
    "code": "206a0",
    "name": "Pademangan",
    "updated_at": "2014-09-13T16:53:15.934460Z",
    "country": "id",
    "parent": "10b25",
    "longitude": 106.835244846959,
    "latitude": -6.12700590355097,
    "regions": []
  },
  {
    "code": "2069f",
    "name": "Taman Sari",
    "updated_at": "2014-09-18T06:49:29.399755Z",
    "country": "id",
    "parent": "10b25",
    "longitude": 106.822951711603,
    "latitude": -6.14618851014219,
    "regions": []
  },
  {
    "code": "2069e",
    "name": "Matraman",
    "updated_at": "2014-09-18T06:49:29.124758Z",
    "country": "id",
    "parent": "10b25",
    "longitude": 106.863903179769,
    "latitude": -6.20449746442346,
    "regions": []
  },
  {
    "code": "2069d",
    "name": "Mampang",
    "updated_at": "2014-09-13T16:53:15.547101Z",
    "country": "id",
    "parent": "10b25",
    "longitude": 106.829477500169,
    "latitude": -6.24745509116717,
    "regions": []
  },
  {
    "code": "2069c",
    "name": "Kemayoran",
    "updated_at": "2014-09-18T06:49:29.104436Z",
    "country": "id",
    "parent": "10b25",
    "longitude": 106.847205766947,
    "latitude": -6.16280792675207,
    "regions": []
  },
  {
    "code": "2069b",
    "name": "Kebayoran Baru",
    "updated_at": "2014-09-13T16:53:15.339680Z",
    "country": "id",
    "parent": "10b25",
    "longitude": 106.807092528173,
    "latitude": -6.24574202790606,
    "regions": []
  },
  {
    "code": "2069a",
    "name": "Kebayoran Lama",
    "updated_at": "2014-09-13T16:53:15.186110Z",
    "country": "id",
    "parent": "10b25",
    "longitude": 106.786408238365,
    "latitude": -6.23624012291784,
    "regions": []
  },
  {
    "code": "20699",
    "name": "Grogol",
    "updated_at": "2014-09-18T06:49:29.084682Z",
    "country": "id",
    "parent": "10b25",
    "longitude": 106.793107294573,
    "latitude": -6.167541836673,
    "regions": []
  },
  {
    "code": "20698",
    "name": "Gambir",
    "updated_at": "2014-09-18T06:49:28.939135Z",
    "country": "id",
    "parent": "10b25",
    "longitude": 106.823487508471,
    "latitude": -6.16480318152947,
    "regions": []
  },
  {
    "code": "20697",
    "name": "Tebet",
    "updated_at": "2014-09-13T16:53:14.750764Z",
    "country": "id",
    "parent": "10b25",
    "longitude": 106.853154568979,
    "latitude": -6.23208990480208,
    "regions": []
  },
  {
    "code": "20696",
    "name": "Tanjung Priok",
    "updated_at": "2014-09-13T16:53:14.631492Z",
    "country": "id",
    "parent": "10b25",
    "longitude": 106.870899970338,
    "latitude": -6.14499368174574,
    "regions": []
  },
  {
    "code": "20695",
    "name": "Tanah Abang",
    "updated_at": "2014-09-13T16:53:14.493627Z",
    "country": "id",
    "parent": "10b25",
    "longitude": 106.820140543486,
    "latitude": -6.19911592823181,
    "regions": []
  },
  {
    "code": "20694",
    "name": "Setiabudi",
    "updated_at": "2014-09-18T06:49:28.714065Z",
    "country": "id",
    "parent": "10b25",
    "longitude": 106.833008760756,
    "latitude": -6.22116453607755,
    "regions": []
  },
  {
    "code": "20693",
    "name": "Senen",
    "updated_at": "2016-02-09T09:32:10.436508Z",
    "country": "id",
    "parent": "10b25",
    "longitude": 106.858775186447,
    "latitude": -6.19393138103571,
    "regions": []
  },
  {
    "code": "20692",
    "name": "Cilandak",
    "updated_at": "2014-09-22T21:45:58.579749Z",
    "country": "id",
    "parent": "10b25",
    "longitude": 106.805558959119,
    "latitude": -6.28208294828528,
    "regions": []
  },
  {
    "code": "20691",
    "name": "Kelapa Gading",
    "updated_at": "2014-09-13T16:53:13.960513Z",
    "country": "id",
    "parent": "10b25",
    "longitude": 106.897469024469,
    "latitude": -6.1544702144126,
    "regions": []
  },
  {
    "code": "20690",
    "name": "Menteng",
    "updated_at": "2014-09-13T16:53:13.759793Z",
    "country": "id",
    "parent": "10b25",
    "longitude": 106.839068459127,
    "latitude": -6.19023071829453,
    "regions": []
  },
  {
    "code": "2068f",
    "name": "Tuban",
    "updated_at": "2014-09-19T12:28:30.883554Z",
    "country": "id",
    "parent": "10aff",
    "longitude": 115.169659247453,
    "latitude": -8.73972888177579,
    "regions": []
  },
  {
    "code": "2068e",
    "name": "Gondomanan",
    "updated_at": "2014-09-13T16:53:13.390167Z",
    "country": "id",
    "parent": "10a5a",
    "longitude": 110.367835313817,
    "latitude": -7.79924570135092,
    "regions": []
  },
  {
    "code": "2068d",
    "name": "Gedongtengen",
    "updated_at": "2014-09-13T16:53:13.350852Z",
    "country": "id",
    "parent": "10a5a",
    "longitude": 110.363578288464,
    "latitude": -7.79116869460326,
    "regions": []
  },
  {
    "code": "2068c",
    "name": "Pakualaman",
    "updated_at": "2014-09-13T16:53:13.301441Z",
    "country": "id",
    "parent": "10a5a",
    "longitude": 110.374334268272,
    "latitude": -7.79784299529585,
    "regions": []
  },
  {
    "code": "2068b",
    "name": "Danurejan",
    "updated_at": "2014-09-13T16:53:13.229157Z",
    "country": "id",
    "parent": "10a5a",
    "longitude": 110.370091348886,
    "latitude": -7.79375463938384,
    "regions": []
  },
  {
    "code": "2068a",
    "name": "Ngampilan",
    "updated_at": "2014-09-18T06:49:28.556582Z",
    "country": "id",
    "parent": "10a5a",
    "longitude": 110.357410854496,
    "latitude": -7.80102651997694,
    "regions": []
  },
  {
    "code": "20689",
    "name": "Mergangsan",
    "updated_at": "2014-09-18T06:49:28.528409Z",
    "country": "id",
    "parent": "10a5a",
    "longitude": 110.371807247823,
    "latitude": -7.81771746222822,
    "regions": []
  },
  {
    "code": "20688",
    "name": "Jetis",
    "updated_at": "2014-09-13T16:53:13.084096Z",
    "country": "id",
    "parent": "10a5a",
    "longitude": 110.365970982267,
    "latitude": -7.78222400275756,
    "regions": []
  },
  {
    "code": "20687",
    "name": "Gondokusuman",
    "updated_at": "2014-09-13T16:53:12.990221Z",
    "country": "id",
    "parent": "10a5a",
    "longitude": 110.381629154712,
    "latitude": -7.78372979460402,
    "regions": []
  },
  {
    "code": "20686",
    "name": "Wirobrajan",
    "updated_at": "2014-09-13T16:53:12.958567Z",
    "country": "id",
    "parent": "10a5a",
    "longitude": 110.350422590481,
    "latitude": -7.80129929198805,
    "regions": []
  },
  {
    "code": "20685",
    "name": "Umbulharjo",
    "updated_at": "2014-09-13T16:53:12.917556Z",
    "country": "id",
    "parent": "10a5a",
    "longitude": 110.387286579867,
    "latitude": -7.80997944370239,
    "regions": []
  },
  {
    "code": "20684",
    "name": "Tegalrejo",
    "updated_at": "2014-09-13T16:53:12.869391Z",
    "country": "id",
    "parent": "10a5a",
    "longitude": 110.355814321131,
    "latitude": -7.78551742057426,
    "regions": []
  },
  {
    "code": "20683",
    "name": "Kotagede",
    "updated_at": "2014-09-13T16:53:12.817179Z",
    "country": "id",
    "parent": "10a5a",
    "longitude": 110.398689731956,
    "latitude": -7.81113165994498,
    "regions": []
  },
  {
    "code": "20682",
    "name": "Kraton",
    "updated_at": "2014-09-13T16:53:12.763939Z",
    "country": "id",
    "parent": "10a5a",
    "longitude": 110.364933181046,
    "latitude": -7.80778039445381,
    "regions": []
  },
  {
    "code": "20681",
    "name": "Mantrijeron",
    "updated_at": "2014-09-18T06:49:28.431233Z",
    "country": "id",
    "parent": "10a5a",
    "longitude": 110.3628180827,
    "latitude": -7.81849356670184,
    "regions": []
  },
  {
    "code": "20680",
    "name": "Frederiksberg",
    "updated_at": "2016-02-09T09:32:04.150002Z",
    "country": "dk",
    "parent": "10869",
    "longitude": 12.5430152941939,
    "latitude": 55.6798906339167,
    "regions": []
  },
  {
    "code": "2067f",
    "name": "Christianshavn",
    "updated_at": "2016-02-09T09:32:13.602114Z",
    "country": "dk",
    "parent": "10869",
    "longitude": 12.5945901094238,
    "latitude": 55.676698472605,
    "regions": []
  },
  {
    "code": "2067e",
    "name": "Nørrebro",
    "updated_at": "2016-02-09T09:32:10.304538Z",
    "country": "dk",
    "parent": "10869",
    "longitude": 12.5524859052235,
    "latitude": 55.6914787028148,
    "regions": []
  },
  {
    "code": "2067d",
    "name": "Østerbro",
    "updated_at": "2016-02-09T09:32:09.866230Z",
    "country": "dk",
    "parent": "10869",
    "longitude": 12.5862288339274,
    "latitude": 55.6947446631066,
    "regions": []
  },
  {
    "code": "2067c",
    "name": "Vesterbro",
    "updated_at": "2016-02-09T09:32:13.618997Z",
    "country": "dk",
    "parent": "10869",
    "longitude": 12.5588135977904,
    "latitude": 55.6710871615374,
    "regions": []
  },
  {
    "code": "2067b",
    "name": "Savelovsky",
    "updated_at": "2016-02-09T09:32:13.610137Z",
    "country": "ru",
    "parent": "10588",
    "longitude": 37.5772216960871,
    "latitude": 55.7998921194988,
    "regions": []
  },
  {
    "code": "2067a",
    "name": "Horoshovsky",
    "updated_at": "2016-02-09T09:32:06.162351Z",
    "country": "ru",
    "parent": "10588",
    "longitude": 37.5330398787029,
    "latitude": 55.7832127664258,
    "regions": []
  },
  {
    "code": "20679",
    "name": "Horoshovo-Mnevniki",
    "updated_at": "2016-02-09T09:32:05.143878Z",
    "country": "ru",
    "parent": "10588",
    "longitude": 37.467200400808,
    "latitude": 55.7795175353104,
    "regions": []
  },
  {
    "code": "20678",
    "name": "Pokrovskoe-Streshnevo",
    "updated_at": "2016-02-09T09:32:06.457798Z",
    "country": "ru",
    "parent": "10588",
    "longitude": 37.4469333144673,
    "latitude": 55.8218477677058,
    "regions": []
  },
  {
    "code": "20677",
    "name": "Schukino",
    "updated_at": "2016-02-09T09:32:05.108728Z",
    "country": "ru",
    "parent": "10588",
    "longitude": 37.4810285121202,
    "latitude": 55.8114768418593,
    "regions": []
  },
  {
    "code": "20676",
    "name": "Tushino Uzhnoe",
    "updated_at": "2016-02-09T09:32:06.393336Z",
    "country": "ru",
    "parent": "10588",
    "longitude": 37.4396649301054,
    "latitude": 55.8422378930856,
    "regions": []
  },
  {
    "code": "20675",
    "name": "Tushino Sevrnoe",
    "updated_at": "2016-02-09T09:32:13.528776Z",
    "country": "ru",
    "parent": "10588",
    "longitude": 37.4330961160907,
    "latitude": 55.8603324939517,
    "regions": []
  },
  {
    "code": "20674",
    "name": "Strogino",
    "updated_at": "2016-02-09T09:32:13.520501Z",
    "country": "ru",
    "parent": "10588",
    "longitude": 37.4004554257408,
    "latitude": 55.7990946141657,
    "regions": []
  },
  {
    "code": "20673",
    "name": "Filevsky Park",
    "updated_at": "2016-02-09T09:32:06.424933Z",
    "country": "ru",
    "parent": "10588",
    "longitude": 37.4981706150656,
    "latitude": 55.7449756488653,
    "regions": []
  },
  {
    "code": "20672",
    "name": "Tsaritsyno",
    "updated_at": "2016-02-09T09:32:13.536573Z",
    "country": "ru",
    "parent": "10588",
    "longitude": 37.6597395265701,
    "latitude": 55.6285260549499,
    "regions": []
  },
  {
    "code": "20671",
    "name": "Lefortovo",
    "updated_at": "2016-02-09T09:32:06.409281Z",
    "country": "ru",
    "parent": "10588",
    "longitude": 37.7036659512535,
    "latitude": 55.7530361905589,
    "regions": []
  },
  {
    "code": "20670",
    "name": "Kuzminki",
    "updated_at": "2016-02-09T09:32:06.401576Z",
    "country": "ru",
    "parent": "10588",
    "longitude": 37.763874823095,
    "latitude": 55.7054675480809,
    "regions": []
  },
  {
    "code": "2066f",
    "name": "Ramenki",
    "updated_at": "2016-02-09T09:32:04.816021Z",
    "country": "ru",
    "parent": "10588",
    "longitude": 37.5146697696248,
    "latitude": 55.7111175395374,
    "regions": []
  },
  {
    "code": "2066e",
    "name": "Izmailovo",
    "updated_at": "2016-02-09T09:32:04.824473Z",
    "country": "ru",
    "parent": "10588",
    "longitude": 37.7723311833225,
    "latitude": 55.7945374130978,
    "regions": []
  },
  {
    "code": "2066d",
    "name": "Izmailovo Vostochnoe",
    "updated_at": "2016-02-09T09:32:16.862925Z",
    "country": "ru",
    "parent": "10588",
    "longitude": 37.819989323616,
    "latitude": 55.7915890698378,
    "regions": []
  },
  {
    "code": "2066c",
    "name": "Akademicheskiy",
    "updated_at": "2016-02-09T09:32:16.847534Z",
    "country": "ru",
    "parent": "10588",
    "longitude": 37.5770775850643,
    "latitude": 55.6836642695686,
    "regions": []
  },
  {
    "code": "2066b",
    "name": "Sokolniki",
    "updated_at": "2016-02-09T09:32:16.855174Z",
    "country": "ru",
    "parent": "10588",
    "longitude": 37.6821307973874,
    "latitude": 55.7901322802536,
    "regions": []
  },
  {
    "code": "2066a",
    "name": "Butyrsky",
    "updated_at": "2016-02-09T09:32:14.776502Z",
    "country": "ru",
    "parent": "10588",
    "longitude": 37.5857737133359,
    "latitude": 55.8107087813094,
    "regions": []
  },
  {
    "code": "20669",
    "name": "Alexeevsky",
    "updated_at": "2016-02-09T09:32:16.881900Z",
    "country": "ru",
    "parent": "10588",
    "longitude": 37.6464058461513,
    "latitude": 55.815354219314,
    "regions": []
  },
  {
    "code": "20668",
    "name": "Timiryazevskiy",
    "updated_at": "2016-02-09T09:32:05.084626Z",
    "country": "ru",
    "parent": "10588",
    "longitude": 37.5665681285338,
    "latitude": 55.8262458279155,
    "regions": []
  },
  {
    "code": "20667",
    "name": "Sokol",
    "updated_at": "2016-02-09T09:32:05.100877Z",
    "country": "ru",
    "parent": "10588",
    "longitude": 37.5088155106666,
    "latitude": 55.8019235095905,
    "regions": []
  },
  {
    "code": "20666",
    "name": "Begovoy",
    "updated_at": "2016-02-09T09:32:10.961331Z",
    "country": "ru",
    "parent": "10588",
    "longitude": 37.5687011918534,
    "latitude": 55.7829613836257,
    "regions": []
  },
  {
    "code": "20665",
    "name": "Aeroport",
    "updated_at": "2016-02-09T09:32:17.655125Z",
    "country": "ru",
    "parent": "10588",
    "longitude": 37.5277821452832,
    "latitude": 55.8040678983807,
    "regions": []
  },
  {
    "code": "20664",
    "name": "Yakimanka",
    "updated_at": "2016-02-09T09:32:16.907042Z",
    "country": "ru",
    "parent": "10588",
    "longitude": 37.6139749678726,
    "latitude": 55.7358433950575,
    "regions": []
  },
  {
    "code": "20663",
    "name": "Khamovniki",
    "updated_at": "2016-02-09T09:32:05.093302Z",
    "country": "ru",
    "parent": "10588",
    "longitude": 37.5858273969957,
    "latitude": 55.7379207295348,
    "regions": []
  },
  {
    "code": "20662",
    "name": "Tverskoy",
    "updated_at": "2016-02-09T09:32:16.890129Z",
    "country": "ru",
    "parent": "10588",
    "longitude": 37.6080258377136,
    "latitude": 55.7655657707572,
    "regions": []
  },
  {
    "code": "20661",
    "name": "Tagansky",
    "updated_at": "2016-02-09T09:32:17.102451Z",
    "country": "ru",
    "parent": "10588",
    "longitude": 37.6628230583385,
    "latitude": 55.7417174246056,
    "regions": []
  },
  {
    "code": "20660",
    "name": "Presnensky",
    "updated_at": "2016-02-09T09:32:16.898784Z",
    "country": "ru",
    "parent": "10588",
    "longitude": 37.5779677687621,
    "latitude": 55.7628081409689,
    "regions": []
  },
  {
    "code": "2065f",
    "name": "Meshchansky",
    "updated_at": "2016-02-09T09:32:17.258370Z",
    "country": "ru",
    "parent": "10588",
    "longitude": 37.6293380548536,
    "latitude": 55.7757388287512,
    "regions": []
  },
  {
    "code": "2065e",
    "name": "Krasnoselsky",
    "updated_at": "2016-02-09T09:32:09.685800Z",
    "country": "ru",
    "parent": "10588",
    "longitude": 37.6527915095902,
    "latitude": 55.774184350916,
    "regions": []
  },
  {
    "code": "2065d",
    "name": "Zamoskvorechye",
    "updated_at": "2016-02-09T09:32:05.990967Z",
    "country": "ru",
    "parent": "10588",
    "longitude": 37.6329097403051,
    "latitude": 55.7342674640832,
    "regions": []
  },
  {
    "code": "2065c",
    "name": "Basmanny",
    "updated_at": "2016-02-09T09:32:06.366584Z",
    "country": "ru",
    "parent": "10588",
    "longitude": 37.6513178987069,
    "latitude": 55.7627066366742,
    "regions": []
  },
  {
    "code": "2065b",
    "name": "Arbat",
    "updated_at": "2016-02-09T09:32:03.578898Z",
    "country": "ru",
    "parent": "10588",
    "longitude": 37.5883531558301,
    "latitude": 55.750851530451,
    "regions": []
  },
  {
    "code": "2065a",
    "name": "Tsentralny district",
    "updated_at": "2016-02-09T09:32:05.998893Z",
    "country": "ru",
    "parent": "104d9",
    "longitude": 30.349608950012,
    "latitude": 59.9330265880008,
    "regions": []
  },
  {
    "code": "20659",
    "name": "Vyborgsky district",
    "updated_at": "2016-02-09T09:32:16.111193Z",
    "country": "ru",
    "parent": "104d9",
    "longitude": 30.3304296321087,
    "latitude": 60.0215930509286,
    "regions": []
  },
  {
    "code": "20658",
    "name": "Kalininskiy district",
    "updated_at": "2016-02-09T09:32:17.458776Z",
    "country": "ru",
    "parent": "104d9",
    "longitude": 30.3855036615252,
    "latitude": 59.998793472928,
    "regions": []
  },
  {
    "code": "20657",
    "name": "Krasnogvardeisky district",
    "updated_at": "2016-02-09T09:32:05.805453Z",
    "country": "ru",
    "parent": "104d9",
    "longitude": 30.4359173354083,
    "latitude": 59.9422577686121,
    "regions": []
  },
  {
    "code": "20656",
    "name": "Nevskiy district",
    "updated_at": "2016-02-09T09:32:17.466673Z",
    "country": "ru",
    "parent": "104d9",
    "longitude": 30.456688883339,
    "latitude": 59.9028514296647,
    "regions": []
  },
  {
    "code": "20655",
    "name": "Frunzenskiy district",
    "updated_at": "2016-02-09T09:32:05.822297Z",
    "country": "ru",
    "parent": "104d9",
    "longitude": 30.3665346188433,
    "latitude": 59.8878039161866,
    "regions": []
  },
  {
    "code": "20654",
    "name": "Moskovskiy district",
    "updated_at": "2016-02-09T09:32:05.813930Z",
    "country": "ru",
    "parent": "104d9",
    "longitude": 30.3256107093785,
    "latitude": 59.8631305418326,
    "regions": []
  },
  {
    "code": "20653",
    "name": "Kirovskiy district",
    "updated_at": "2016-02-09T09:32:16.431851Z",
    "country": "ru",
    "parent": "104d9",
    "longitude": 30.2631317722111,
    "latitude": 59.8732220726257,
    "regions": []
  },
  {
    "code": "20652",
    "name": "Admiralteyskiy district",
    "updated_at": "2016-02-09T09:32:16.253514Z",
    "country": "ru",
    "parent": "104d9",
    "longitude": 30.3092691353457,
    "latitude": 59.9248276786872,
    "regions": []
  },
  {
    "code": "20651",
    "name": "Vasileostrovskiy district",
    "updated_at": "2016-02-09T09:32:05.841022Z",
    "country": "ru",
    "parent": "104d9",
    "longitude": 30.2656847637901,
    "latitude": 59.9410740362352,
    "regions": []
  },
  {
    "code": "20650",
    "name": "Petrogradskiy district",
    "updated_at": "2016-02-09T09:32:05.830166Z",
    "country": "ru",
    "parent": "104d9",
    "longitude": 30.3037521220614,
    "latitude": 59.9599282791621,
    "regions": []
  },
  {
    "code": "2064f",
    "name": "Al Shate'e",
    "updated_at": "2014-09-13T16:53:01.761953Z",
    "country": "sa",
    "parent": "103d4",
    "longitude": 39.110178463161,
    "latitude": 21.6033735902146,
    "regions": []
  },
  {
    "code": "2064e",
    "name": "Al Andalus",
    "updated_at": "2014-09-18T06:49:22.958754Z",
    "country": "sa",
    "parent": "103d4",
    "longitude": 39.1704530199438,
    "latitude": 21.5460832727677,
    "regions": []
  },
  {
    "code": "2064d",
    "name": "Al Hamra ",
    "updated_at": "2016-02-09T09:32:06.374605Z",
    "country": "sa",
    "parent": "103d4",
    "longitude": 39.1610695551193,
    "latitude": 21.5185639545865,
    "regions": []
  },
  {
    "code": "2064c",
    "name": "Al Rawda",
    "updated_at": "2014-09-13T16:53:01.212760Z",
    "country": "sa",
    "parent": "103d4",
    "longitude": 39.1645014434562,
    "latitude": 21.5670433631144,
    "regions": []
  },
  {
    "code": "2064b",
    "name": "Al Salamah",
    "updated_at": "2014-09-18T06:49:22.588751Z",
    "country": "sa",
    "parent": "103d4",
    "longitude": 39.1534161752985,
    "latitude": 21.5921948636529,
    "regions": []
  },
  {
    "code": "2064a",
    "name": "Al Mesfala",
    "updated_at": "2014-09-13T16:53:01.013240Z",
    "country": "sa",
    "parent": "103d1",
    "longitude": 39.8234194147944,
    "latitude": 21.4140774746332,
    "regions": []
  },
  {
    "code": "20649",
    "name": "Al Aziziya ",
    "updated_at": "2014-09-18T06:49:22.580186Z",
    "country": "sa",
    "parent": "103d1",
    "longitude": 39.8681437059494,
    "latitude": 21.4068450311021,
    "regions": []
  },
  {
    "code": "20648",
    "name": "Kurzeme Suburb",
    "updated_at": "2016-02-09T09:32:09.465189Z",
    "country": "lv",
    "parent": "10306",
    "longitude": 24.0492916769897,
    "latitude": 56.9602463519603,
    "regions": []
  },
  {
    "code": "20647",
    "name": "Zemgale Suburb",
    "updated_at": "2016-02-09T09:32:15.559869Z",
    "country": "lv",
    "parent": "10306",
    "longitude": 24.0675901268827,
    "latitude": 56.9325738146959,
    "regions": []
  },
  {
    "code": "20646",
    "name": "Latgale Suburb",
    "updated_at": "2016-02-09T09:32:15.575624Z",
    "country": "lv",
    "parent": "10306",
    "longitude": 24.1454858292977,
    "latitude": 56.9468718308949,
    "regions": []
  },
  {
    "code": "20645",
    "name": "Vidzeme Suburb",
    "updated_at": "2016-02-09T09:32:15.477107Z",
    "country": "lv",
    "parent": "10306",
    "longitude": 24.1639777294377,
    "latitude": 56.9723426414091,
    "regions": []
  },
  {
    "code": "20644",
    "name": "Ziemelu",
    "updated_at": "2016-02-09T09:32:08.107462Z",
    "country": "lv",
    "parent": "10306",
    "longitude": 24.1253542120946,
    "latitude": 56.9921997753355,
    "regions": []
  },
  {
    "code": "20643",
    "name": "Centre",
    "updated_at": "2016-02-09T09:32:15.664737Z",
    "country": "lv",
    "parent": "10306",
    "longitude": 24.114487917554,
    "latitude": 56.9516872228218,
    "regions": []
  },
  {
    "code": "20642",
    "name": "Laem Pakarang Beach",
    "updated_at": "2016-02-09T09:32:08.162009Z",
    "country": "th",
    "parent": "10277",
    "longitude": 98.234674721898,
    "latitude": 8.72785214025487,
    "regions": []
  },
  {
    "code": "20641",
    "name": "Khuk Khak Beach",
    "updated_at": "2016-02-09T09:32:08.123930Z",
    "country": "th",
    "parent": "10277",
    "longitude": 98.2436109936838,
    "latitude": 8.68945801485327,
    "regions": []
  },
  {
    "code": "20640",
    "name": "Bang Niang Beach",
    "updated_at": "2016-02-09T09:32:04.159696Z",
    "country": "th",
    "parent": "10277",
    "longitude": 98.2468007648044,
    "latitude": 8.66731342155374,
    "regions": []
  },
  {
    "code": "2063f",
    "name": "Nang Thong Beach",
    "updated_at": "2016-02-09T09:32:15.238190Z",
    "country": "th",
    "parent": "10277",
    "longitude": 98.2486603365225,
    "latitude": 8.64532253614575,
    "regions": []
  },
  {
    "code": "2063e",
    "name": "Khao Lak Beach",
    "updated_at": "2016-02-09T09:32:11.382560Z",
    "country": "th",
    "parent": "10277",
    "longitude": 98.2419140852167,
    "latitude": 8.62159632305537,
    "regions": []
  },
  {
    "code": "2063d",
    "name": "Naklua Beach",
    "updated_at": "2016-02-09T09:32:15.230080Z",
    "country": "th",
    "parent": "1021c",
    "longitude": 100.891876404102,
    "latitude": 12.9564495621352,
    "regions": []
  },
  {
    "code": "2063c",
    "name": "Hai ya",
    "updated_at": "2016-02-09T09:32:12.653816Z",
    "country": "th",
    "parent": "101e4",
    "longitude": 98.9866921669401,
    "latitude": 18.7772273996281,
    "regions": []
  },
  {
    "code": "2063b",
    "name": "Wat Ket",
    "updated_at": "2016-02-09T09:32:13.353173Z",
    "country": "th",
    "parent": "101e4",
    "longitude": 99.0080121976842,
    "latitude": 18.7869546460466,
    "regions": []
  },
  {
    "code": "2063a",
    "name": "Chang Phueak",
    "updated_at": "2016-02-09T09:32:11.102278Z",
    "country": "th",
    "parent": "101e4",
    "longitude": 98.9760187740098,
    "latitude": 18.8054925642497,
    "regions": []
  },
  {
    "code": "20639",
    "name": "Chang Moi",
    "updated_at": "2016-02-09T09:32:17.118264Z",
    "country": "th",
    "parent": "101e4",
    "longitude": 98.9959537640888,
    "latitude": 18.7921425560762,
    "regions": []
  },
  {
    "code": "20638",
    "name": "Chang Khlan",
    "updated_at": "2016-02-09T09:32:17.110312Z",
    "country": "th",
    "parent": "101e4",
    "longitude": 98.9971460620642,
    "latitude": 18.7810045803119,
    "regions": []
  },
  {
    "code": "20637",
    "name": "Cabeza de Toro",
    "updated_at": "2016-11-24T11:03:39.615913Z",
    "country": "do",
    "parent": null,
    "longitude": -68.35938010681,
    "latitude": 18.6428991080492,
    "regions": []
  },
  {
    "code": "20636",
    "name": "Cap Cana",
    "updated_at": "2014-09-13T16:52:56.213065Z",
    "country": "do",
    "parent": "10128",
    "longitude": -68.4008842652181,
    "latitude": 18.4823375186356,
    "regions": []
  },
  {
    "code": "20635",
    "name": "Bavaro",
    "updated_at": "2016-02-09T09:32:05.225651Z",
    "country": "do",
    "parent": "10128",
    "longitude": -68.4291976392097,
    "latitude": 18.6877914392533,
    "regions": []
  },
  {
    "code": "20634",
    "name": "Zona Colonial",
    "updated_at": "2014-09-22T21:45:55.303035Z",
    "country": "do",
    "parent": "1011e",
    "longitude": -69.8864606308415,
    "latitude": 18.472839944456,
    "regions": []
  },
  {
    "code": "20633",
    "name": "Bang Khae",
    "updated_at": "2014-02-21T19:11:30.308398Z",
    "country": "th",
    "parent": "100cb",
    "longitude": 100.415926203132,
    "latitude": 13.7106333463094,
    "regions": []
  },
  {
    "code": "20632",
    "name": "Bang Kho Laem",
    "updated_at": "2016-02-09T09:32:15.163834Z",
    "country": "th",
    "parent": "100cb",
    "longitude": 100.498631080172,
    "latitude": 13.69580848313,
    "regions": []
  },
  {
    "code": "20631",
    "name": "Bang Sue",
    "updated_at": "2016-02-09T09:32:15.156236Z",
    "country": "th",
    "parent": "100cb",
    "longitude": 100.525509864092,
    "latitude": 13.8139894258859,
    "regions": []
  },
  {
    "code": "20630",
    "name": "Bueng Kum",
    "updated_at": "2016-02-09T09:32:15.148223Z",
    "country": "th",
    "parent": "100cb",
    "longitude": 100.655381083488,
    "latitude": 13.8092664722508,
    "regions": []
  },
  {
    "code": "2062f",
    "name": "Bangkok Yai",
    "updated_at": "2016-02-09T09:32:11.398283Z",
    "country": "th",
    "parent": "100cb",
    "longitude": 100.473819002509,
    "latitude": 13.7355864660988,
    "regions": []
  },
  {
    "code": "2062e",
    "name": "Bang Khen",
    "updated_at": "2016-02-09T09:32:04.275184Z",
    "country": "th",
    "parent": "100cb",
    "longitude": 100.608619023572,
    "latitude": 13.8769838129353,
    "regions": []
  },
  {
    "code": "2062d",
    "name": "Saphan Sung",
    "updated_at": "2016-02-09T09:32:11.454392Z",
    "country": "th",
    "parent": "100cb",
    "longitude": 100.689444467425,
    "latitude": 13.7651478492655,
    "regions": []
  },
  {
    "code": "2062c",
    "name": "Bangkapi",
    "updated_at": "2016-02-09T09:32:06.748432Z",
    "country": "th",
    "parent": "100cb",
    "longitude": 100.627332368639,
    "latitude": 13.7683652676972,
    "regions": []
  },
  {
    "code": "2062b",
    "name": "Laksi",
    "updated_at": "2016-02-09T09:32:04.283624Z",
    "country": "th",
    "parent": "100cb",
    "longitude": 100.564519599125,
    "latitude": 13.8743315926264,
    "regions": []
  },
  {
    "code": "2062a",
    "name": "Dusit",
    "updated_at": "2016-02-09T09:32:08.029975Z",
    "country": "th",
    "parent": "100cb",
    "longitude": 100.507322609425,
    "latitude": 13.7732013481612,
    "regions": []
  },