[
  {
    "code": "138c5",
    "name": "Xuzhou",
    "updated_at": "2014-09-22T21:13:55.239302Z",
    "country": "cn",
    "parent": null,
    "longitude": 117.192001342773,
    "latitude": 34.2668991088867,
    "regions": [
      "103b"
    ]
  },
  {
    "code": "138c4",
    "name": "Xuzhuangzi",
    "updated_at": "2014-09-22T21:13:55.212784Z",
    "country": "cn",
    "parent": null,
    "longitude": 116.983001708984,
    "latitude": 38.9500007629395,
    "regions": [
      "103c"
    ]
  },
  {
    "code": "138c3",
    "name": "Ya'an",
    "updated_at": "2014-09-22T21:13:55.175977Z",
    "country": "cn",
    "parent": null,
    "longitude": 103.083000183105,
    "latitude": 29.9832992553711,
    "regions": [
      "13f0"
    ]
  },
  {
    "code": "138c2",
    "name": "Yabuli",
    "updated_at": "2014-09-22T21:13:55.145624Z",
    "country": "cn",
    "parent": null,
    "longitude": 128.61296081543,
    "latitude": 44.9284286499023,
    "regions": [
      "13e7"
    ]
  },
  {
    "code": "138c1",
    "name": "Yakeshi",
    "updated_at": "2014-09-22T21:13:55.110549Z",
    "country": "cn",
    "parent": null,
    "longitude": 120.733001708984,
    "latitude": 49.2832984924316,
    "regions": [
      "13ed"
    ]
  },
  {
    "code": "138c0",
    "name": "Yen-pu",
    "updated_at": "2014-09-22T21:13:55.089749Z",
    "country": "cn",
    "parent": null,
    "longitude": 113.165000915527,
    "latitude": 23.0891990661621,
    "regions": [
      "1036"
    ]
  },
  {
    "code": "138bf",
    "name": "Yancheng",
    "updated_at": "2014-09-22T21:13:55.068828Z",
    "country": "cn",
    "parent": null,
    "longitude": 120.125,
    "latitude": 33.3856010437012,
    "regions": [
      "103b"
    ]
  },
  {
    "code": "138be",
    "name": "Yangchengcun",
    "updated_at": "2014-09-22T21:13:55.047918Z",
    "country": "cn",
    "parent": null,
    "longitude": 120.782997131348,
    "latitude": 31.4167003631592,
    "regions": [
      "103b"
    ]
  },
  {
    "code": "138bd",
    "name": "Zhangjiagang",
    "updated_at": "2014-09-22T21:13:55.006466Z",
    "country": "cn",
    "parent": null,
    "longitude": 120.539001464844,
    "latitude": 31.8649997711182,
    "regions": [
      "103b"
    ]
  },
  {
    "code": "138bc",
    "name": "Yangshuo",
    "updated_at": "2014-09-22T21:13:54.982462Z",
    "country": "cn",
    "parent": null,
    "longitude": 110.5,
    "latitude": 24.7833003997803,
    "regions": [
      "1037"
    ]
  },
  {
    "code": "138bb",
    "name": "Yang-ssu-chen",
    "updated_at": "2014-09-22T21:13:54.956075Z",
    "country": "cn",
    "parent": null,
    "longitude": 121.49299621582,
    "latitude": 31.1599998474121,
    "regions": []
  },
  {
    "code": "138ba",
    "name": "Yangzhou",
    "updated_at": "2014-09-22T21:13:54.929607Z",
    "country": "cn",
    "parent": null,
    "longitude": 119.435997009277,
    "latitude": 32.3972015380859,
    "regions": [
      "103b"
    ]
  },
  {
    "code": "138b9",
    "name": "Yanmen",
    "updated_at": "2014-09-22T21:13:54.892270Z",
    "country": "cn",
    "parent": null,
    "longitude": 98.9000015258789,
    "latitude": 28.0666999816895,
    "regions": [
      "1344"
    ]
  },
  {
    "code": "138b8",
    "name": "Yansi",
    "updated_at": "2014-09-22T21:13:54.857330Z",
    "country": "cn",
    "parent": null,
    "longitude": 118.335998535156,
    "latitude": 29.823600769043,
    "regions": [
      "1033"
    ]
  },
  {
    "code": "138b7",
    "name": "Yantai",
    "updated_at": "2014-09-22T21:13:54.825759Z",
    "country": "cn",
    "parent": null,
    "longitude": 121.400001525879,
    "latitude": 37.5332984924316,
    "regions": [
      "103e"
    ]
  },
  {
    "code": "138b6",
    "name": "Yim Tin",
    "updated_at": "2014-09-22T21:13:54.806938Z",
    "country": "cn",
    "parent": null,
    "longitude": 114.266998291016,
    "latitude": 22.5832996368408,
    "regions": []
  },
  {
    "code": "138b5",
    "name": "Yanzhou",
    "updated_at": "2014-09-22T21:13:54.787626Z",
    "country": "cn",
    "parent": null,
    "longitude": 116.829002380371,
    "latitude": 35.5527992248535,
    "regions": [
      "103e"
    ]
  },
  {
    "code": "138b4",
    "name": "Yaoqiang",
    "updated_at": "2014-09-22T21:13:54.768211Z",
    "country": "cn",
    "parent": null,
    "longitude": 117.166999816895,
    "latitude": 36.8333015441895,
    "regions": [
      "103e"
    ]
  },
  {
    "code": "138b3",
    "name": "Yichang",
    "updated_at": "2014-09-22T21:13:54.748542Z",
    "country": "cn",
    "parent": null,
    "longitude": 111.285003662109,
    "latitude": 30.7143993377686,
    "regions": [
      "103a"
    ]
  },
  {
    "code": "138b2",
    "name": "Yixing",
    "updated_at": "2014-09-22T21:13:54.729032Z",
    "country": "cn",
    "parent": null,
    "longitude": 119.833000183105,
    "latitude": 31.36669921875,
    "regions": [
      "103b"
    ]
  },
  {
    "code": "138b1",
    "name": "Qingzhou",
    "updated_at": "2014-09-22T21:13:54.670558Z",
    "country": "cn",
    "parent": null,
    "longitude": 118.480003356934,
    "latitude": 36.6967010498047,
    "regions": [
      "103e"
    ]
  },
  {
    "code": "138b0",
    "name": "Yinchuan",
    "updated_at": "2014-09-22T21:13:54.641422Z",
    "country": "cn",
    "parent": null,
    "longitude": 106.273002624512,
    "latitude": 38.4681015014648,
    "regions": [
      "13ee"
    ]
  },
  {
    "code": "138af",
    "name": "Yingkou",
    "updated_at": "2014-09-22T21:13:54.604475Z",
    "country": "cn",
    "parent": null,
    "longitude": 122.224998474121,
    "latitude": 40.668098449707,
    "regions": [
      "13ec"
    ]
  },
  {
    "code": "138ae",
    "name": "Zhongxiang",
    "updated_at": "2014-09-22T21:13:54.567079Z",
    "country": "cn",
    "parent": null,
    "longitude": 112.583000183105,
    "latitude": 31.1660995483398,
    "regions": [
      "103a"
    ]
  },
  {
    "code": "138ad",
    "name": "Yingzhou",
    "updated_at": "2014-09-22T21:13:54.538525Z",
    "country": "cn",
    "parent": null,
    "longitude": 109.852996826172,
    "latitude": 18.4221992492676,
    "regions": [
      "1038"
    ]
  },
  {
    "code": "138ac",
    "name": "Yinjiafu",
    "updated_at": "2014-09-22T21:13:54.496617Z",
    "country": "cn",
    "parent": null,
    "longitude": 116.879997253418,
    "latitude": 40.0811004638672,
    "regions": []
  },
  {
    "code": "138ab",
    "name": "Yung-ning",
    "updated_at": "2014-09-22T21:13:54.475267Z",
    "country": "cn",
    "parent": null,
    "longitude": 100.666999816895,
    "latitude": 27.8332996368408,
    "regions": [
      "1344"
    ]
  },
  {
    "code": "138aa",
    "name": "Qianjiang",
    "updated_at": "2014-09-22T21:13:54.454066Z",
    "country": "cn",
    "parent": null,
    "longitude": 112.849998474121,
    "latitude": 30.4167003631592,
    "regions": [
      "103a"
    ]
  },
  {
    "code": "138a9",
    "name": "Yuanshancun",
    "updated_at": "2014-09-22T21:13:54.432998Z",
    "country": "cn",
    "parent": null,
    "longitude": 120.333000183105,
    "latitude": 31.13330078125,
    "regions": [
      "103b"
    ]
  },
  {
    "code": "138a8",
    "name": "Yueqing",
    "updated_at": "2014-09-22T21:13:54.374221Z",
    "country": "cn",
    "parent": null,
    "longitude": 120.954002380371,
    "latitude": 28.1271991729736,
    "regions": [
      "1343"
    ]
  },
  {
    "code": "138a7",
    "name": "Yujiatan",
    "updated_at": "2014-09-22T21:13:54.311617Z",
    "country": "cn",
    "parent": null,
    "longitude": 121.449996948242,
    "latitude": 37.4333000183105,
    "regions": [
      "103e"
    ]
  },
  {
    "code": "138a6",
    "name": "Wulingyuan",
    "updated_at": "2014-09-22T21:13:54.274807Z",
    "country": "cn",
    "parent": null,
    "longitude": 110.567001342773,
    "latitude": 29.3556003570557,
    "regions": [
      "13ea"
    ]
  },
  {
    "code": "138a5",
    "name": "Yujin",
    "updated_at": "2016-02-09T09:32:27.866501Z",
    "country": "cn",
    "parent": null,
    "longitude": 103.932998657227,
    "latitude": 29.2166996002197,
    "regions": [
      "13f0"
    ]
  },
  {
    "code": "138a4",
    "name": "Yulin",
    "updated_at": "2014-09-22T21:13:54.226752Z",
    "country": "cn",
    "parent": null,
    "longitude": 110.150001525879,
    "latitude": 22.63330078125,
    "regions": [
      "1037"
    ]
  },
  {
    "code": "138a3",
    "name": "Yuncheng",
    "updated_at": "2014-09-22T21:13:54.207861Z",
    "country": "cn",
    "parent": null,
    "longitude": 110.99299621582,
    "latitude": 35.0231018066406,
    "regions": [
      "1346"
    ]
  },
  {
    "code": "138a2",
    "name": "Yunfu",
    "updated_at": "2014-09-22T21:13:54.187996Z",
    "country": "cn",
    "parent": null,
    "longitude": 112.032997131348,
    "latitude": 22.9333000183105,
    "regions": [
      "1036"
    ]
  },
  {
    "code": "138a1",
    "name": "Yunjinghong",
    "updated_at": "2016-02-09T09:32:31.625472Z",
    "country": "cn",
    "parent": null,
    "longitude": 100.817001342773,
    "latitude": 21.9832992553711,
    "regions": [
      "1344"
    ]
  },
  {
    "code": "138a0",
    "name": "Kunshan",
    "updated_at": "2014-09-22T21:13:54.145882Z",
    "country": "cn",
    "parent": null,
    "longitude": 120.950996398926,
    "latitude": 31.3843994140625,
    "regions": [
      "103b"
    ]
  },
  {
    "code": "1389f",
    "name": "Yuguotou",
    "updated_at": "2014-09-22T21:13:54.116957Z",
    "country": "cn",
    "parent": null,
    "longitude": 113.455001831055,
    "latitude": 22.8500003814697,
    "regions": [
      "1036"
    ]
  },
  {
    "code": "1389e",
    "name": "Yuyao",
    "updated_at": "2014-09-22T21:13:54.089104Z",
    "country": "cn",
    "parent": null,
    "longitude": 121.149002075195,
    "latitude": 30.0499992370605,
    "regions": [
      "1343"
    ]
  },
  {
    "code": "1389d",
    "name": "Yuzhu",
    "updated_at": "2014-09-22T21:13:54.057032Z",
    "country": "cn",
    "parent": null,
    "longitude": 113.416999816895,
    "latitude": 23.1000003814697,
    "regions": [
      "1036"
    ]
  },
  {
    "code": "1389c",
    "name": "Anyang",
    "updated_at": "2014-09-22T21:13:54.024523Z",
    "country": "cn",
    "parent": null,
    "longitude": 114.329002380371,
    "latitude": 36.0993995666504,
    "regions": [
      "1039"
    ]
  },
  {
    "code": "1389b",
    "name": "Zibo",
    "updated_at": "2014-09-22T21:13:53.989029Z",
    "country": "cn",
    "parent": null,
    "longitude": 118.063003540039,
    "latitude": 36.790599822998,
    "regions": [
      "103e"
    ]
  },
  {
    "code": "1389a",
    "name": "Zhanggang",
    "updated_at": "2014-09-22T21:13:53.965432Z",
    "country": "cn",
    "parent": null,
    "longitude": 119.627998352051,
    "latitude": 25.9206008911133,
    "regions": [
      "1035"
    ]
  },
  {
    "code": "13899",
    "name": "Zhanggangpu",
    "updated_at": "2014-09-22T21:13:53.944154Z",
    "country": "cn",
    "parent": null,
    "longitude": 117.317001342773,
    "latitude": 39.5666999816895,
    "regions": [
      "103c"
    ]
  },
  {
    "code": "13898",
    "name": "Zhangjiagang",
    "updated_at": "2014-09-22T21:13:53.922267Z",
    "country": "cn",
    "parent": null,
    "longitude": 120.449996948242,
    "latitude": 31.9500007629395,
    "regions": []
  },
  {
    "code": "13897",
    "name": "Zhangjiakou",
    "updated_at": "2014-09-22T21:13:53.900996Z",
    "country": "cn",
    "parent": null,
    "longitude": 114.878997802734,
    "latitude": 40.810001373291,
    "regions": [
      "13e9"
    ]
  },
  {
    "code": "13896",
    "name": "Zhangla",
    "updated_at": "2014-09-22T21:13:53.880883Z",
    "country": "cn",
    "parent": null,
    "longitude": 103.666999816895,
    "latitude": 32.7999992370605,
    "regions": [
      "13f0"
    ]
  },
  {
    "code": "13895",
    "name": "Zhangmutou",
    "updated_at": "2014-09-22T21:13:53.856825Z",
    "country": "cn",
    "parent": null,
    "longitude": 114.067001342773,
    "latitude": 22.8999996185303,
    "regions": [
      "1036"
    ]
  },
  {
    "code": "13894",
    "name": "Zhanjiang",
    "updated_at": "2014-09-22T21:13:53.770231Z",
    "country": "cn",
    "parent": null,
    "longitude": 110.383003234863,
    "latitude": 21.2000007629395,
    "regions": [
      "1036"
    ]
  },
  {
    "code": "13893",
    "name": "Zhaoqiao",
    "updated_at": "2014-09-22T21:13:53.679419Z",
    "country": "cn",
    "parent": null,
    "longitude": 120.883003234863,
    "latitude": 31.9500007629395,
    "regions": [
      "103b"
    ]
  },
  {
    "code": "13892",
    "name": "Zhapu",
    "updated_at": "2014-09-22T21:13:53.620773Z",
    "country": "cn",
    "parent": null,
    "longitude": 121.083000183105,
    "latitude": 30.6072006225586,
    "regions": [
      "1343"
    ]
  },
  {
    "code": "13891",
    "name": "Zhayinlu",
    "updated_at": "2014-09-22T21:13:53.600794Z",
    "country": "cn",
    "parent": null,
    "longitude": 121.516998291016,
    "latitude": 31.3332996368408,
    "regions": [
      "1345"
    ]
  },
  {
    "code": "13890",
    "name": "Zhelin",
    "updated_at": "2014-09-22T21:13:53.545165Z",
    "country": "cn",
    "parent": null,
    "longitude": 121.46900177002,
    "latitude": 30.8325004577637,
    "regions": [
      "1345"
    ]
  },
  {
    "code": "1388f",
    "name": "Zhengzhou",
    "updated_at": "2014-09-22T21:13:53.487702Z",
    "country": "cn",
    "parent": null,
    "longitude": 113.649002075195,
    "latitude": 34.7578010559082,
    "regions": [
      "1039"
    ]
  },
  {
    "code": "1388e",
    "name": "Zhenjiang",
    "updated_at": "2014-09-22T21:13:53.452572Z",
    "country": "cn",
    "parent": null,
    "longitude": 119.43399810791,
    "latitude": 32.2092018127441,
    "regions": [
      "103b"
    ]
  },
  {
    "code": "1388d",
    "name": "Zhenxia",
    "updated_at": "2014-09-22T21:13:53.418786Z",
    "country": "cn",
    "parent": null,
    "longitude": 120.282997131348,
    "latitude": 31.0832996368408,
    "regions": [
      "103b"
    ]
  },
  {
    "code": "1388c",
    "name": "Zhenzhou",
    "updated_at": "2014-09-22T21:13:53.397946Z",
    "country": "cn",
    "parent": null,
    "longitude": 119.179000854492,
    "latitude": 32.2691993713379,
    "regions": [
      "103b"
    ]
  },
  {
    "code": "1388b",
    "name": "Zhongwei",
    "updated_at": "2014-09-22T21:13:53.376762Z",
    "country": "cn",
    "parent": null,
    "longitude": 105.180000305176,
    "latitude": 37.5191993713379,
    "regions": [
      "13ee"
    ]
  },
  {
    "code": "1388a",
    "name": "Zhongxin",
    "updated_at": "2014-09-22T21:13:53.355591Z",
    "country": "cn",
    "parent": null,
    "longitude": 113.612998962402,
    "latitude": 23.2877998352051,
    "regions": [
      "1036"
    ]
  },
  {
    "code": "13889",
    "name": "Zhongxin",
    "updated_at": "2014-09-22T21:13:53.334359Z",
    "country": "cn",
    "parent": null,
    "longitude": 99.5999984741211,
    "latitude": 27.8332996368408,
    "regions": [
      "1344",
      "13f0"
    ]
  },
  {
    "code": "13888",
    "name": "Zhoudian",
    "updated_at": "2014-09-22T21:13:53.313243Z",
    "country": "cn",
    "parent": null,
    "longitude": 117.067001342773,
    "latitude": 36.1833000183105,
    "regions": [
      "103e"
    ]
  },
  {
    "code": "13887",
    "name": "Zhoupu",
    "updated_at": "2014-09-22T21:13:53.261319Z",
    "country": "cn",
    "parent": null,
    "longitude": 121.572998046875,
    "latitude": 31.1194000244141,
    "regions": [
      "1345"
    ]
  },
  {
    "code": "13886",
    "name": "Zhouzhuang",
    "updated_at": "2014-09-22T21:13:53.233435Z",
    "country": "cn",
    "parent": null,
    "longitude": 120.843002319336,
    "latitude": 31.1133003234863,
    "regions": [
      "103b"
    ]
  },
  {
    "code": "13885",
    "name": "Zhuji",
    "updated_at": "2014-09-22T21:13:53.198015Z",
    "country": "cn",
    "parent": null,
    "longitude": 120.234001159668,
    "latitude": 29.716100692749,
    "regions": [
      "1343"
    ]
  },
  {
    "code": "13884",
    "name": "Zhujiajiao",
    "updated_at": "2014-09-22T21:13:53.161504Z",
    "country": "cn",
    "parent": null,
    "longitude": 121.050003051758,
    "latitude": 31.1117000579834,
    "regions": [
      "1345"
    ]
  },
  {
    "code": "13883",
    "name": "Zhujing",
    "updated_at": "2014-09-22T21:13:53.134014Z",
    "country": "cn",
    "parent": null,
    "longitude": 121.149002075195,
    "latitude": 30.8966999053955,
    "regions": [
      "1345"
    ]
  },
  {
    "code": "13882",
    "name": "Zhumadian",
    "updated_at": "2014-09-22T21:13:53.115326Z",
    "country": "cn",
    "parent": null,
    "longitude": 114.028999328613,
    "latitude": 32.9794006347656,
    "regions": [
      "1039"
    ]
  },
  {
    "code": "13881",
    "name": "Zhuzhou",
    "updated_at": "2014-09-22T21:13:53.096133Z",
    "country": "cn",
    "parent": null,
    "longitude": 113.150001525879,
    "latitude": 27.8332996368408,
    "regions": [
      "13ea"
    ]
  },
  {
    "code": "13880",
    "name": "Zigong",
    "updated_at": "2014-09-22T21:13:53.076346Z",
    "country": "cn",
    "parent": null,
    "longitude": 104.782997131348,
    "latitude": 29.3999996185303,
    "regions": [
      "13f0"
    ]
  },
  {
    "code": "1387f",
    "name": "Zunhua",
    "updated_at": "2014-09-22T21:13:53.056690Z",
    "country": "cn",
    "parent": null,
    "longitude": 117.958999633789,
    "latitude": 40.17919921875,
    "regions": [
      "13e9"
    ]
  },
  {
    "code": "1387e",
    "name": "Zunyi",
    "updated_at": "2014-09-22T21:13:53.037235Z",
    "country": "cn",
    "parent": null,
    "longitude": 106.906997680664,
    "latitude": 27.6867008209229,
    "regions": [
      "14d6"
    ]
  },
  {
    "code": "1387d",
    "name": "Babruysk",
    "updated_at": "2016-02-09T09:32:32.883262Z",
    "country": "by",
    "parent": null,
    "longitude": 29.2332992553711,
    "latitude": 53.1500015258789,
    "regions": []
  },
  {
    "code": "1387c",
    "name": "Beloozersk",
    "updated_at": "2014-09-22T21:13:52.859229Z",
    "country": "by",
    "parent": null,
    "longitude": 25.1732997894287,
    "latitude": 52.4710998535156,
    "regions": []
  },
  {
    "code": "1387b",
    "name": "Brest",
    "updated_at": "2014-09-22T21:13:52.825119Z",
    "country": "by",
    "parent": null,
    "longitude": 23.7000007629395,
    "latitude": 52.0999984741211,
    "regions": []
  },
  {
    "code": "1387a",
    "name": "Chernavchitsy",
    "updated_at": "2014-09-22T21:13:52.807523Z",
    "country": "by",
    "parent": null,
    "longitude": 23.7332992553711,
    "latitude": 52.2167015075684,
    "regions": []
  },
  {
    "code": "13879",
    "name": "Divin",
    "updated_at": "2014-09-22T21:13:52.789962Z",
    "country": "by",
    "parent": null,
    "longitude": 24.5832996368408,
    "latitude": 51.9667015075684,
    "regions": []
  },
  {
    "code": "13878",
    "name": "Dzyarzhynsk",
    "updated_at": "2014-09-22T21:13:52.686759Z",
    "country": "by",
    "parent": null,
    "longitude": 27.1418991088867,
    "latitude": 53.685001373291,
    "regions": []
  },
  {
    "code": "13877",
    "name": "Gili",
    "updated_at": "2014-09-22T21:13:52.618110Z",
    "country": "by",
    "parent": null,
    "longitude": 29.0666999816895,
    "latitude": 54.75,
    "regions": []
  },
  {
    "code": "13876",
    "name": "Hłuszniewo",
    "updated_at": "2014-09-22T21:13:52.596407Z",
    "country": "by",
    "parent": null,
    "longitude": 24.25,
    "latitude": 53.86669921875,
    "regions": []
  },
  {
    "code": "13875",
    "name": "Golya",
    "updated_at": "2014-09-22T21:13:52.577638Z",
    "country": "by",
    "parent": null,
    "longitude": 23.36669921875,
    "latitude": 52.4500007629395,
    "regions": []
  },
  {
    "code": "13874",
    "name": "Gomel",
    "updated_at": "2014-09-22T21:13:52.542979Z",
    "country": "by",
    "parent": null,
    "longitude": 30.9832992553711,
    "latitude": 52.4416999816895,
    "regions": []
  },
  {
    "code": "13873",
    "name": "Homyelʼ",
    "updated_at": "2014-09-22T21:13:52.525390Z",
    "country": "by",
    "parent": null,
    "longitude": 28.7833003997803,
    "latitude": 55.3166999816895,
    "regions": []
  },
  {
    "code": "13872",
    "name": "Kamenyuky",
    "updated_at": "2014-09-22T21:13:52.475182Z",
    "country": "by",
    "parent": null,
    "longitude": 23.7999992370605,
    "latitude": 52.5499992370605,
    "regions": []
  },
  {
    "code": "13871",
    "name": "Khutor Novinki",
    "updated_at": "2014-09-22T21:13:52.452683Z",
    "country": "by",
    "parent": null,
    "longitude": 27.5499992370605,
    "latitude": 53.9333000183105,
    "regions": []
  },
  {
    "code": "13870",
    "name": "Korelicze",
    "updated_at": "2014-09-22T21:13:52.349849Z",
    "country": "by",
    "parent": null,
    "longitude": 26.1378002166748,
    "latitude": 53.565299987793,
    "regions": []
  },
  {
    "code": "1386f",
    "name": "Leplëvka",
    "updated_at": "2014-09-22T21:13:52.279701Z",
    "country": "by",
    "parent": null,
    "longitude": 23.6667003631592,
    "latitude": 51.7667007446289,
    "regions": []
  },
  {
    "code": "1386e",
    "name": "Mogilev",
    "updated_at": "2014-09-22T21:13:52.186559Z",
    "country": "by",
    "parent": null,
    "longitude": 30.3363990783691,
    "latitude": 53.9138984680176,
    "regions": []
  },
  {
    "code": "1386d",
    "name": "Maladzyechna",
    "updated_at": "2014-09-22T21:13:52.116179Z",
    "country": "by",
    "parent": null,
    "longitude": 26.8497009277344,
    "latitude": 54.3166999816895,
    "regions": []
  },
  {
    "code": "1386c",
    "name": "Mazyr",
    "updated_at": "2014-09-22T21:13:52.067580Z",
    "country": "by",
    "parent": null,
    "longitude": 29.2667007446289,
    "latitude": 52.0499992370605,
    "regions": []
  },
  {
    "code": "1386b",
    "name": "Minsk",
    "updated_at": "2014-09-22T21:13:52.049857Z",
    "country": "by",
    "parent": null,
    "longitude": 27.5666999816895,
    "latitude": 53.9000015258789,
    "regions": []
  },
  {
    "code": "1386a",
    "name": "Miyory",
    "updated_at": "2014-09-22T21:13:52.031796Z",
    "country": "by",
    "parent": null,
    "longitude": 27.6285991668701,
    "latitude": 55.6156005859375,
    "regions": []
  },
  {
    "code": "13869",
    "name": "Mukhavets",
    "updated_at": "2014-09-22T21:13:51.993331Z",
    "country": "by",
    "parent": null,
    "longitude": 23.7999992370605,
    "latitude": 52.0332984924316,
    "regions": []
  },
  {
    "code": "13868",
    "name": "Navapolatsk",
    "updated_at": "2014-09-22T21:13:51.967246Z",
    "country": "by",
    "parent": null,
    "longitude": 28.6499996185303,
    "latitude": 55.5332984924316,
    "regions": []
  },
  {
    "code": "13867",
    "name": "Novitskovichi",
    "updated_at": "2014-09-22T21:13:51.877857Z",
    "country": "by",
    "parent": null,
    "longitude": 23.8500003814697,
    "latitude": 52.4333000183105,
    "regions": []
  },
  {
    "code": "13866",
    "name": "Novyy Posëlok Pervyy",
    "updated_at": "2014-09-22T21:13:51.828589Z",
    "country": "by",
    "parent": null,
    "longitude": 29.1499996185303,
    "latitude": 53.0999984741211,
    "regions": []
  },
  {
    "code": "13865",
    "name": "Ostroshitskiy Gorodok",
    "updated_at": "2014-09-22T21:13:51.796366Z",
    "country": "by",
    "parent": null,
    "longitude": 27.7000007629395,
    "latitude": 54.0666999816895,
    "regions": []
  },
  {
    "code": "13864",
    "name": "Polatsk",
    "updated_at": "2014-09-22T21:13:51.762813Z",
    "country": "by",
    "parent": null,
    "longitude": 28.80419921875,
    "latitude": 55.4855995178223,
    "regions": []
  },
  {
    "code": "13863",
    "name": "Pyrashevo",
    "updated_at": "2014-09-22T21:13:51.718078Z",
    "country": "by",
    "parent": null,
    "longitude": 27.3500003814697,
    "latitude": 53.4333000183105,
    "regions": []
  },
  {
    "code": "13862",
    "name": "Ratomka",
    "updated_at": "2014-09-22T21:13:51.692088Z",
    "country": "by",
    "parent": null,
    "longitude": 27.3500003814697,
    "latitude": 53.9333000183105,
    "regions": []
  },
  {
    "code": "13861",
    "name": "Rahachow",
    "updated_at": "2014-09-22T21:13:51.659035Z",
    "country": "by",
    "parent": null,
    "longitude": 30.0499992370605,
    "latitude": 53.0849990844727,
    "regions": []
  },
  {
    "code": "13860",
    "name": "Ruzhany",
    "updated_at": "2014-09-22T21:13:51.626383Z",
    "country": "by",
    "parent": null,
    "longitude": 24.8918991088867,
    "latitude": 52.8647003173828,
    "regions": []
  },
  {
    "code": "1385f",
    "name": "Sinelo",
    "updated_at": "2014-09-22T21:13:51.522114Z",
    "country": "by",
    "parent": null,
    "longitude": 27.7332992553711,
    "latitude": 53.7832984924316,
    "regions": []
  },
  {
    "code": "1385e",
    "name": "Strelovo",
    "updated_at": "2014-09-22T21:13:51.454730Z",
    "country": "by",
    "parent": null,
    "longitude": 25.8500003814697,
    "latitude": 52.9166984558105,
    "regions": []
  },
  {
    "code": "1385d",
    "name": "Svyetlahorsk",
    "updated_at": "2014-09-22T21:13:51.427914Z",
    "country": "by",
    "parent": null,
    "longitude": 29.7339000701904,
    "latitude": 52.6291999816895,
    "regions": []
  },
  {
    "code": "1385c",
    "name": "Uysʼtse",
    "updated_at": "2014-09-22T21:13:51.362822Z",
    "country": "by",
    "parent": null,
    "longitude": 26.8166999816895,
    "latitude": 55.38330078125,
    "regions": []
  },
  {
    "code": "1385b",
    "name": "Vitebsk",
    "updated_at": "2014-09-22T21:13:51.331003Z",
    "country": "by",
    "parent": null,
    "longitude": 30.1944007873535,
    "latitude": 55.1925010681152,
    "regions": []
  },
  {
    "code": "1385a",
    "name": "Zaslawye",
    "updated_at": "2014-09-22T21:13:51.283179Z",
    "country": "by",
    "parent": null,
    "longitude": 27.2833003997803,
    "latitude": 54.0,
    "regions": []
  },
  {
    "code": "13859",
    "name": "Zhdanovichi",
    "updated_at": "2014-09-22T21:13:48.108112Z",
    "country": "by",
    "parent": null,
    "longitude": 27.4333000183105,
    "latitude": 53.9500007629395,
    "regions": []
  },
  {
    "code": "13858",
    "name": "Zhidachov",
    "updated_at": "2014-09-22T21:13:48.081416Z",
    "country": "ua",
    "parent": null,
    "longitude": 24.13330078125,
    "latitude": 49.38330078125,
    "regions": [
      "149c"
    ]
  },
  {
    "code": "13857",
    "name": "Zhlobin",
    "updated_at": "2014-09-22T21:13:48.053256Z",
    "country": "by",
    "parent": null,
    "longitude": 30.0280990600586,
    "latitude": 52.8922004699707,
    "regions": []
  },
  {
    "code": "13856",
    "name": "Aalst",
    "updated_at": "2014-09-22T21:13:48.028632Z",
    "country": "be",
    "parent": null,
    "longitude": 4.03332996368408,
    "latitude": 50.9333000183105,
    "regions": [
      "1011"
    ]
  },
  {
    "code": "13855",
    "name": "Aalter",
    "updated_at": "2014-09-22T21:13:47.994328Z",
    "country": "be",
    "parent": null,
    "longitude": 3.45000004768372,
    "latitude": 51.0833015441895,
    "regions": [
      "1011"
    ]
  },
  {
    "code": "13854",
    "name": "Aarschot",
    "updated_at": "2014-09-22T21:13:47.959753Z",
    "country": "be",
    "parent": null,
    "longitude": 4.83333015441895,
    "latitude": 50.9832992553711,
    "regions": [
      "1012"
    ]
  },
  {
    "code": "13853",
    "name": "Aartrijke",
    "updated_at": "2014-09-22T21:13:47.935689Z",
    "country": "be",
    "parent": null,
    "longitude": 3.08332991600037,
    "latitude": 51.11669921875,
    "regions": [
      "1019"
    ]
  },
  {
    "code": "13852",
    "name": "Aartselaar",
    "updated_at": "2014-09-22T21:13:47.918862Z",
    "country": "be",
    "parent": null,
    "longitude": 4.38332986831665,
    "latitude": 51.13330078125,
    "regions": [
      "1193"
    ]
  },
  {
    "code": "13851",
    "name": "Achel",
    "updated_at": "2014-09-22T21:13:47.901854Z",
    "country": "be",
    "parent": null,
    "longitude": 5.48332977294922,
    "latitude": 51.25,
    "regions": [
      "1015"
    ]
  },
  {
    "code": "13850",
    "name": "Achêne",
    "updated_at": "2014-09-22T21:13:47.884519Z",
    "country": "be",
    "parent": null,
    "longitude": 5.05000019073486,
    "latitude": 50.2667007446289,
    "regions": [
      "1017"
    ]
  },
  {
    "code": "1384f",
    "name": "Acremont",
    "updated_at": "2014-09-22T21:13:47.867468Z",
    "country": "be",
    "parent": null,
    "longitude": 5.21667003631592,
    "latitude": 49.9000015258789,
    "regions": [
      "1016"
    ]
  },
  {
    "code": "1384e",
    "name": "Agimont",
    "updated_at": "2014-09-22T21:13:47.821999Z",
    "country": "be",
    "parent": null,
    "longitude": 4.80000019073486,
    "latitude": 50.1666984558105,
    "regions": [
      "1017"
    ]
  },
  {
    "code": "1384d",
    "name": "Aische-en-Refail",
    "updated_at": "2014-09-22T21:13:47.795780Z",
    "country": "be",
    "parent": null,
    "longitude": 4.81666994094849,
    "latitude": 50.5999984741211,
    "regions": [
      "1017"
    ]
  },
  {
    "code": "1384c",
    "name": "Alle",
    "updated_at": "2014-09-22T21:13:47.764414Z",
    "country": "be",
    "parent": null,
    "longitude": 4.96667003631592,
    "latitude": 49.8499984741211,
    "regions": [
      "1017"
    ]
  },
  {
    "code": "1384b",
    "name": "Alveringem",
    "updated_at": "2014-09-22T21:13:47.729552Z",
    "country": "be",
    "parent": null,
    "longitude": 2.71667003631592,
    "latitude": 51.0167007446289,
    "regions": [
      "1019"
    ]
  },
  {
    "code": "1384a",
    "name": "Amas",
    "updated_at": "2014-09-22T21:13:47.694435Z",
    "country": "be",
    "parent": null,
    "longitude": 5.40000009536743,
    "latitude": 50.4000015258789,
    "regions": [
      "1014"
    ]
  },
  {
    "code": "13849",
    "name": "Amblève",
    "updated_at": "2014-09-22T21:13:47.679517Z",
    "country": "be",
    "parent": null,
    "longitude": 6.15000009536743,
    "latitude": 50.3499984741211,
    "regions": [
      "1014"
    ]
  },
  {
    "code": "13848",
    "name": "Ambly",
    "updated_at": "2014-09-22T21:13:47.664137Z",
    "country": "be",
    "parent": null,
    "longitude": 5.31666994094849,
    "latitude": 50.1500015258789,
    "regions": [
      "1016"
    ]
  },
  {
    "code": "13847",
    "name": "Anderlecht",
    "updated_at": "2014-09-22T21:13:47.648535Z",
    "country": "be",
    "parent": null,
    "longitude": 4.30000019073486,
    "latitude": 50.8333015441895,
    "regions": [
      "1010"
    ]
  },
  {
    "code": "13846",
    "name": "Anhée",
    "updated_at": "2014-09-22T21:13:47.632392Z",
    "country": "be",
    "parent": null,
    "longitude": 4.88332986831665,
    "latitude": 50.3166999816895,
    "regions": [
      "1017"
    ]
  },
  {
    "code": "13845",
    "name": "Antwerp",
    "updated_at": "2014-09-22T21:13:47.573350Z",
    "country": "be",
    "parent": null,
    "longitude": 4.3996753692627,
    "latitude": 51.2211799621582,
    "regions": [
      "1193"
    ]
  },
  {
    "code": "13844",
    "name": "Anvaing",
    "updated_at": "2014-09-22T21:13:47.547101Z",
    "country": "be",
    "parent": null,
    "longitude": 3.54999995231628,
    "latitude": 50.6833000183105,
    "regions": [
      "1013"
    ]
  },
  {
    "code": "13843",
    "name": "Anzegem",
    "updated_at": "2014-09-22T21:13:47.514440Z",
    "country": "be",
    "parent": null,
    "longitude": 3.46667003631592,
    "latitude": 50.8333015441895,
    "regions": []
  },
  {
    "code": "13842",
    "name": "Arbre",
    "updated_at": "2014-09-22T21:13:47.480624Z",
    "country": "be",
    "parent": null,
    "longitude": 4.81666994094849,
    "latitude": 50.36669921875,
    "regions": [
      "1017"
    ]
  },
  {
    "code": "13841",
    "name": "Arbrefontaine",
    "updated_at": "2014-09-22T21:13:47.445832Z",
    "country": "be",
    "parent": null,
    "longitude": 5.83333015441895,
    "latitude": 50.2999992370605,
    "regions": []
  },
  {
    "code": "13840",
    "name": "Arimont",
    "updated_at": "2014-09-22T21:13:47.428897Z",
    "country": "be",
    "parent": null,
    "longitude": 6.06666994094849,
    "latitude": 50.4166984558105,
    "regions": [
      "1014"
    ]
  },
  {
    "code": "1383f",
    "name": "Arlon",
    "updated_at": "2014-09-22T21:13:47.408960Z",
    "country": "be",
    "parent": null,
    "longitude": 5.81666994094849,
    "latitude": 49.6833000183105,
    "regions": [
      "1016"
    ]
  },
  {
    "code": "1383e",
    "name": "As",
    "updated_at": "2014-09-22T21:13:47.393501Z",
    "country": "be",
    "parent": null,
    "longitude": 5.58389282226562,
    "latitude": 51.007942199707,
    "regions": [
      "1015"
    ]
  },
  {
    "code": "1383d",
    "name": "Asse",
    "updated_at": "2014-09-22T21:13:47.376487Z",
    "country": "be",
    "parent": null,
    "longitude": 4.19999980926514,
    "latitude": 50.9166984558105,
    "regions": []
  },
  {
    "code": "1383c",
    "name": "Assesse",
    "updated_at": "2014-09-22T21:13:47.336468Z",
    "country": "be",
    "parent": null,
    "longitude": 5.01667022705078,
    "latitude": 50.36669921875,
    "regions": [
      "1017"
    ]
  },
  {
    "code": "1383b",
    "name": "Aubange",
    "updated_at": "2014-09-22T21:13:47.309927Z",
    "country": "be",
    "parent": null,
    "longitude": 5.80000019073486,
    "latitude": 49.5833015441895,
    "regions": [
      "1016"
    ]
  },
  {
    "code": "1383a",
    "name": "Aubel",
    "updated_at": "2014-09-22T21:13:47.284889Z",
    "country": "be",
    "parent": null,
    "longitude": 5.84999990463257,
    "latitude": 50.7000007629395,
    "regions": [
      "1014"
    ]
  },
  {
    "code": "13839",
    "name": "Aublain",
    "updated_at": "2014-09-22T21:13:47.251078Z",
    "country": "be",
    "parent": null,
    "longitude": 4.41666984558105,
    "latitude": 50.0666999816895,
    "regions": [
      "1017"
    ]
  },
  {
    "code": "13838",
    "name": "Auffe",
    "updated_at": "2014-09-22T21:13:47.216848Z",
    "country": "be",
    "parent": null,
    "longitude": 5.13885021209717,
    "latitude": 50.1073989868164,
    "regions": []
  },
  {
    "code": "13837",
    "name": "Auvelais",
    "updated_at": "2014-09-22T21:13:47.187711Z",
    "country": "be",
    "parent": null,
    "longitude": 4.61667013168335,
    "latitude": 50.4500007629395,
    "regions": [
      "1017"
    ]
  },
  {
    "code": "13836",
    "name": "Avelgem",
    "updated_at": "2014-09-22T21:13:47.171259Z",
    "country": "be",
    "parent": null,
    "longitude": 3.43333005905151,
    "latitude": 50.7667007446289,
    "regions": [
      "1019"
    ]
  },
  {
    "code": "13835",
    "name": "Awenne",
    "updated_at": "2014-09-22T21:13:47.155105Z",
    "country": "be",
    "parent": null,
    "longitude": 5.30000019073486,
    "latitude": 50.0833015441895,
    "regions": [
      "1016"
    ]
  },
  {
    "code": "13834",
    "name": "Aye",
    "updated_at": "2014-09-22T21:13:47.138333Z",
    "country": "be",
    "parent": null,
    "longitude": 5.30000019073486,
    "latitude": 50.2332992553711,
    "regions": [
      "1016"
    ]
  },
  {
    "code": "13833",
    "name": "Aywaille",
    "updated_at": "2014-09-22T21:13:47.121021Z",
    "country": "be",
    "parent": null,
    "longitude": 5.66666984558105,
    "latitude": 50.4667015075684,
    "regions": [
      "1014"
    ]
  },
  {
    "code": "13832",
    "name": "Baarle-Hertog",
    "updated_at": "2014-09-22T21:13:47.104086Z",
    "country": "be",
    "parent": null,
    "longitude": 4.89188003540039,
    "latitude": 51.4053993225098,
    "regions": [
      "1193"
    ]
  },
  {
    "code": "13831",
    "name": "Baillonville",
    "updated_at": "2014-09-22T21:13:47.051859Z",
    "country": "be",
    "parent": null,
    "longitude": 5.33333015441895,
    "latitude": 50.2832984924316,
    "regions": [
      "1017"
    ]
  },
  {
    "code": "13830",
    "name": "Balâtre",
    "updated_at": "2014-09-22T21:13:47.027929Z",
    "country": "be",
    "parent": null,
    "longitude": 4.63332986831665,
    "latitude": 50.5,
    "regions": [
      "1017"
    ]
  },
  {
    "code": "1382f",
    "name": "Banneux",
    "updated_at": "2014-09-22T21:13:46.994372Z",
    "country": "be",
    "parent": null,
    "longitude": 5.73332977294922,
    "latitude": 50.5332984924316,
    "regions": [
      "1014"
    ]
  },
  {
    "code": "1382e",
    "name": "Barchon",
    "updated_at": "2014-09-22T21:13:46.959868Z",
    "country": "be",
    "parent": null,
    "longitude": 5.69999980926514,
    "latitude": 50.6666984558105,
    "regions": [
      "1014"
    ]
  },
  {
    "code": "1382d",
    "name": "Barry",
    "updated_at": "2014-09-22T21:13:46.933763Z",
    "country": "be",
    "parent": null,
    "longitude": 3.53332996368408,
    "latitude": 50.5833015441895,
    "regions": [
      "1013"
    ]
  },
  {
    "code": "1382c",
    "name": "Barvaux",
    "updated_at": "2014-09-22T21:13:46.915916Z",
    "country": "be",
    "parent": null,
    "longitude": 5.48332977294922,
    "latitude": 50.3499984741211,
    "regions": [
      "1016"
    ]
  },
  {
    "code": "1382b",
    "name": "Barvaux-Condroz",
    "updated_at": "2014-09-22T21:13:46.898061Z",
    "country": "be",
    "parent": null,
    "longitude": 5.26667022705078,
    "latitude": 50.3333015441895,
    "regions": [
      "1017"
    ]
  },
  {
    "code": "1382a",
    "name": "Basse-Bodeux",
    "updated_at": "2014-09-22T21:13:46.879690Z",
    "country": "be",
    "parent": null,
    "longitude": 5.83333015441895,
    "latitude": 50.3499984741211,
    "regions": [
      "1014"
    ]
  },
  {
    "code": "13829",
    "name": "Bassenge",
    "updated_at": "2014-09-22T21:13:46.861299Z",
    "country": "be",
    "parent": null,
    "longitude": 5.59999990463257,
    "latitude": 50.7667007446289,
    "regions": []
  },
  {
    "code": "13828",
    "name": "Bassevelde",
    "updated_at": "2014-09-22T21:13:46.842748Z",
    "country": "be",
    "parent": null,
    "longitude": 3.68333005905151,
    "latitude": 51.2332992553711,
    "regions": [
      "1011"
    ]
  },
  {
    "code": "13827",
    "name": "Bastogne",
    "updated_at": "2016-02-09T09:32:29.701769Z",
    "country": "be",
    "parent": null,
    "longitude": 5.71667003631592,
    "latitude": 50.0,
    "regions": [
      "1016"
    ]
  },
  {
    "code": "13826",
    "name": "Battice",
    "updated_at": "2014-09-22T21:13:46.792843Z",
    "country": "be",
    "parent": null,
    "longitude": 5.81666994094849,
    "latitude": 50.6500015258789,
    "regions": [
      "1014"
    ]
  },
  {
    "code": "13825",
    "name": "Beauraing",
    "updated_at": "2014-09-22T21:13:46.765856Z",
    "country": "be",
    "parent": null,
    "longitude": 4.96667003631592,
    "latitude": 50.11669921875,
    "regions": [
      "1017"
    ]
  },
  {
    "code": "13824",
    "name": "Beausaint",
    "updated_at": "2014-09-22T21:13:46.731573Z",
    "country": "be",
    "parent": null,
    "longitude": 5.55000019073486,
    "latitude": 50.1666984558105,
    "regions": [
      "1016"
    ]
  },
  {
    "code": "13823",
    "name": "Beauvechain",
    "updated_at": "2014-09-22T21:13:46.697685Z",
    "country": "be",
    "parent": null,
    "longitude": 4.76667022705078,
    "latitude": 50.7832984924316,
    "regions": [
      "1018"
    ]
  },
  {
    "code": "13822",
    "name": "Beernem",
    "updated_at": "2014-09-22T21:13:46.674558Z",
    "country": "be",
    "parent": null,
    "longitude": 3.33332991600037,
    "latitude": 51.1500015258789,
    "regions": [
      "1019"
    ]
  },
  {
    "code": "13821",
    "name": "Beerse",
    "updated_at": "2014-09-22T21:13:46.656782Z",
    "country": "be",
    "parent": null,
    "longitude": 4.86667013168335,
    "latitude": 51.3166999816895,
    "regions": [
      "1193"
    ]
  },
  {
    "code": "13820",
    "name": "Beffe",
    "updated_at": "2014-09-22T21:13:46.638780Z",
    "country": "be",
    "parent": null,
    "longitude": 5.51667022705078,
    "latitude": 50.25,
    "regions": [
      "1016"
    ]
  },
  {
    "code": "1381f",
    "name": "Beho",
    "updated_at": "2014-09-22T21:13:46.619928Z",
    "country": "be",
    "parent": null,
    "longitude": 5.99806022644043,
    "latitude": 50.2206001281738,
    "regions": [
      "1016"
    ]
  },
  {
    "code": "1381e",
    "name": "Bekkevoort",
    "updated_at": "2014-09-22T21:13:46.601402Z",
    "country": "be",
    "parent": null,
    "longitude": 4.96667003631592,
    "latitude": 50.9500007629395,
    "regions": [
      "1012"
    ]
  },
  {
    "code": "1381d",
    "name": "Bellevaux",
    "updated_at": "2014-09-22T21:13:46.582998Z",
    "country": "be",
    "parent": null,
    "longitude": 5.11667013168335,
    "latitude": 49.8333015441895,
    "regions": [
      "1016"
    ]
  },
  {
    "code": "1381c",
    "name": "Beloeil",
    "updated_at": "2014-09-22T21:13:46.558071Z",
    "country": "be",
    "parent": null,
    "longitude": 4.44999980926514,
    "latitude": 50.2332992553711,
    "regions": []
  },
  {
    "code": "1381b",
    "name": "Beloeil",
    "updated_at": "2014-09-22T21:13:46.530971Z",
    "country": "be",
    "parent": null,
    "longitude": 3.71667003631592,
    "latitude": 50.5499992370605,
    "regions": [
      "1013"
    ]
  },
  {
    "code": "1381a",
    "name": "Belvaux",
    "updated_at": "2014-09-22T21:13:46.499874Z",
    "country": "be",
    "parent": null,
    "longitude": 5.19999980926514,
    "latitude": 50.0999984741211,
    "regions": [
      "1017"
    ]
  },
  {
    "code": "13819",
    "name": "Bende",
    "updated_at": "2014-09-22T21:13:46.466695Z",
    "country": "be",
    "parent": null,
    "longitude": 5.41666984558105,
    "latitude": 50.4166984558105,
    "regions": [
      "1016"
    ]
  },
  {
    "code": "13818",
    "name": "Bergeval",
    "updated_at": "2014-09-22T21:13:46.430331Z",
    "country": "be",
    "parent": null,
    "longitude": 5.86667013168335,
    "latitude": 50.3499984741211,
    "regions": [
      "1014"
    ]
  },
  {
    "code": "13817",
    "name": "Beringen",
    "updated_at": "2014-09-22T21:13:46.405858Z",
    "country": "be",
    "parent": null,
    "longitude": 5.21667003631592,
    "latitude": 51.0499992370605,
    "regions": [
      "1015"
    ]
  },
  {
    "code": "13816",
    "name": "Bérisménil",
    "updated_at": "2014-09-22T21:13:46.389332Z",
    "country": "be",
    "parent": null,
    "longitude": 5.66666984558105,
    "latitude": 50.1833000183105,
    "regions": [
      "1016"
    ]
  },
  {
    "code": "13815",
    "name": "Berlare",
    "updated_at": "2014-09-22T21:13:46.373073Z",
    "country": "be",
    "parent": null,
    "longitude": 4.0,
    "latitude": 51.0332984924316,
    "regions": [
      "1011"
    ]
  },
  {
    "code": "13814",
    "name": "Berneau",
    "updated_at": "2014-09-22T21:13:46.356372Z",
    "country": "be",
    "parent": null,
    "longitude": 5.73091506958008,
    "latitude": 50.7427024841309,
    "regions": [
      "1014"
    ]
  },
  {
    "code": "13813",
    "name": "Bertem",
    "updated_at": "2014-09-22T21:13:46.339720Z",
    "country": "be",
    "parent": null,
    "longitude": 4.63332986831665,
    "latitude": 50.86669921875,
    "regions": [
      "1012"
    ]
  },
  {
    "code": "13812",
    "name": "Bertogne",
    "updated_at": "2014-09-22T21:13:46.318096Z",
    "country": "be",
    "parent": null,
    "longitude": 5.66666984558105,
    "latitude": 50.0833015441895,
    "regions": [
      "1016"
    ]
  },
  {
    "code": "13811",
    "name": "Bertrix",
    "updated_at": "2014-09-22T21:13:46.291660Z",
    "country": "be",
    "parent": null,
    "longitude": 5.25,
    "latitude": 49.8499984741211,
    "regions": [
      "1016"
    ]
  },
  {
    "code": "13810",
    "name": "Beselare",
    "updated_at": "2014-09-22T21:13:46.266325Z",
    "country": "be",
    "parent": null,
    "longitude": 3.0166699886322,
    "latitude": 50.8499984741211,
    "regions": [
      "1019"
    ]
  },
  {
    "code": "1380f",
    "name": "Beuzet",
    "updated_at": "2014-09-22T21:13:46.239665Z",
    "country": "be",
    "parent": null,
    "longitude": 4.75,
    "latitude": 50.5332984924316,
    "regions": [
      "1017"
    ]
  },
  {
    "code": "1380e",
    "name": "Beveren",
    "updated_at": "2014-09-22T21:13:46.206023Z",
    "country": "be",
    "parent": null,
    "longitude": 2.63333010673523,
    "latitude": 50.9333000183105,
    "regions": [
      "1019"
    ]
  },
  {
    "code": "1380d",
    "name": "Beveren",
    "updated_at": "2014-09-22T21:13:46.172178Z",
    "country": "be",
    "parent": null,
    "longitude": 4.25,
    "latitude": 51.2167015075684,
    "regions": [
      "1011"
    ]
  },
  {
    "code": "1380c",
    "name": "Beverlo",
    "updated_at": "2014-09-22T21:13:46.150899Z",
    "country": "be",
    "parent": null,
    "longitude": 5.19999980926514,
    "latitude": 51.0833015441895,
    "regions": [
      "1015"
    ]
  },
  {
    "code": "1380b",
    "name": "Bierbeek",
    "updated_at": "2014-09-22T21:13:46.132979Z",
    "country": "be",
    "parent": null,
    "longitude": 4.76667022705078,
    "latitude": 50.8333015441895,
    "regions": [
      "1012"
    ]
  },
  {
    "code": "1380a",
    "name": "Bierges",
    "updated_at": "2014-09-22T21:13:46.114986Z",
    "country": "be",
    "parent": null,
    "longitude": 4.59999990463257,
    "latitude": 50.7167015075684,
    "regions": [
      "1018"
    ]
  },
  {
    "code": "13809",
    "name": "Bièvre",
    "updated_at": "2014-09-22T21:13:46.096486Z",
    "country": "be",
    "parent": null,
    "longitude": 5.01667022705078,
    "latitude": 49.9333000183105,
    "regions": [
      "1017"
    ]
  },
  {
    "code": "13808",
    "name": "Bilstain",
    "updated_at": "2014-09-22T21:13:46.077333Z",
    "country": "be",
    "parent": null,
    "longitude": 5.91666984558105,
    "latitude": 50.61669921875,
    "regions": [
      "1014"
    ]
  },
  {
    "code": "13807",
    "name": "Bilzen",
    "updated_at": "2014-09-22T21:13:46.054111Z",
    "country": "be",
    "parent": null,
    "longitude": 5.51667022705078,
    "latitude": 50.86669921875,
    "regions": [
      "1015"
    ]
  },
  {
    "code": "13806",
    "name": "Binche",
    "updated_at": "2014-09-22T21:13:46.027564Z",
    "country": "be",
    "parent": null,
    "longitude": 4.16666984558105,
    "latitude": 50.4000015258789,
    "regions": [
      "1013"
    ]
  },
  {
    "code": "13805",
    "name": "Bisseghem",
    "updated_at": "2014-09-22T21:13:45.966568Z",
    "country": "be",
    "parent": null,
    "longitude": 3.21667003631592,
    "latitude": 50.8166999816895,
    "regions": [
      "1019"
    ]
  },
  {
    "code": "13804",
    "name": "Blaimont",
    "updated_at": "2014-09-22T21:13:45.929768Z",
    "country": "be",
    "parent": null,
    "longitude": 4.83333015441895,
    "latitude": 50.2000007629395,
    "regions": [
      "1017"
    ]
  },
  {
    "code": "13803",
    "name": "Blandain",
    "updated_at": "2014-09-22T21:13:45.899865Z",
    "country": "be",
    "parent": null,
    "longitude": 3.29999995231628,
    "latitude": 50.61669921875,
    "regions": []
  },
  {
    "code": "13802",
    "name": "Blankenberge",
    "updated_at": "2014-09-22T21:13:45.883912Z",
    "country": "be",
    "parent": null,
    "longitude": 3.13144993782043,
    "latitude": 51.3132019042969,
    "regions": [
      "1019"
    ]
  },
  {
    "code": "13801",
    "name": "Blegny",
    "updated_at": "2016-02-09T09:32:33.351323Z",
    "country": "be",
    "parent": null,
    "longitude": 5.73332977294922,
    "latitude": 50.6666984558105,
    "regions": [
      "1014"
    ]
  },
  {
    "code": "13800",
    "name": "Bocholt",
    "updated_at": "2014-09-22T21:13:45.850010Z",
    "country": "be",
    "parent": null,
    "longitude": 5.58333015441895,
    "latitude": 51.1666984558105,
    "regions": [
      "1015"
    ]
  },
  {
    "code": "137ff",
    "name": "Boechout",
    "updated_at": "2014-09-22T21:13:45.831709Z",
    "country": "be",
    "parent": null,
    "longitude": 4.5,
    "latitude": 51.1666984558105,
    "regions": [
      "1193"
    ]
  },
  {
    "code": "137fe",
    "name": "Boekhoute",
    "updated_at": "2014-09-22T21:13:45.813458Z",
    "country": "be",
    "parent": null,
    "longitude": 3.71667003631592,
    "latitude": 51.25,
    "regions": [
      "1011"
    ]
  },
  {
    "code": "137fd",
    "name": "Boezinge",
    "updated_at": "2014-09-22T21:13:45.790825Z",
    "country": "be",
    "parent": null,
    "longitude": 2.84999990463257,
    "latitude": 50.9000015258789,
    "regions": [
      "1019"
    ]
  },
  {
    "code": "137fc",
    "name": "Bohan",
    "updated_at": "2014-09-22T21:13:45.764789Z",
    "country": "be",
    "parent": null,
    "longitude": 4.88332986831665,
    "latitude": 49.86669921875,
    "regions": [
      "1017"
    ]
  },
  {
    "code": "137fb",
    "name": "Boignée",
    "updated_at": "2014-09-22T21:13:45.739268Z",
    "country": "be",
    "parent": null,
    "longitude": 4.61667013168335,
    "latitude": 50.5,
    "regions": [
      "1017"
    ]
  },
  {
    "code": "137fa",
    "name": "Bois-de-Villers",
    "updated_at": "2014-09-22T21:13:45.705259Z",
    "country": "be",
    "parent": null,
    "longitude": 4.81666994094849,
    "latitude": 50.38330078125,
    "regions": [
      "1017"
    ]
  },
  {
    "code": "137f9",
    "name": "Bomal",
    "updated_at": "2014-09-22T21:13:45.671233Z",
    "country": "be",
    "parent": null,
    "longitude": 5.53332996368408,
    "latitude": 50.38330078125,
    "regions": [
      "1016"
    ]
  },
  {
    "code": "137f8",
    "name": "Boncelles",
    "updated_at": "2014-09-22T21:13:45.641991Z",
    "country": "be",
    "parent": null,
    "longitude": 5.53332996368408,
    "latitude": 50.5666999816895,
    "regions": [
      "1014"
    ]
  },
  {
    "code": "137f7",
    "name": "Bonheiden",
    "updated_at": "2014-09-22T21:13:45.626237Z",
    "country": "be",
    "parent": null,
    "longitude": 4.53332996368408,
    "latitude": 51.0332984924316,
    "regions": [
      "1193"
    ]
  },
  {
    "code": "137f6",
    "name": "Bon-Secours",
    "updated_at": "2014-09-22T21:13:45.609484Z",
    "country": "be",
    "parent": null,
    "longitude": 3.59999990463257,
    "latitude": 50.5,
    "regions": [
      "1013"
    ]
  },
  {
    "code": "137f5",
    "name": "Bonsin",
    "updated_at": "2014-09-22T21:13:45.593118Z",
    "country": "be",
    "parent": null,
    "longitude": 5.36667013168335,
    "latitude": 50.36669921875,
    "regions": [
      "1017"
    ]
  },
  {
    "code": "137f4",
    "name": "Borgloon",
    "updated_at": "2014-09-22T21:13:45.561426Z",
    "country": "be",
    "parent": null,
    "longitude": 5.33333015441895,
    "latitude": 50.7999992370605,
    "regions": [
      "1015"
    ]
  },
  {
    "code": "137f3",
    "name": "Borlo",
    "updated_at": "2014-09-22T21:13:45.537564Z",
    "country": "be",
    "parent": null,
    "longitude": 5.16666984558105,
    "latitude": 50.75,
    "regions": [
      "1015"
    ]
  },
  {
    "code": "137f2",
    "name": "Borlon",
    "updated_at": "2014-09-22T21:13:45.511592Z",
    "country": "be",
    "parent": null,
    "longitude": 5.40000009536743,
    "latitude": 50.38330078125,
    "regions": [
      "1014"
    ]
  },
  {
    "code": "137f1",
    "name": "Bornem",
    "updated_at": "2014-09-22T21:13:45.484075Z",
    "country": "be",
    "parent": null,
    "longitude": 4.23332977294922,
    "latitude": 51.0999984741211,
    "regions": [
      "1193"
    ]
  },
  {
    "code": "137f0",
    "name": "Bouillon",
    "updated_at": "2014-09-22T21:13:45.448849Z",
    "country": "be",
    "parent": null,
    "longitude": 5.06666994094849,
    "latitude": 49.7999992370605,
    "regions": [
      "1016"
    ]
  },
  {
    "code": "137ef",
    "name": "Bourcy",
    "updated_at": "2014-09-22T21:13:45.415617Z",
    "country": "be",
    "parent": null,
    "longitude": 5.80000019073486,
    "latitude": 50.0666999816895,
    "regions": [
      "1016"
    ]
  },
  {
    "code": "137ee",
    "name": "Bournoufay",
    "updated_at": "2014-09-22T21:13:45.386291Z",
    "country": "be",
    "parent": null,
    "longitude": 5.63332986831665,
    "latitude": 50.2332992553711,
    "regions": [
      "1016"
    ]
  },
  {
    "code": "137ed",
    "name": "Bourseigne-Vieille",
    "updated_at": "2014-09-22T21:13:45.369235Z",
    "country": "be",
    "parent": null,
    "longitude": 4.86667013168335,
    "latitude": 50.0167007446289,
    "regions": [
      "1017"
    ]
  },
  {
    "code": "137ec",
    "name": "Boussu-lez-Walcourt",
    "updated_at": "2014-09-22T21:13:45.352296Z",
    "country": "be",
    "parent": null,
    "longitude": 4.36667013168335,
    "latitude": 50.2167015075684,
    "regions": [
      "1013"
    ]
  },
  {
    "code": "137eb",
    "name": "Bousval",
    "updated_at": "2014-09-22T21:13:45.335170Z",
    "country": "be",
    "parent": null,
    "longitude": 4.5,
    "latitude": 50.61669921875,
    "regions": [
      "1018"
    ]
  },
  {
    "code": "137ea",
    "name": "Boutersem",
    "updated_at": "2014-09-22T21:13:45.317831Z",
    "country": "be",
    "parent": null,
    "longitude": 4.83333015441895,
    "latitude": 50.8499984741211,
    "regions": [
      "1012"
    ]
  },
  {
    "code": "137e9",
    "name": "Bovigny",
    "updated_at": "2014-09-22T21:13:45.299885Z",
    "country": "be",
    "parent": null,
    "longitude": 5.91694021224976,
    "latitude": 50.2242012023926,
    "regions": [
      "1016"
    ]
  },
  {
    "code": "137e8",
    "name": "Braibant",
    "updated_at": "2014-09-22T21:13:45.273931Z",
    "country": "be",
    "parent": null,
    "longitude": 5.06666994094849,
    "latitude": 50.3166999816895,
    "regions": [
      "1017"
    ]
  },
  {
    "code": "137e7",
    "name": "Braine-lʼAlleud",
    "updated_at": "2014-09-22T21:13:45.249527Z",
    "country": "be",
    "parent": null,
    "longitude": 4.36667013168335,
    "latitude": 50.6833000183105,
    "regions": [
      "1018"
    ]
  },
  {
    "code": "137e6",
    "name": "Braine-le-Château",
    "updated_at": "2014-09-22T21:13:45.219567Z",
    "country": "be",
    "parent": null,
    "longitude": 4.26667022705078,
    "latitude": 50.6833000183105,
    "regions": [
      "1018"
    ]
  },
  {
    "code": "137e5",
    "name": "Braives",
    "updated_at": "2014-09-22T21:13:45.185266Z",
    "country": "be",
    "parent": null,
    "longitude": 5.15000009536743,
    "latitude": 50.63330078125,
    "regions": [
      "1014"
    ]
  },
  {
    "code": "137e4",
    "name": "Bras-Haut",
    "updated_at": "2014-09-22T21:13:45.150466Z",
    "country": "be",
    "parent": null,
    "longitude": 5.38332986831665,
    "latitude": 49.9832992553711,
    "regions": [
      "1016"
    ]
  },
  {
    "code": "137e3",
    "name": "Brasmenil",
    "updated_at": "2014-09-22T21:13:45.129156Z",
    "country": "be",
    "parent": null,
    "longitude": 3.54999995231628,
    "latitude": 50.5332984924316,
    "regions": []
  },
  {
    "code": "137e2",
    "name": "Brasschaat",
    "updated_at": "2014-09-22T21:13:45.112318Z",
    "country": "be",
    "parent": null,
    "longitude": 4.49274015426636,
    "latitude": 51.2910003662109,
    "regions": [
      "1193"
    ]
  },
  {
    "code": "137e1",
    "name": "Brecht",
    "updated_at": "2014-09-22T21:13:45.095405Z",
    "country": "be",
    "parent": null,
    "longitude": 4.63332986831665,
    "latitude": 51.3499984741211,
    "regions": [
      "1193"
    ]
  },
  {
    "code": "137e0",
    "name": "Bredene",
    "updated_at": "2014-09-22T21:13:45.078217Z",
    "country": "be",
    "parent": null,
    "longitude": 2.96667003631592,
    "latitude": 51.2332992553711,
    "regions": [
      "1019"
    ]
  },
  {
    "code": "137df",
    "name": "Bree",
    "updated_at": "2014-09-22T21:13:45.060142Z",
    "country": "be",
    "parent": null,
    "longitude": 5.59999990463257,
    "latitude": 51.13330078125,
    "regions": [
      "1015"
    ]
  },
  {
    "code": "137de",
    "name": "Briscol",
    "updated_at": "2014-09-22T21:13:45.040326Z",
    "country": "be",
    "parent": null,
    "longitude": 5.58333015441895,
    "latitude": 50.2999992370605,
    "regions": [
      "1016"
    ]
  },
  {
    "code": "137dd",
    "name": "Brisy",
    "updated_at": "2014-09-22T21:13:45.014102Z",
    "country": "be",
    "parent": null,
    "longitude": 5.84999990463257,
    "latitude": 50.1666984558105,
    "regions": [
      "1016"
    ]
  },
  {
    "code": "137dc",
    "name": "Brugelette",
    "updated_at": "2014-09-22T21:13:44.987416Z",
    "country": "be",
    "parent": null,
    "longitude": 3.84999990463257,
    "latitude": 50.5999984741211,
    "regions": []
  },
  {
    "code": "137db",
    "name": "Bruges",
    "updated_at": "2014-09-22T21:13:44.955123Z",
    "country": "be",
    "parent": null,
    "longitude": 3.22551989555359,
    "latitude": 51.2085990905762,
    "regions": [
      "1019"
    ]
  },
  {
    "code": "137da",
    "name": "Brustem",
    "updated_at": "2014-09-22T21:13:44.921255Z",
    "country": "be",
    "parent": null,
    "longitude": 5.19999980926514,
    "latitude": 50.7999992370605,
    "regions": [
      "1015"
    ]
  },
  {
    "code": "137d9",
    "name": "Brussels",
    "updated_at": "2016-02-09T09:32:31.658249Z",
    "country": "be",
    "parent": null,
    "longitude": 4.35247170920775,
    "latitude": 50.8467065511672,
    "regions": [
      "1010"
    ]
  },
  {
    "code": "137d8",
    "name": "Buggenhout",
    "updated_at": "2014-09-22T21:13:44.876092Z",
    "country": "be",
    "parent": null,
    "longitude": 4.19999980926514,
    "latitude": 51.0167007446289,
    "regions": [
      "1011"
    ]
  },
  {
    "code": "137d7",
    "name": "Bullange",
    "updated_at": "2014-09-22T21:13:44.860574Z",
    "country": "be",
    "parent": null,
    "longitude": 6.26667022705078,
    "latitude": 50.4166984558105,
    "regions": [
      "1014"
    ]
  },
  {
    "code": "137d6",
    "name": "Bure",
    "updated_at": "2014-09-22T21:13:44.845093Z",
    "country": "be",
    "parent": null,
    "longitude": 5.26667022705078,
    "latitude": 50.0833015441895,
    "regions": [
      "1016"
    ]
  },
  {
    "code": "137d5",
    "name": "Burnenville",
    "updated_at": "2014-09-22T21:13:44.829213Z",
    "country": "be",
    "parent": null,
    "longitude": 5.98332977294922,
    "latitude": 50.4333000183105,
    "regions": [
      "1014"
    ]
  },
  {
    "code": "137d4",
    "name": "Butgenbach",
    "updated_at": "2014-09-22T21:13:44.813190Z",
    "country": "be",
    "parent": null,
    "longitude": 6.19999980926514,
    "latitude": 50.4333000183105,
    "regions": [
      "1014"
    ]
  },
  {
    "code": "137d3",
    "name": "Carré",
    "updated_at": "2014-09-22T21:13:44.792754Z",
    "country": "be",
    "parent": null,
    "longitude": 4.46667003631592,
    "latitude": 50.11669921875,
    "regions": [
      "1017"
    ]
  },
  {
    "code": "137d2",
    "name": "Casteau",
    "updated_at": "2014-09-22T21:13:44.766825Z",
    "country": "be",
    "parent": null,
    "longitude": 4.0,
    "latitude": 50.5167007446289,
    "regions": [
      "1013"
    ]
  },
  {
    "code": "137d1",
    "name": "Castillon",
    "updated_at": "2014-09-22T21:13:44.740343Z",
    "country": "be",
    "parent": null,
    "longitude": 4.34999990463257,
    "latitude": 50.25,
    "regions": [
      "1017"
    ]
  },
  {
    "code": "137d0",
    "name": "Celles",
    "updated_at": "2014-09-22T21:13:44.706678Z",
    "country": "be",
    "parent": null,
    "longitude": 5.01667022705078,
    "latitude": 50.2332992553711,
    "regions": [
      "1017"
    ]
  },
  {
    "code": "137cf",
    "name": "Cerfontaine",
    "updated_at": "2014-09-22T21:13:44.673009Z",
    "country": "be",
    "parent": null,
    "longitude": 4.41666984558105,
    "latitude": 50.1666984558105,
    "regions": [
      "1017"
    ]
  },
  {
    "code": "137ce",
    "name": "Céroux-Mousty",
    "updated_at": "2014-09-22T21:13:44.639297Z",
    "country": "be",
    "parent": null,
    "longitude": 4.51667022705078,
    "latitude": 50.6666984558105,
    "regions": [
      "1018"
    ]
  },
  {
    "code": "137cd",
    "name": "Cetturu",
    "updated_at": "2014-09-22T21:13:44.623388Z",
    "country": "be",
    "parent": null,
    "longitude": 5.84999990463257,
    "latitude": 50.13330078125,
    "regions": [
      "1016"
    ]
  },
  {
    "code": "137cc",
    "name": "Chabreliez",
    "updated_at": "2014-09-22T21:13:44.606418Z",
    "country": "be",
    "parent": null,
    "longitude": 5.71667003631592,
    "latitude": 50.2332992553711,
    "regions": [
      "1016"
    ]
  },
  {
    "code": "137cb",
    "name": "Charleroi",
    "updated_at": "2014-09-22T21:13:44.589194Z",
    "country": "be",
    "parent": null,
    "longitude": 4.43333005905151,
    "latitude": 50.4166984558105,
    "regions": [
      "1013"
    ]
  },
  {
    "code": "137ca",
    "name": "Chassepierre",
    "updated_at": "2014-09-22T21:13:44.569576Z",
    "country": "be",
    "parent": null,
    "longitude": 5.26667022705078,
    "latitude": 49.7000007629395,
    "regions": [
      "1016"
    ]
  },
  {
    "code": "137c9",
    "name": "Chaudfontaine",
    "updated_at": "2014-09-22T21:13:44.552207Z",
    "country": "be",
    "parent": null,
    "longitude": 5.63332986831665,
    "latitude": 50.5833015441895,
    "regions": [
      "1014"
    ]
  },
  {
    "code": "137c8",
    "name": "Chaumont-Gistoux",
    "updated_at": "2014-09-22T21:13:44.528055Z",
    "country": "be",
    "parent": null,
    "longitude": 4.73332977294922,
    "latitude": 50.6833000183105,
    "regions": [
      "1018"
    ]
  },
  {
    "code": "137c7",
    "name": "Chênet",
    "updated_at": "2014-09-22T21:13:44.501879Z",
    "country": "be",
    "parent": null,
    "longitude": 5.51667022705078,
    "latitude": 49.9500007629395,
    "regions": [
      "1016"
    ]
  },
  {
    "code": "137c6",
    "name": "Chéoux",
    "updated_at": "2014-09-22T21:13:44.479059Z",
    "country": "be",
    "parent": null,
    "longitude": 5.46667003631592,
    "latitude": 50.2167015075684,
    "regions": [
      "1016"
    ]
  },
  {
    "code": "137c5",
    "name": "Cherain",
    "updated_at": "2014-09-22T21:13:44.441833Z",
    "country": "be",
    "parent": null,
    "longitude": 5.86667013168335,
    "latitude": 50.1833000183105,
    "regions": [
      "1016"
    ]
  },
  {
    "code": "137c4",
    "name": "Chevetogne",
    "updated_at": "2014-09-22T21:13:44.406569Z",
    "country": "be",
    "parent": null,
    "longitude": 5.11667013168335,
    "latitude": 50.2167015075684,
    "regions": [
      "1017"
    ]
  },
  {
    "code": "137c3",
    "name": "Chevron",
    "updated_at": "2014-09-22T21:13:44.378486Z",
    "country": "be",
    "parent": null,
    "longitude": 5.73332977294922,
    "latitude": 50.38330078125,
    "regions": [
      "1014"
    ]
  },
  {
    "code": "137c2",
    "name": "Chimay",
    "updated_at": "2014-09-22T21:13:44.362943Z",
    "country": "be",
    "parent": null,
    "longitude": 4.31666994094849,
    "latitude": 50.0499992370605,
    "regions": [
      "1013"
    ]
  },
  {
    "code": "137c1",
    "name": "Chiny",
    "updated_at": "2014-09-22T21:13:44.346904Z",
    "country": "be",
    "parent": null,
    "longitude": 5.33333015441895,
    "latitude": 49.7332992553711,
    "regions": [
      "1016"
    ]
  },
  {
    "code": "137c0",
    "name": "Cierreux",
    "updated_at": "2014-09-22T21:13:44.330920Z",
    "country": "be",
    "parent": null,
    "longitude": 5.92971992492676,
    "latitude": 50.2442016601562,
    "regions": [
      "1016"
    ]
  },
  {
    "code": "137bf",
    "name": "Ciney",
    "updated_at": "2014-09-22T21:13:44.314227Z",
    "country": "be",
    "parent": null,
    "longitude": 5.09999990463257,
    "latitude": 50.2999992370605,
    "regions": [
      "1017"
    ]
  },
  {
    "code": "137be",
    "name": "Clavier",
    "updated_at": "2014-09-22T21:13:44.295245Z",
    "country": "be",
    "parent": null,
    "longitude": 5.36667013168335,
    "latitude": 50.4166984558105,
    "regions": [
      "1014"
    ]
  },
  {
    "code": "137bd",
    "name": "Comblain-au-Pont",
    "updated_at": "2014-09-22T21:13:44.269351Z",
    "country": "be",
    "parent": null,
    "longitude": 5.58333015441895,
    "latitude": 50.4667015075684,
    "regions": [
      "1014"
    ]
  },
  {
    "code": "137bc",
    "name": "Corbais",
    "updated_at": "2014-09-22T21:13:44.212964Z",
    "country": "be",
    "parent": null,
    "longitude": 4.65000009536743,
    "latitude": 50.6500015258789,
    "regions": [
      "1018"
    ]
  },
  {
    "code": "137bb",
    "name": "Corbion",
    "updated_at": "2014-09-22T21:13:44.179764Z",
    "country": "be",
    "parent": null,
    "longitude": 5.0,
    "latitude": 49.7999992370605,
    "regions": [
      "1016"
    ]
  },
  {
    "code": "137ba",
    "name": "Courtil",
    "updated_at": "2014-09-22T21:13:44.145220Z",
    "country": "be",
    "parent": null,
    "longitude": 5.91249990463257,
    "latitude": 50.2139015197754,
    "regions": [
      "1016"
    ]
  },
  {
    "code": "137b9",
    "name": "Couthuin",
    "updated_at": "2014-09-22T21:13:44.124007Z",
    "country": "be",
    "parent": null,
    "longitude": 5.13332986831665,
    "latitude": 50.5332984924316,
    "regions": [
      "1014"
    ]
  },
  {
    "code": "137b8",
    "name": "Couvin",
    "updated_at": "2014-09-22T21:13:44.107148Z",
    "country": "be",
    "parent": null,
    "longitude": 4.48332977294922,
    "latitude": 50.0499992370605,
    "regions": [
      "1017"
    ]
  },
  {
    "code": "137b7",
    "name": "Damme",
    "updated_at": "2014-09-22T21:13:44.073046Z",
    "country": "be",
    "parent": null,
    "longitude": 3.28332996368408,
    "latitude": 51.25,
    "regions": [
      "1019"
    ]
  },
  {
    "code": "137b6",
    "name": "Daverdisse",
    "updated_at": "2014-09-22T21:13:44.057160Z",
    "country": "be",
    "parent": null,
    "longitude": 5.11667013168335,
    "latitude": 50.0167007446289,
    "regions": [
      "1016"
    ]
  },
  {
    "code": "137b5",
    "name": "Deerlijk",
    "updated_at": "2014-09-22T21:13:44.039429Z",
    "country": "be",
    "parent": null,
    "longitude": 3.34999990463257,
    "latitude": 50.8499984741211,
    "regions": [
      "1019"
    ]
  },
  {
    "code": "137b4",
    "name": "De Haan",
    "updated_at": "2014-09-22T21:13:44.012986Z",
    "country": "be",
    "parent": null,
    "longitude": 3.03003787994385,
    "latitude": 51.2761459350586,
    "regions": [
      "1019"
    ]
  },
  {
    "code": "137b3",
    "name": "Deyfeldt",
    "updated_at": "2014-09-22T21:13:43.978901Z",
    "country": "be",
    "parent": null,
    "longitude": 6.00943994522095,
    "latitude": 50.1963996887207,
    "regions": []
  },
  {
    "code": "137b2",
    "name": "Deinze",
    "updated_at": "2014-09-22T21:13:43.944082Z",
    "country": "be",
    "parent": null,
    "longitude": 3.53332996368408,
    "latitude": 50.9832992553711,
    "regions": [
      "1011"
    ]
  },
  {
    "code": "137b1",
    "name": "Dendermonde",
    "updated_at": "2014-09-22T21:13:43.919055Z",
    "country": "be",
    "parent": null,
    "longitude": 4.11667013168335,
    "latitude": 51.0332984924316,
    "regions": [
      "1011"
    ]
  },
  {
    "code": "137b0",
    "name": "Denderwindeke",
    "updated_at": "2014-09-22T21:13:43.902298Z",
    "country": "be",
    "parent": null,
    "longitude": 4.01667022705078,
    "latitude": 50.7999992370605,
    "regions": [
      "1011"
    ]
  },
  {
    "code": "137af",
    "name": "De Panne",
    "updated_at": "2014-09-22T21:13:43.886962Z",
    "country": "be",
    "parent": null,
    "longitude": 2.58332991600037,
    "latitude": 51.0999984741211,
    "regions": [
      "1019"
    ]
  },
  {
    "code": "137ae",
    "name": "De Pinte",
    "updated_at": "2014-09-22T21:13:43.870936Z",
    "country": "be",
    "parent": null,
    "longitude": 3.65000009536743,
    "latitude": 51.0,
    "regions": [
      "1011"
    ]
  },
  {
    "code": "137ad",
    "name": "Plank",
    "updated_at": "2014-09-22T21:13:43.854139Z",
    "country": "be",
    "parent": null,
    "longitude": 5.84999990463257,
    "latitude": 50.75,
    "regions": []
  },
  {
    "code": "137ac",
    "name": "Desnié",
    "updated_at": "2014-09-22T21:13:43.837997Z",
    "country": "be",
    "parent": null,
    "longitude": 5.80000019073486,
    "latitude": 50.4667015075684,
    "regions": [
      "1014"
    ]
  },
  {
    "code": "137ab",
    "name": "Destelbergen",
    "updated_at": "2014-09-22T21:13:43.811966Z",
    "country": "be",
    "parent": null,
    "longitude": 3.79999995231628,
    "latitude": 51.0499992370605,
    "regions": [
      "1011"
    ]
  },
  {
    "code": "137aa",
    "name": "Deurle",
    "updated_at": "2014-09-22T21:13:43.785755Z",
    "country": "be",
    "parent": null,
    "longitude": 3.59999990463257,
    "latitude": 51.0,
    "regions": [
      "1011"
    ]
  },
  {
    "code": "137a9",
    "name": "Diegem",
    "updated_at": "2014-09-22T21:13:43.755804Z",
    "country": "be",
    "parent": null,
    "longitude": 4.43333005905151,
    "latitude": 50.9000015258789,
    "regions": [
      "1012"
    ]
  },
  {
    "code": "137a8",
    "name": "Diest",
    "updated_at": "2014-09-22T21:13:43.719322Z",
    "country": "be",
    "parent": null,
    "longitude": 5.05000019073486,
    "latitude": 50.9832992553711,
    "regions": [
      "1012"
    ]
  },
  {
    "code": "137a7",
    "name": "Dikkelvenne",
    "updated_at": "2014-09-22T21:13:43.684382Z",
    "country": "be",
    "parent": null,
    "longitude": 3.68333005905151,
    "latitude": 50.9166984558105,
    "regions": [
      "1011"
    ]
  },
  {
    "code": "137a6",
    "name": "Diksmuide",
    "updated_at": "2014-09-22T21:13:43.663062Z",
    "country": "be",
    "parent": null,
    "longitude": 2.86666989326477,
    "latitude": 51.0332984924316,
    "regions": [
      "1019"
    ]
  },
  {
    "code": "137a5",
    "name": "Dilbeek",
    "updated_at": "2014-09-22T21:13:43.645029Z",
    "country": "be",
    "parent": null,
    "longitude": 4.26667022705078,
    "latitude": 50.8499984741211,
    "regions": [
      "1012"
    ]
  },
  {
    "code": "137a4",
    "name": "Dilsen-Stokkem",
    "updated_at": "2014-09-22T21:13:43.628025Z",
    "country": "be",
    "parent": null,
    "longitude": 5.72062015533447,
    "latitude": 51.0373001098633,
    "regions": [
      "1015"
    ]
  },
  {
    "code": "137a3",
    "name": "Dinant",
    "updated_at": "2014-09-22T21:13:43.610805Z",
    "country": "be",
    "parent": null,
    "longitude": 4.9244499206543,
    "latitude": 50.2554016113281,
    "regions": [
      "1017"
    ]
  },
  {
    "code": "137a2",
    "name": "Dochamps",
    "updated_at": "2014-09-22T21:13:43.593459Z",
    "country": "be",
    "parent": null,
    "longitude": 5.53332996368408,
    "latitude": 50.2332992553711,
    "regions": [
      "1016"
    ]
  },
  {
    "code": "137a1",
    "name": "Doische",
    "updated_at": "2014-09-22T21:13:43.547131Z",
    "country": "be",
    "parent": null,
    "longitude": 4.75,
    "latitude": 50.13330078125,
    "regions": [
      "1017"
    ]
  },
  {
    "code": "137a0",
    "name": "Dorinne",
    "updated_at": "2014-09-22T21:13:43.520935Z",
    "country": "be",
    "parent": null,
    "longitude": 4.96667003631592,
    "latitude": 50.3166999816895,
    "regions": [
      "1017"
    ]
  },
  {
    "code": "1379f",
    "name": "Dorne",
    "updated_at": "2014-09-22T21:13:43.488685Z",
    "country": "be",
    "parent": null,
    "longitude": 5.61667013168335,
    "latitude": 51.0499992370605,
    "regions": [
      "1015"
    ]
  },
  {
    "code": "1379e",
    "name": "Dranouter",
    "updated_at": "2014-09-22T21:13:43.454368Z",
    "country": "be",
    "parent": null,
    "longitude": 2.78332996368408,
    "latitude": 50.7667007446289,
    "regions": [
      "1019"
    ]
  },
  {
    "code": "1379d",
    "name": "Drie Grachten",
    "updated_at": "2014-09-22T21:13:43.420958Z",
    "country": "be",
    "parent": null,
    "longitude": 2.81666994094849,
    "latitude": 50.9500007629395,
    "regions": [
      "1019"
    ]
  },
  {
    "code": "1379c",
    "name": "Drogenbos",
    "updated_at": "2014-09-22T21:13:43.405447Z",
    "country": "be",
    "parent": null,
    "longitude": 4.31666994094849,
    "latitude": 50.7832984924316,
    "regions": [
      "1012"
    ]
  },
  {
    "code": "1379b",
    "name": "Drongen",
    "updated_at": "2014-09-22T21:13:43.390058Z",
    "country": "be",
    "parent": null,
    "longitude": 3.66667008399963,
    "latitude": 51.0499992370605,
    "regions": [
      "1011"
    ]
  },
  {
    "code": "1379a",
    "name": "Dudzele",
    "updated_at": "2014-09-22T21:13:43.374452Z",
    "country": "be",
    "parent": null,
    "longitude": 3.2333300113678,
    "latitude": 51.2832984924316,
    "regions": [
      "1019"
    ]
  },
  {
    "code": "13799",
    "name": "Durbuy",
    "updated_at": "2014-09-22T21:13:43.358254Z",
    "country": "be",
    "parent": null,
    "longitude": 5.46667003631592,
    "latitude": 50.3499984741211,
    "regions": [
      "1016"
    ]
  },
  {
    "code": "13798",
    "name": "Durnal",
    "updated_at": "2014-09-22T21:13:43.342250Z",
    "country": "be",
    "parent": null,
    "longitude": 4.98332977294922,
    "latitude": 50.3333015441895,
    "regions": [
      "1017"
    ]
  },
  {
    "code": "13797",
    "name": "Dworp",
    "updated_at": "2014-09-22T21:13:43.316443Z",
    "country": "be",
    "parent": null,
    "longitude": 4.30000019073486,
    "latitude": 50.7332992553711,
    "regions": [
      "1012"
    ]
  },
  {
    "code": "13796",
    "name": "Eben-Emael",
    "updated_at": "2014-09-22T21:13:43.290409Z",
    "country": "be",
    "parent": null,
    "longitude": 5.66906976699829,
    "latitude": 50.7977981567383,
    "regions": [
      "1014"
    ]
  },
  {
    "code": "13795",
    "name": "Ebly",
    "updated_at": "2014-09-22T21:13:43.262314Z",
    "country": "be",
    "parent": null,
    "longitude": 5.53332996368408,
    "latitude": 49.8499984741211,
    "regions": [
      "1016"
    ]
  },
  {
    "code": "13794",
    "name": "Écaussinnes-dʼEnghien",
    "updated_at": "2014-09-22T21:13:43.227903Z",
    "country": "be",
    "parent": null,
    "longitude": 4.16666984558105,
    "latitude": 50.5666999816895,
    "regions": [
      "1013"
    ]
  },
  {
    "code": "13793",
    "name": "Edegem",
    "updated_at": "2014-09-22T21:13:43.193485Z",
    "country": "be",
    "parent": null,
    "longitude": 4.44999980926514,
    "latitude": 51.1500015258789,
    "regions": [
      "1193"
    ]
  },
  {
    "code": "13792",
    "name": "Eeklo",
    "updated_at": "2014-09-22T21:13:43.168856Z",
    "country": "be",
    "parent": null,
    "longitude": 3.56666994094849,
    "latitude": 51.1833000183105,
    "regions": [
      "1011"
    ]
  },
  {
    "code": "13791",
    "name": "Eikhoek",
    "updated_at": "2014-09-22T21:13:43.151660Z",
    "country": "be",
    "parent": null,
    "longitude": 2.65000009536743,
    "latitude": 50.9500007629395,
    "regions": [
      "1019"
    ]
  },
  {
    "code": "13790",
    "name": "Elewijt",
    "updated_at": "2014-09-22T21:13:43.134848Z",
    "country": "be",
    "parent": null,
    "longitude": 4.5,
    "latitude": 50.9667015075684,
    "regions": [
      "1012"
    ]
  },
  {
    "code": "1378f",
    "name": "Elingen",
    "updated_at": "2014-09-22T21:13:43.117604Z",
    "country": "be",
    "parent": null,
    "longitude": 4.16666984558105,
    "latitude": 50.7832984924316,
    "regions": [
      "1012"
    ]
  },
  {
    "code": "1378e",
    "name": "Ellezelles",
    "updated_at": "2014-09-22T21:13:43.100375Z",
    "country": "be",
    "parent": null,
    "longitude": 3.68333005905151,
    "latitude": 50.7332992553711,
    "regions": [
      "1013"
    ]
  },
  {
    "code": "1378d",
    "name": "Ellikom",
    "updated_at": "2014-09-22T21:13:43.080989Z",
    "country": "be",
    "parent": null,
    "longitude": 5.53332996368408,
    "latitude": 51.13330078125,
    "regions": [
      "1015"
    ]
  },
  {
    "code": "1378c",
    "name": "Elsegem",
    "updated_at": "2014-09-22T21:13:43.054987Z",
    "country": "be",
    "parent": null,
    "longitude": 3.53332996368408,
    "latitude": 50.8166999816895,
    "regions": [
      "1011"
    ]
  },
  {
    "code": "1378b",
    "name": "Enghien",
    "updated_at": "2014-09-22T21:13:43.031771Z",
    "country": "be",
    "parent": null,
    "longitude": 4.03733015060425,
    "latitude": 50.6931991577148,
    "regions": [
      "1012",
      "1013"
    ]
  },
  {
    "code": "1378a",
    "name": "Ennal",
    "updated_at": "2014-09-22T21:13:43.007340Z",
    "country": "be",
    "parent": null,
    "longitude": 5.92639017105103,
    "latitude": 50.3280982971191,
    "regions": []
  },
  {
    "code": "13789",
    "name": "Ensival",
    "updated_at": "2014-09-22T21:13:42.981295Z",
    "country": "be",
    "parent": null,
    "longitude": 5.84999990463257,
    "latitude": 50.5833015441895,
    "regions": [
      "1014"
    ]
  },
  {
    "code": "13788",
    "name": "Érezée",
    "updated_at": "2014-09-22T21:13:42.951331Z",
    "country": "be",
    "parent": null,
    "longitude": 5.55000019073486,
    "latitude": 50.2999992370605,
    "regions": [
      "1016"
    ]
  },
  {
    "code": "13787",
    "name": "Ermeton-sur-Biert",
    "updated_at": "2014-09-22T21:13:42.922441Z",
    "country": "be",
    "parent": null,
    "longitude": 4.71667003631592,
    "latitude": 50.2999992370605,
    "regions": [
      "1017"
    ]
  },
  {
    "code": "13786",
    "name": "Erondegem",
    "updated_at": "2014-09-22T21:13:42.906361Z",
    "country": "be",
    "parent": null,
    "longitude": 3.95000004768372,
    "latitude": 50.9333000183105,
    "regions": [
      "1011"
    ]
  },
  {
    "code": "13785",
    "name": "Erpe",
    "updated_at": "2014-09-22T21:13:42.891888Z",
    "country": "be",
    "parent": null,
    "longitude": 3.9833300113678,
    "latitude": 50.9333000183105,
    "regions": [
      "1011"
    ]
  },
  {
    "code": "13784",
    "name": "Erpion",
    "updated_at": "2014-09-22T21:13:42.877573Z",
    "country": "be",
    "parent": null,
    "longitude": 4.34999990463257,
    "latitude": 50.2167015075684,
    "regions": [
      "1013"
    ]
  },
  {
    "code": "13783",
    "name": "Erps-Kwerps",
    "updated_at": "2014-09-22T21:13:42.861899Z",
    "country": "be",
    "parent": null,
    "longitude": 4.55159997940063,
    "latitude": 50.9011001586914,
    "regions": [
      "1012"
    ]
  },
  {
    "code": "13782",
    "name": "Ertvelde",
    "updated_at": "2014-09-22T21:13:42.847490Z",
    "country": "be",
    "parent": null,
    "longitude": 3.75,
    "latitude": 51.1833000183105,
    "regions": [
      "1011"
    ]
  },
  {
    "code": "13781",
    "name": "Essen",
    "updated_at": "2014-09-22T21:13:42.816170Z",
    "country": "be",
    "parent": null,
    "longitude": 4.45417976379395,
    "latitude": 51.4612998962402,
    "regions": [
      "1193"
    ]
  },
  {
    "code": "13780",
    "name": "Eupen",
    "updated_at": "2014-09-22T21:13:42.793396Z",
    "country": "be",
    "parent": null,
    "longitude": 6.03332996368408,
    "latitude": 50.63330078125,
    "regions": [
      "1014"
    ]
  },
  {
    "code": "1377f",
    "name": "Evergem",
    "updated_at": "2014-09-22T21:13:42.743335Z",
    "country": "be",
    "parent": null,
    "longitude": 3.70000004768372,
    "latitude": 51.11669921875,
    "regions": [
      "1011"
    ]
  },
  {
    "code": "1377e",
    "name": "Exbomont",
    "updated_at": "2014-09-22T21:13:42.714053Z",
    "country": "be",
    "parent": null,
    "longitude": 5.88332986831665,
    "latitude": 50.4333000183105,
    "regions": [
      "1014"
    ]
  },
  {
    "code": "1377d",
    "name": "Eynatten",
    "updated_at": "2014-09-22T21:13:42.687104Z",
    "country": "be",
    "parent": null,
    "longitude": 6.08333015441895,
    "latitude": 50.7000007629395,
    "regions": [
      "1014"
    ]
  },
  {
    "code": "1377c",
    "name": "Failon",
    "updated_at": "2014-09-22T21:13:42.660395Z",
    "country": "be",
    "parent": null,
    "longitude": 5.30000019073486,
    "latitude": 50.3333015441895,
    "regions": [
      "1017"
    ]
  },
  {
    "code": "1377b",
    "name": "Falaën",
    "updated_at": "2014-09-22T21:13:42.641588Z",
    "country": "be",
    "parent": null,
    "longitude": 4.80000019073486,
    "latitude": 50.2832984924316,
    "regions": [
      "1017"
    ]
  },
  {
    "code": "1377a",
    "name": "Falmignoul",
    "updated_at": "2014-09-22T21:13:42.627154Z",
    "country": "be",
    "parent": null,
    "longitude": 4.90000009536743,
    "latitude": 50.2000007629395,
    "regions": [
      "1017"
    ]
  },
  {
    "code": "13779",
    "name": "Faubourg Saint-Germain",
    "updated_at": "2014-09-22T21:13:42.612002Z",
    "country": "be",
    "parent": null,
    "longitude": 4.5,
    "latitude": 50.0499992370605,
    "regions": [
      "1017"
    ]
  },
  {
    "code": "13778",
    "name": "Fauroeulx",
    "updated_at": "2014-09-22T21:13:42.597471Z",
    "country": "be",
    "parent": null,
    "longitude": 4.09999990463257,
    "latitude": 50.36669921875,
    "regions": []
  },
  {
    "code": "13777",
    "name": "Fauvillers",
    "updated_at": "2014-09-22T21:13:42.583001Z",
    "country": "be",
    "parent": null,
    "longitude": 5.66666984558105,
    "latitude": 49.8499984741211,
    "regions": [
      "1016"
    ]
  },
  {
    "code": "13776",
    "name": "Fays-les-Veneurs",
    "updated_at": "2014-09-22T21:13:42.549879Z",
    "country": "be",
    "parent": null,
    "longitude": 5.16666984558105,
    "latitude": 49.86669921875,
    "regions": [
      "1016"
    ]
  },
  {
    "code": "13775",
    "name": "Fayt-lez-Manage",
    "updated_at": "2014-09-22T21:13:42.529735Z",
    "country": "be",
    "parent": null,
    "longitude": 4.21667003631592,
    "latitude": 50.4832992553711,
    "regions": [
      "1013"
    ]
  },
  {
    "code": "13774",
    "name": "Felenne",
    "updated_at": "2014-09-22T21:13:42.505109Z",
    "country": "be",
    "parent": null,
    "longitude": 4.84999990463257,
    "latitude": 50.0666999816895,
    "regions": [
      "1017"
    ]
  },
  {
    "code": "13773",
    "name": "Feluy",
    "updated_at": "2014-09-22T21:13:42.485314Z",
    "country": "be",
    "parent": null,
    "longitude": 4.25,
    "latitude": 50.5666999816895,
    "regions": [
      "1013"
    ]
  },
  {
    "code": "13772",
    "name": "Ferrières",
    "updated_at": "2014-09-22T21:13:42.458405Z",
    "country": "be",
    "parent": null,
    "longitude": 5.59999990463257,
    "latitude": 50.4000015258789,
    "regions": [
      "1014"
    ]
  },
  {
    "code": "13771",
    "name": "Fisenne",
    "updated_at": "2014-09-22T21:13:42.392723Z",
    "country": "be",
    "parent": null,
    "longitude": 5.53332996368408,
    "latitude": 50.2832984924316,
    "regions": [
      "1016"
    ]
  },
  {
    "code": "13770",
    "name": "Flamierge",
    "updated_at": "2014-09-22T21:13:42.378311Z",
    "country": "be",
    "parent": null,
    "longitude": 5.59999990463257,
    "latitude": 50.0332984924316,
    "regions": [
      "1016"
    ]
  },
  {
    "code": "1376f",
    "name": "Fleurus",
    "updated_at": "2014-09-22T21:13:42.363245Z",
    "country": "be",
    "parent": null,
    "longitude": 4.53332996368408,
    "latitude": 50.4832992553711,
    "regions": [
      "1013"
    ]
  },
  {
    "code": "1376e",
    "name": "Flobecq",
    "updated_at": "2014-09-22T21:13:42.348071Z",
    "country": "be",
    "parent": null,
    "longitude": 3.7333300113678,
    "latitude": 50.7332992553711,
    "regions": [
      "1013"
    ]
  },
  {
    "code": "1376d",
    "name": "Floreffe",
    "updated_at": "2014-09-22T21:13:42.333323Z",
    "country": "be",
    "parent": null,
    "longitude": 4.78332996368408,
    "latitude": 50.4333000183105,
    "regions": [
      "1017"
    ]
  },
  {
    "code": "1376c",
    "name": "Florennes",
    "updated_at": "2014-09-22T21:13:42.318325Z",
    "country": "be",
    "parent": null,
    "longitude": 4.61667013168335,
    "latitude": 50.25,
    "regions": [
      "1017"
    ]
  },
  {
    "code": "1376b",
    "name": "Florenville",
    "updated_at": "2014-09-22T21:13:42.303758Z",
    "country": "be",
    "parent": null,
    "longitude": 5.30000019073486,
    "latitude": 49.7000007629395,
    "regions": [
      "1016"
    ]
  },
  {
    "code": "1376a",
    "name": "Forville",
    "updated_at": "2014-09-22T21:13:42.283681Z",
    "country": "be",
    "parent": null,
    "longitude": 4.98332977294922,
    "latitude": 50.5666999816895,
    "regions": [
      "1017"
    ]
  },
  {
    "code": "13769",
    "name": "Fosses-La-Ville",
    "updated_at": "2014-09-22T21:13:42.265044Z",
    "country": "be",
    "parent": null,
    "longitude": 4.69999980926514,
    "latitude": 50.4000015258789,
    "regions": [
      "1017"
    ]
  },
  {
    "code": "13768",
    "name": "Voeren",
    "updated_at": "2014-09-22T21:13:42.244910Z",
    "country": "be",
    "parent": null,
    "longitude": 5.76095581054688,
    "latitude": 50.7583961486816,
    "regions": [
      "1015"
    ]
  },
  {
    "code": "13767",
    "name": "Foy-Notre-Dame",
    "updated_at": "2014-09-22T21:13:42.222136Z",
    "country": "be",
    "parent": null,
    "longitude": 5.0,
    "latitude": 50.25,
    "regions": [
      "1017"
    ]
  },
  {
    "code": "13766",
    "name": "Frahan",
    "updated_at": "2014-09-22T21:13:42.195848Z",
    "country": "be",
    "parent": null,
    "longitude": 5.0,
    "latitude": 49.8333015441895,
    "regions": [
      "1016"
    ]
  },
  {
    "code": "13765",
    "name": "Fraipont",
    "updated_at": "2014-09-22T21:13:42.166058Z",
    "country": "be",
    "parent": null,
    "longitude": 5.71667003631592,
    "latitude": 50.5666999816895,
    "regions": [
      "1014"
    ]
  },
  {
    "code": "13764",
    "name": "Fraiture",
    "updated_at": "2014-09-22T21:13:42.137638Z",
    "country": "be",
    "parent": null,
    "longitude": 5.75,
    "latitude": 50.25,
    "regions": [
      "1016"
    ]
  },
  {
    "code": "13763",
    "name": "Franchimont",
    "updated_at": "2014-09-22T21:13:42.102194Z",
    "country": "be",
    "parent": null,
    "longitude": 4.63332986831665,
    "latitude": 50.2000007629395,
    "regions": [
      "1017"
    ]
  },
  {
    "code": "13762",
    "name": "Francorchamps",
    "updated_at": "2014-09-22T21:13:42.087508Z",
    "country": "be",
    "parent": null,
    "longitude": 5.94999980926514,
    "latitude": 50.4500007629395,
    "regions": [
      "1014"
    ]
  },
  {
    "code": "13761",
    "name": "Freineux",
    "updated_at": "2014-09-22T21:13:42.056384Z",
    "country": "be",
    "parent": null,
    "longitude": 5.65000009536743,
    "latitude": 50.25,
    "regions": [
      "1016"
    ]
  },
  {
    "code": "13760",
    "name": "Fronville",
    "updated_at": "2014-09-22T21:13:42.041005Z",
    "country": "be",
    "parent": null,
    "longitude": 5.41666984558105,
    "latitude": 50.2999992370605,
    "regions": [
      "1016"
    ]
  },
  {
    "code": "1375f",
    "name": "Gavere",
    "updated_at": "2014-09-22T21:13:42.025655Z",
    "country": "be",
    "parent": null,
    "longitude": 3.66667008399963,
    "latitude": 50.9333000183105,
    "regions": [
      "1011"
    ]
  },
  {
    "code": "1375e",
    "name": "Gedinne",
    "updated_at": "2014-09-22T21:13:42.005267Z",
    "country": "be",
    "parent": null,
    "longitude": 4.93333005905151,
    "latitude": 49.9832992553711,
    "regions": [
      "1017"
    ]
  },
  {
    "code": "1375d",
    "name": "Geel",
    "updated_at": "2014-09-22T21:13:41.980760Z",
    "country": "be",
    "parent": null,
    "longitude": 5.0,
    "latitude": 51.1666984558105,
    "regions": [
      "1193"
    ]
  },
  {
    "code": "1375c",
    "name": "Geetbets",
    "updated_at": "2014-09-22T21:13:41.962291Z",
    "country": "be",
    "parent": null,
    "longitude": 5.11667013168335,
    "latitude": 50.88330078125,
    "regions": [
      "1012"
    ]
  },
  {
    "code": "1375b",
    "name": "Gembes",
    "updated_at": "2014-09-22T21:13:41.935789Z",
    "country": "be",
    "parent": null,
    "longitude": 5.06666994094849,
    "latitude": 50.0,
    "regions": [
      "1016"
    ]
  },
  {
    "code": "1375a",
    "name": "Gembloux",
    "updated_at": "2014-09-22T21:13:41.898649Z",
    "country": "be",
    "parent": null,
    "longitude": 4.68333005905151,
    "latitude": 50.5666999816895,
    "regions": [
      "1017"
    ]
  },
  {
    "code": "13759",
    "name": "Genk",
    "updated_at": "2014-09-22T21:13:41.872057Z",
    "country": "be",
    "parent": null,
    "longitude": 5.5,
    "latitude": 50.9667015075684,
    "regions": [
      "1015"
    ]
  },
  {
    "code": "13758",
    "name": "Ghent",
    "updated_at": "2014-09-22T21:13:41.853679Z",
    "country": "be",
    "parent": null,
    "longitude": 3.72504997253418,
    "latitude": 51.0527992248535,
    "regions": [
      "1011"
    ]
  },
  {
    "code": "13757",
    "name": "Genval",
    "updated_at": "2014-09-22T21:13:41.837399Z",
    "country": "be",
    "parent": null,
    "longitude": 4.48332977294922,
    "latitude": 50.7167015075684,
    "regions": [
      "1018"
    ]
  },
  {
    "code": "13756",
    "name": "Geraardsbergen",
    "updated_at": "2014-09-22T21:13:41.820917Z",
    "country": "be",
    "parent": null,
    "longitude": 3.86666989326477,
    "latitude": 50.7667007446289,
    "regions": [
      "1011"
    ]
  },
  {
    "code": "13755",
    "name": "Gérimont",
    "updated_at": "2014-09-22T21:13:41.805336Z",
    "country": "be",
    "parent": null,
    "longitude": 5.53332996368408,
    "latitude": 50.0,
    "regions": [
      "1016"
    ]
  },
  {
    "code": "13754",
    "name": "Gerin",
    "updated_at": "2014-09-22T21:13:41.787991Z",
    "country": "be",
    "parent": null,
    "longitude": 4.81666994094849,
    "latitude": 50.25,
    "regions": [
      "1017"
    ]
  },
  {
    "code": "13753",
    "name": "Ghislenghien",
    "updated_at": "2014-09-22T21:13:41.720020Z",
    "country": "be",
    "parent": null,
    "longitude": 3.86666989326477,
    "latitude": 50.6500015258789,
    "regions": [
      "1013"
    ]
  },
  {
    "code": "13752",
    "name": "Gierle",
    "updated_at": "2014-09-22T21:13:41.699368Z",
    "country": "be",
    "parent": null,
    "longitude": 4.84999990463257,
    "latitude": 51.2667007446289,
    "regions": [
      "1193"
    ]
  },
  {
    "code": "13751",
    "name": "Gimnée",
    "updated_at": "2014-09-22T21:13:41.676923Z",
    "country": "be",
    "parent": null,
    "longitude": 4.71667003631592,
    "latitude": 50.13330078125,
    "regions": [
      "1017"
    ]
  },
  {
    "code": "13750",
    "name": "Gingelom",
    "updated_at": "2014-09-22T21:13:41.646573Z",
    "country": "be",
    "parent": null,
    "longitude": 5.11667013168335,
    "latitude": 50.75,
    "regions": [
      "1015"
    ]
  },
  {
    "code": "1374f",
    "name": "Gistel",
    "updated_at": "2014-09-22T21:13:41.622574Z",
    "country": "be",
    "parent": null,
    "longitude": 2.96665000915527,
    "latitude": 51.1561012268066,
    "regions": [
      "1019"
    ]
  },
  {
    "code": "1374e",
    "name": "Glaumont",
    "updated_at": "2014-09-22T21:13:41.594685Z",
    "country": "be",
    "parent": null,
    "longitude": 5.21667003631592,
    "latitude": 49.86669921875,
    "regions": [
      "1016"
    ]
  },
  {
    "code": "1374d",
    "name": "Godinne",
    "updated_at": "2014-09-22T21:13:41.579387Z",
    "country": "be",
    "parent": null,
    "longitude": 4.86667013168335,
    "latitude": 50.3499984741211,
    "regions": [
      "1017"
    ]
  },
  {
    "code": "1374c",
    "name": "Gooik",
    "updated_at": "2014-09-22T21:13:41.562707Z",
    "country": "be",
    "parent": null,
    "longitude": 4.11667013168335,
    "latitude": 50.7999992370605,
    "regions": [
      "1012"
    ]
  },
  {
    "code": "1374b",
    "name": "Gouvy",
    "updated_at": "2014-09-22T21:13:41.546899Z",
    "country": "be",
    "parent": null,
    "longitude": 5.94111013412476,
    "latitude": 50.185001373291,
    "regions": [
      "1016"
    ]
  },
  {
    "code": "1374a",
    "name": "Graide",
    "updated_at": "2014-09-22T21:13:41.531766Z",
    "country": "be",
    "parent": null,
    "longitude": 5.06666994094849,
    "latitude": 49.9500007629395,
    "regions": [
      "1017"
    ]
  },
  {
    "code": "13749",
    "name": "Grand Bru",
    "updated_at": "2014-09-22T21:13:41.516002Z",
    "country": "be",
    "parent": null,
    "longitude": 5.61667013168335,
    "latitude": 50.36669921875,
    "regions": [
      "1016"
    ]
  },
  {
    "code": "13748",
    "name": "Grand Coo",
    "updated_at": "2014-09-22T21:13:41.500203Z",
    "country": "be",
    "parent": null,
    "longitude": 5.86667013168335,
    "latitude": 50.4000015258789,
    "regions": [
      "1014"
    ]
  },
  {
    "code": "13747",
    "name": "Grandhan",
    "updated_at": "2014-09-22T21:13:41.484110Z",
    "country": "be",
    "parent": null,
    "longitude": 5.41666984558105,
    "latitude": 50.3333015441895,
    "regions": [
      "1016"
    ]
  },
  {
    "code": "13746",
    "name": "Grand Hez",
    "updated_at": "2014-09-22T21:13:41.463182Z",
    "country": "be",
    "parent": null,
    "longitude": 5.13332986831665,
    "latitude": 49.7167015075684,
    "regions": [
      "1016"
    ]
  },
  {
    "code": "13745",
    "name": "Graux",
    "updated_at": "2014-09-22T21:13:41.444749Z",
    "country": "be",
    "parent": null,
    "longitude": 4.71667003631592,
    "latitude": 50.3333015441895,
    "regions": [
      "1017"
    ]
  },
  {
    "code": "13744",
    "name": "Grimbergen",
    "updated_at": "2014-09-22T21:13:41.423194Z",
    "country": "be",
    "parent": null,
    "longitude": 4.38332986831665,
    "latitude": 50.9333000183105,
    "regions": [
      "1012"
    ]
  },
  {
    "code": "13743",
    "name": "Grimonster",
    "updated_at": "2014-09-22T21:13:41.399910Z",
    "country": "be",
    "parent": null,
    "longitude": 5.63332986831665,
    "latitude": 50.4166984558105,
    "regions": [
      "1014"
    ]
  },
  {
    "code": "13742",
    "name": "Grobbendonk",
    "updated_at": "2014-09-22T21:13:41.372254Z",
    "country": "be",
    "parent": null,
    "longitude": 4.71667003631592,
    "latitude": 51.2000007629395,
    "regions": [
      "1193"
    ]
  },
  {
    "code": "13741",
    "name": "Groene Delle",
    "updated_at": "2014-09-22T21:13:41.340077Z",
    "country": "be",
    "parent": null,
    "longitude": 5.23332977294922,
    "latitude": 50.9832992553711,
    "regions": []
  },
  {
    "code": "13740",
    "name": "Groot-Bijgaarden",
    "updated_at": "2014-09-22T21:13:41.311280Z",
    "country": "be",
    "parent": null,
    "longitude": 4.25,
    "latitude": 50.86669921875,
    "regions": [
      "1012"
    ]
  },
  {
    "code": "1373f",
    "name": "Gros-Fays",
    "updated_at": "2014-09-22T21:13:41.296040Z",
    "country": "be",
    "parent": null,
    "longitude": 4.98332977294922,
    "latitude": 49.86669921875,
    "regions": [
      "1017"
    ]
  },
  {
    "code": "1373e",
    "name": "Grune",
    "updated_at": "2014-09-22T21:13:41.280619Z",
    "country": "be",
    "parent": null,
    "longitude": 5.38332986831665,
    "latitude": 50.1500015258789,
    "regions": [
      "1016"
    ]
  },
  {
    "code": "1373d",
    "name": "Grupont",
    "updated_at": "2014-09-22T21:13:41.266848Z",
    "country": "be",
    "parent": null,
    "longitude": 5.28332996368408,
    "latitude": 50.0833015441895,
    "regions": [
      "1016"
    ]
  },
  {
    "code": "1373c",
    "name": "Haasrode",
    "updated_at": "2014-09-22T21:13:41.251451Z",
    "country": "be",
    "parent": null,
    "longitude": 4.73332977294922,
    "latitude": 50.8333015441895,
    "regions": [
      "1012"
    ]
  },
  {
    "code": "1373b",
    "name": "Habay-la-Neuve",
    "updated_at": "2014-09-22T21:13:41.235691Z",
    "country": "be",
    "parent": null,
    "longitude": 5.65000009536743,
    "latitude": 49.7332992553711,
    "regions": [
      "1016"
    ]
  },
  {
    "code": "1373a",
    "name": "Habiemont",
    "updated_at": "2014-09-22T21:13:41.220361Z",
    "country": "be",
    "parent": null,
    "longitude": 5.69999980926514,
    "latitude": 50.36669921875,
    "regions": [
      "1014"
    ]
  },
  {
    "code": "13739",
    "name": "Halen",
    "updated_at": "2014-09-22T21:13:41.204705Z",
    "country": "be",
    "parent": null,
    "longitude": 5.09999990463257,
    "latitude": 50.9500007629395,
    "regions": [
      "1015"
    ]
  },
  {
    "code": "13738",
    "name": "Halle",
    "updated_at": "2014-09-22T21:13:41.184628Z",
    "country": "be",
    "parent": null,
    "longitude": 4.23332977294922,
    "latitude": 50.7332992553711,
    "regions": [
      "1012"
    ]
  },
  {
    "code": "13737",
    "name": "Halle",
    "updated_at": "2014-09-22T21:13:41.167006Z",
    "country": "be",
    "parent": null,
    "longitude": 4.63332986831665,
    "latitude": 51.2332992553711,
    "regions": []
  },
  {
    "code": "13736",
    "name": "Halleux",
    "updated_at": "2014-09-22T21:13:41.143162Z",
    "country": "be",
    "parent": null,
    "longitude": 5.5,
    "latitude": 50.1666984558105,
    "regions": [
      "1016"
    ]
  },
  {
    "code": "13735",
    "name": "Halma",
    "updated_at": "2014-09-22T21:13:41.125214Z",
    "country": "be",
    "parent": null,
    "longitude": 5.13332986831665,
    "latitude": 50.0833015441895,
    "regions": [
      "1016"
    ]
  },
  {
    "code": "13734",
    "name": "Hamoir",
    "updated_at": "2014-09-22T21:13:41.070271Z",
    "country": "be",
    "parent": null,
    "longitude": 5.53332996368408,
    "latitude": 50.4333000183105,
    "regions": [
      "1014"
    ]
  },
  {
    "code": "13733",
    "name": "Hamont",
    "updated_at": "2014-09-22T21:13:41.042431Z",
    "country": "be",
    "parent": null,
    "longitude": 5.55000019073486,
    "latitude": 51.25,
    "regions": [
      "1015"
    ]
  },
  {
    "code": "13732",
    "name": "Handzame",
    "updated_at": "2014-09-22T21:13:41.021475Z",
    "country": "be",
    "parent": null,
    "longitude": 3.0,
    "latitude": 51.0332984924316,
    "regions": [
      "1019"
    ]
  },
  {
    "code": "13731",
    "name": "Hannut",
    "updated_at": "2014-09-22T21:13:41.005819Z",
    "country": "be",
    "parent": null,
    "longitude": 5.08333015441895,
    "latitude": 50.6666984558105,
    "regions": [
      "1014"
    ]
  },
  {
    "code": "13730",
    "name": "Hansbeke",
    "updated_at": "2014-09-22T21:13:40.990730Z",
    "country": "be",
    "parent": null,
    "longitude": 3.53332996368408,
    "latitude": 51.0833015441895,
    "regions": []
  },
  {
    "code": "1372f",
    "name": "Han-sur-Lesse",
    "updated_at": "2014-09-22T21:13:40.975593Z",
    "country": "be",
    "parent": null,
    "longitude": 5.18333005905151,
    "latitude": 50.13330078125,
    "regions": [
      "1017"
    ]
  },
  {
    "code": "1372e",
    "name": "Harelbeke",
    "updated_at": "2014-09-22T21:13:40.960134Z",
    "country": "be",
    "parent": null,
    "longitude": 3.29999995231628,
    "latitude": 50.8499984741211,
    "regions": [
      "1019"
    ]
  },