[
  {
    "code": "15fd5",
    "name": "Quiberville",
    "updated_at": "2014-09-22T21:19:31.567358Z",
    "country": "fr",
    "parent": null,
    "longitude": 0.916666984558105,
    "latitude": 49.9000015258789,
    "regions": [
      "1335"
    ]
  },
  {
    "code": "15fd4",
    "name": "Quillan",
    "updated_at": "2014-09-22T21:19:31.546539Z",
    "country": "fr",
    "parent": null,
    "longitude": 2.18333005905151,
    "latitude": 42.86669921875,
    "regions": [
      "1072"
    ]
  },
  {
    "code": "15fd3",
    "name": "Quilly",
    "updated_at": "2014-09-22T21:19:31.525891Z",
    "country": "fr",
    "parent": null,
    "longitude": -1.95000004768372,
    "latitude": 47.4667015075684,
    "regions": [
      "1077"
    ]
  },
  {
    "code": "15fd2",
    "name": "Quimiac",
    "updated_at": "2014-09-22T21:19:31.503650Z",
    "country": "fr",
    "parent": null,
    "longitude": -2.48405003547668,
    "latitude": 47.4080009460449,
    "regions": [
      "1077"
    ]
  },
  {
    "code": "15fd1",
    "name": "Quimper",
    "updated_at": "2014-09-22T21:19:31.476057Z",
    "country": "fr",
    "parent": null,
    "longitude": -4.1026207208688,
    "latitude": 47.9959506928098,
    "regions": [
      "106d"
    ]
  },
  {
    "code": "15fd0",
    "name": "Quimperlé",
    "updated_at": "2014-09-22T21:19:31.448379Z",
    "country": "fr",
    "parent": null,
    "longitude": -3.54999995231628,
    "latitude": 47.86669921875,
    "regions": [
      "106d"
    ]
  },
  {
    "code": "15fcf",
    "name": "Quincié-en-Beaujolais",
    "updated_at": "2014-09-22T21:19:31.418790Z",
    "country": "fr",
    "parent": null,
    "longitude": 4.59999990463257,
    "latitude": 46.11669921875,
    "regions": [
      "107a"
    ]
  },
  {
    "code": "15fce",
    "name": "Quincieux",
    "updated_at": "2014-09-22T21:19:31.382085Z",
    "country": "fr",
    "parent": null,
    "longitude": 4.78332996368408,
    "latitude": 45.9166984558105,
    "regions": [
      "107a"
    ]
  },
  {
    "code": "15fcd",
    "name": "Quincy-Landzécourt",
    "updated_at": "2014-09-22T21:19:31.347648Z",
    "country": "fr",
    "parent": null,
    "longitude": 5.28332996368408,
    "latitude": 49.5,
    "regions": [
      "1074"
    ]
  },
  {
    "code": "15fcc",
    "name": "Quincy-sous-Sénart",
    "updated_at": "2014-09-22T21:19:31.320117Z",
    "country": "fr",
    "parent": null,
    "longitude": 2.53332996368408,
    "latitude": 48.6666984558105,
    "regions": [
      "116b"
    ]
  },
  {
    "code": "15fcb",
    "name": "Quinéville",
    "updated_at": "2014-09-22T21:19:31.298032Z",
    "country": "fr",
    "parent": null,
    "longitude": -1.29999995231628,
    "latitude": 49.5167007446289,
    "regions": [
      "1334"
    ]
  },
  {
    "code": "15fca",
    "name": "Quingey",
    "updated_at": "2014-09-22T21:19:31.276379Z",
    "country": "fr",
    "parent": null,
    "longitude": 5.88332986831665,
    "latitude": 47.0999984741211,
    "regions": [
      "1071"
    ]
  },
  {
    "code": "15fc9",
    "name": "Quinsac",
    "updated_at": "2014-09-22T21:19:31.253994Z",
    "country": "fr",
    "parent": null,
    "longitude": -0.5,
    "latitude": 44.75,
    "regions": [
      "106b"
    ]
  },
  {
    "code": "15fc8",
    "name": "Quinson",
    "updated_at": "2014-09-22T21:19:31.231917Z",
    "country": "fr",
    "parent": null,
    "longitude": 6.03332996368408,
    "latitude": 43.7000007629395,
    "regions": [
      "1079"
    ]
  },
  {
    "code": "15fc7",
    "name": "Quintin",
    "updated_at": "2014-09-22T21:19:31.207721Z",
    "country": "fr",
    "parent": null,
    "longitude": -2.91667008399963,
    "latitude": 48.4000015258789,
    "regions": [
      "106d"
    ]
  },
  {
    "code": "15fc6",
    "name": "Quistinic",
    "updated_at": "2014-09-22T21:19:31.154113Z",
    "country": "fr",
    "parent": null,
    "longitude": -3.13333010673523,
    "latitude": 47.9166984558105,
    "regions": [
      "106d"
    ]
  },
  {
    "code": "15fc5",
    "name": "Rabastens",
    "updated_at": "2014-09-22T21:19:31.123921Z",
    "country": "fr",
    "parent": null,
    "longitude": 1.75,
    "latitude": 43.8333015441895,
    "regions": [
      "1075"
    ]
  },
  {
    "code": "15fc4",
    "name": "Racines",
    "updated_at": "2014-09-22T21:19:31.085500Z",
    "country": "fr",
    "parent": null,
    "longitude": 3.84999990463257,
    "latitude": 48.0499992370605,
    "regions": [
      "1070"
    ]
  },
  {
    "code": "15fc3",
    "name": "Racrange",
    "updated_at": "2014-09-22T21:19:31.047223Z",
    "country": "fr",
    "parent": null,
    "longitude": 6.66666984558105,
    "latitude": 48.9166984558105,
    "regions": [
      "1074"
    ]
  },
  {
    "code": "15fc2",
    "name": "Radepont",
    "updated_at": "2014-09-22T21:19:31.026930Z",
    "country": "fr",
    "parent": null,
    "longitude": 1.33333003520966,
    "latitude": 49.3499984741211,
    "regions": [
      "1335"
    ]
  },
  {
    "code": "15fc1",
    "name": "Raedersdorf",
    "updated_at": "2014-09-22T21:19:31.006663Z",
    "country": "fr",
    "parent": null,
    "longitude": 7.36667013168335,
    "latitude": 47.4667015075684,
    "regions": [
      "106a"
    ]
  },
  {
    "code": "15fc0",
    "name": "Rahling",
    "updated_at": "2014-09-22T21:19:30.985988Z",
    "country": "fr",
    "parent": null,
    "longitude": 7.21667003631592,
    "latitude": 48.9832992553711,
    "regions": [
      "1074"
    ]
  },
  {
    "code": "15fbf",
    "name": "Rahon",
    "updated_at": "2014-09-22T21:19:30.965352Z",
    "country": "fr",
    "parent": null,
    "longitude": 5.44999980926514,
    "latitude": 46.9832992553711,
    "regions": [
      "1071"
    ]
  },
  {
    "code": "15fbe",
    "name": "Raids",
    "updated_at": "2014-09-22T21:19:30.944688Z",
    "country": "fr",
    "parent": null,
    "longitude": -1.35000002384186,
    "latitude": 49.2167015075684,
    "regions": [
      "1334"
    ]
  },
  {
    "code": "15fbd",
    "name": "Raissac-sur-Lampy",
    "updated_at": "2014-09-22T21:19:30.919147Z",
    "country": "fr",
    "parent": null,
    "longitude": 2.16667008399963,
    "latitude": 43.2832984924316,
    "regions": [
      "1072"
    ]
  },
  {
    "code": "15fbc",
    "name": "Ramatuelle",
    "updated_at": "2014-09-22T21:19:30.889058Z",
    "country": "fr",
    "parent": null,
    "longitude": 6.61667013168335,
    "latitude": 43.2167015075684,
    "regions": [
      "1079"
    ]
  },
  {
    "code": "15fbb",
    "name": "Rambouillet",
    "updated_at": "2014-09-22T21:19:30.858404Z",
    "country": "fr",
    "parent": null,
    "longitude": 1.83333003520966,
    "latitude": 48.6500015258789,
    "regions": [
      "116b"
    ]
  },
  {
    "code": "15fba",
    "name": "Rammersmatt",
    "updated_at": "2014-09-22T21:19:30.784311Z",
    "country": "fr",
    "parent": null,
    "longitude": 7.06666994094849,
    "latitude": 47.7999992370605,
    "regions": [
      "106a"
    ]
  },
  {
    "code": "15fb9",
    "name": "Ramonville-Saint-Agne",
    "updated_at": "2014-09-22T21:19:30.748666Z",
    "country": "fr",
    "parent": null,
    "longitude": 1.46667003631592,
    "latitude": 43.5499992370605,
    "regions": [
      "1075"
    ]
  },
  {
    "code": "15fb8",
    "name": "Ramousies",
    "updated_at": "2014-09-22T21:19:30.728360Z",
    "country": "fr",
    "parent": null,
    "longitude": 4.03332996368408,
    "latitude": 50.11669921875,
    "regions": [
      "1076",
      "1230"
    ]
  },
  {
    "code": "15fb7",
    "name": "Ranchal",
    "updated_at": "2014-09-22T21:19:30.707798Z",
    "country": "fr",
    "parent": null,
    "longitude": 4.40000009536743,
    "latitude": 46.13330078125,
    "regions": [
      "107a"
    ]
  },
  {
    "code": "15fb6",
    "name": "Rancoudray",
    "updated_at": "2014-09-22T21:19:30.685718Z",
    "country": "fr",
    "parent": null,
    "longitude": -0.866666972637177,
    "latitude": 48.6500015258789,
    "regions": [
      "1334"
    ]
  },
  {
    "code": "15fb5",
    "name": "Rancourt",
    "updated_at": "2014-09-22T21:19:30.663208Z",
    "country": "fr",
    "parent": null,
    "longitude": 2.91667008399963,
    "latitude": 50.0,
    "regions": [
      "1078"
    ]
  },
  {
    "code": "15fb4",
    "name": "Randan",
    "updated_at": "2014-09-22T21:19:30.640942Z",
    "country": "fr",
    "parent": null,
    "longitude": 3.36666989326477,
    "latitude": 46.0167007446289,
    "regions": [
      "106c"
    ]
  },
  {
    "code": "15fb3",
    "name": "Rang",
    "updated_at": "2014-09-22T21:19:30.614063Z",
    "country": "fr",
    "parent": null,
    "longitude": 6.56666994094849,
    "latitude": 47.4333000183105,
    "regions": [
      "1071"
    ]
  },
  {
    "code": "15fb2",
    "name": "Rang-du-Fliers",
    "updated_at": "2014-09-22T21:19:30.587171Z",
    "country": "fr",
    "parent": null,
    "longitude": 1.64999997615814,
    "latitude": 50.4166984558105,
    "regions": [
      "1076"
    ]
  },
  {
    "code": "15fb1",
    "name": "Rangen",
    "updated_at": "2014-09-22T21:19:30.559594Z",
    "country": "fr",
    "parent": null,
    "longitude": 7.48332977294922,
    "latitude": 48.6666984558105,
    "regions": [
      "106a"
    ]
  },
  {
    "code": "15fb0",
    "name": "Ranspach",
    "updated_at": "2014-09-22T21:19:30.523139Z",
    "country": "fr",
    "parent": null,
    "longitude": 7.01667022705078,
    "latitude": 47.88330078125,
    "regions": [
      "106a"
    ]
  },
  {
    "code": "15faf",
    "name": "Ranspach-le-Bas",
    "updated_at": "2014-09-22T21:19:30.485656Z",
    "country": "fr",
    "parent": null,
    "longitude": 7.44999980926514,
    "latitude": 47.5833015441895,
    "regions": [
      "106a"
    ]
  },
  {
    "code": "15fae",
    "name": "Raon-aux-Bois",
    "updated_at": "2014-09-22T21:19:30.456140Z",
    "country": "fr",
    "parent": null,
    "longitude": 6.51667022705078,
    "latitude": 48.0499992370605,
    "regions": [
      "1074"
    ]
  },
  {
    "code": "15fad",
    "name": "Raon-lʼÉtape",
    "updated_at": "2014-09-22T21:19:30.434213Z",
    "country": "fr",
    "parent": null,
    "longitude": 6.84999990463257,
    "latitude": 48.4000015258789,
    "regions": [
      "1074"
    ]
  },
  {
    "code": "15fac",
    "name": "Rapale",
    "updated_at": "2014-09-22T21:19:30.412190Z",
    "country": "fr",
    "parent": null,
    "longitude": 9.30000019073486,
    "latitude": 42.5833015441895,
    "regions": []
  },
  {
    "code": "15fab",
    "name": "Raphèle-lès Arles",
    "updated_at": "2014-09-22T21:19:30.389293Z",
    "country": "fr",
    "parent": null,
    "longitude": 4.71667003631592,
    "latitude": 43.6500015258789,
    "regions": []
  },
  {
    "code": "15faa",
    "name": "Rapilly",
    "updated_at": "2014-09-22T21:19:30.366966Z",
    "country": "fr",
    "parent": null,
    "longitude": -0.333332985639572,
    "latitude": 48.86669921875,
    "regions": [
      "1334"
    ]
  },
  {
    "code": "15fa9",
    "name": "Raray",
    "updated_at": "2014-09-22T21:19:30.346502Z",
    "country": "fr",
    "parent": null,
    "longitude": 2.71667003631592,
    "latitude": 49.2667007446289,
    "regions": [
      "1078"
    ]
  },
  {
    "code": "15fa8",
    "name": "Rarécourt",
    "updated_at": "2014-09-22T21:19:30.316772Z",
    "country": "fr",
    "parent": null,
    "longitude": 5.11667013168335,
    "latitude": 49.0833015441895,
    "regions": [
      "1074"
    ]
  },
  {
    "code": "15fa7",
    "name": "Rasteau",
    "updated_at": "2014-09-22T21:19:30.292744Z",
    "country": "fr",
    "parent": null,
    "longitude": 4.98332977294922,
    "latitude": 44.2167015075684,
    "regions": [
      "1079"
    ]
  },
  {
    "code": "15fa6",
    "name": "Rathsamhausen",
    "updated_at": "2014-09-22T21:19:30.264525Z",
    "country": "fr",
    "parent": null,
    "longitude": 7.5,
    "latitude": 48.2667007446289,
    "regions": [
      "106a"
    ]
  },
  {
    "code": "15fa5",
    "name": "Rauville-la-Place",
    "updated_at": "2014-09-22T21:19:30.227530Z",
    "country": "fr",
    "parent": null,
    "longitude": -1.5,
    "latitude": 49.38330078125,
    "regions": [
      "1334"
    ]
  },
  {
    "code": "15fa4",
    "name": "Rauzan",
    "updated_at": "2014-09-22T21:19:30.191392Z",
    "country": "fr",
    "parent": null,
    "longitude": -0.116667002439499,
    "latitude": 44.7832984924316,
    "regions": [
      "106b"
    ]
  },
  {
    "code": "15fa3",
    "name": "Raveau",
    "updated_at": "2014-09-22T21:19:30.162738Z",
    "country": "fr",
    "parent": null,
    "longitude": 3.08332991600037,
    "latitude": 47.1833000183105,
    "regions": [
      "106e"
    ]
  },
  {
    "code": "15fa2",
    "name": "Ravenel",
    "updated_at": "2014-09-22T21:19:30.140928Z",
    "country": "fr",
    "parent": null,
    "longitude": 2.5,
    "latitude": 49.5167007446289,
    "regions": [
      "1078"
    ]
  },
  {
    "code": "15fa1",
    "name": "Razac-sur-lʼIsle",
    "updated_at": "2014-09-22T21:19:30.098449Z",
    "country": "fr",
    "parent": null,
    "longitude": 0.616666972637177,
    "latitude": 45.1666984558105,
    "regions": [
      "106b"
    ]
  },
  {
    "code": "15fa0",
    "name": "Razengues",
    "updated_at": "2014-09-22T21:19:30.077793Z",
    "country": "fr",
    "parent": null,
    "longitude": 1.0,
    "latitude": 43.6500015258789,
    "regions": [
      "1075"
    ]
  },
  {
    "code": "15f9f",
    "name": "Razines",
    "updated_at": "2014-09-22T21:19:30.057095Z",
    "country": "fr",
    "parent": null,
    "longitude": 0.366667002439499,
    "latitude": 46.9667015075684,
    "regions": [
      "106f"
    ]
  },
  {
    "code": "15f9e",
    "name": "Réallon",
    "updated_at": "2014-09-22T21:19:30.027001Z",
    "country": "fr",
    "parent": null,
    "longitude": 6.36667013168335,
    "latitude": 44.5999984741211,
    "regions": [
      "1079"
    ]
  },
  {
    "code": "15f9d",
    "name": "Réalmont",
    "updated_at": "2014-09-22T21:19:29.996478Z",
    "country": "fr",
    "parent": null,
    "longitude": 2.20000004768372,
    "latitude": 43.7832984924316,
    "regions": [
      "1075"
    ]
  },
  {
    "code": "15f9c",
    "name": "Réalville",
    "updated_at": "2014-09-22T21:19:29.964652Z",
    "country": "fr",
    "parent": null,
    "longitude": 1.46667003631592,
    "latitude": 44.11669921875,
    "regions": [
      "1075"
    ]
  },
  {
    "code": "15f9b",
    "name": "Réans",
    "updated_at": "2014-09-22T21:19:29.931495Z",
    "country": "fr",
    "parent": null,
    "longitude": 0.0333333015441895,
    "latitude": 43.8499984741211,
    "regions": []
  },
  {
    "code": "15f9a",
    "name": "Réaumont",
    "updated_at": "2014-09-22T21:19:29.860948Z",
    "country": "fr",
    "parent": null,
    "longitude": 5.51667022705078,
    "latitude": 45.36669921875,
    "regions": [
      "107a"
    ]
  },
  {
    "code": "15f99",
    "name": "Réaumur",
    "updated_at": "2014-09-22T21:19:29.839236Z",
    "country": "fr",
    "parent": null,
    "longitude": -0.800000011920929,
    "latitude": 46.7167015075684,
    "regions": [
      "1077"
    ]
  },
  {
    "code": "15f98",
    "name": "Recques-sur-Hem",
    "updated_at": "2014-09-22T21:19:29.796816Z",
    "country": "fr",
    "parent": null,
    "longitude": 2.08332991600037,
    "latitude": 50.8333015441895,
    "regions": [
      "1076"
    ]
  },
  {
    "code": "15f97",
    "name": "Recquignies",
    "updated_at": "2014-09-22T21:19:29.776180Z",
    "country": "fr",
    "parent": null,
    "longitude": 4.05000019073486,
    "latitude": 50.2832984924316,
    "regions": [
      "1076",
      "1230"
    ]
  },
  {
    "code": "15f96",
    "name": "Rédené",
    "updated_at": "2014-09-22T21:19:29.753545Z",
    "country": "fr",
    "parent": null,
    "longitude": -3.46667003631592,
    "latitude": 47.8499984741211,
    "regions": [
      "106d"
    ]
  },
  {
    "code": "15f95",
    "name": "Redon",
    "updated_at": "2014-09-22T21:19:29.724511Z",
    "country": "fr",
    "parent": null,
    "longitude": -2.08332991600037,
    "latitude": 47.6500015258789,
    "regions": [
      "106d"
    ]
  },
  {
    "code": "15f94",
    "name": "Redortiers",
    "updated_at": "2014-09-22T21:19:29.694306Z",
    "country": "fr",
    "parent": null,
    "longitude": 5.65000009536743,
    "latitude": 44.0833015441895,
    "regions": [
      "1079"
    ]
  },
  {
    "code": "15f93",
    "name": "Regnéville-sur-Mer",
    "updated_at": "2014-09-22T21:19:29.660974Z",
    "country": "fr",
    "parent": null,
    "longitude": -1.54999995231628,
    "latitude": 49.0167007446289,
    "regions": [
      "1334"
    ]
  },
  {
    "code": "15f92",
    "name": "Régnié",
    "updated_at": "2014-09-22T21:19:29.623562Z",
    "country": "fr",
    "parent": null,
    "longitude": 4.65000009536743,
    "latitude": 46.13330078125,
    "regions": [
      "107a"
    ]
  },
  {
    "code": "15f91",
    "name": "Regnière-Écluse",
    "updated_at": "2014-09-22T21:19:29.583818Z",
    "country": "fr",
    "parent": null,
    "longitude": 1.7666699886322,
    "latitude": 50.2832984924316,
    "regions": [
      "1078"
    ]
  },
  {
    "code": "15f90",
    "name": "Regny",
    "updated_at": "2014-09-22T21:19:29.559966Z",
    "country": "fr",
    "parent": null,
    "longitude": 4.21667003631592,
    "latitude": 45.9832992553711,
    "regions": [
      "107a"
    ]
  },
  {
    "code": "15f8f",
    "name": "Régusse",
    "updated_at": "2014-09-22T21:19:29.539749Z",
    "country": "fr",
    "parent": null,
    "longitude": 6.13332986831665,
    "latitude": 43.6500015258789,
    "regions": [
      "1079"
    ]
  },
  {
    "code": "15f8e",
    "name": "Rehainviller",
    "updated_at": "2014-09-22T21:19:29.519091Z",
    "country": "fr",
    "parent": null,
    "longitude": 6.46667003631592,
    "latitude": 48.5666999816895,
    "regions": [
      "1074"
    ]
  },
  {
    "code": "15f8d",
    "name": "Rehaupal",
    "updated_at": "2014-09-22T21:19:29.498857Z",
    "country": "fr",
    "parent": null,
    "longitude": 6.73332977294922,
    "latitude": 48.11669921875,
    "regions": [
      "1074"
    ]
  },
  {
    "code": "15f8c",
    "name": "Reichshoffen",
    "updated_at": "2014-09-22T21:19:29.478114Z",
    "country": "fr",
    "parent": null,
    "longitude": 7.66666984558105,
    "latitude": 48.9333000183105,
    "regions": [
      "106a"
    ]
  },
  {
    "code": "15f8b",
    "name": "Reichstett",
    "updated_at": "2014-09-22T21:19:29.454840Z",
    "country": "fr",
    "parent": null,
    "longitude": 7.75,
    "latitude": 48.6500015258789,
    "regions": [
      "106a"
    ]
  },
  {
    "code": "15f8a",
    "name": "Reigneville-Bocage",
    "updated_at": "2014-09-22T21:19:29.363602Z",
    "country": "fr",
    "parent": null,
    "longitude": -1.46667003631592,
    "latitude": 49.4000015258789,
    "regions": [
      "1334"
    ]
  },
  {
    "code": "15f89",
    "name": "Reignier",
    "updated_at": "2014-09-22T21:19:29.327850Z",
    "country": "fr",
    "parent": null,
    "longitude": 6.26667022705078,
    "latitude": 46.13330078125,
    "regions": [
      "107a"
    ]
  },
  {
    "code": "15f88",
    "name": "Reilhanette",
    "updated_at": "2014-09-22T21:19:29.289937Z",
    "country": "fr",
    "parent": null,
    "longitude": 5.42037963867188,
    "latitude": 44.1689834594727,
    "regions": [
      "107a"
    ]
  },
  {
    "code": "15f87",
    "name": "Reillanne",
    "updated_at": "2014-09-22T21:19:29.265252Z",
    "country": "fr",
    "parent": null,
    "longitude": 5.66666984558105,
    "latitude": 43.88330078125,
    "regions": [
      "1079"
    ]
  },
  {
    "code": "15f86",
    "name": "Reims",
    "updated_at": "2014-09-22T21:19:29.244461Z",
    "country": "fr",
    "parent": null,
    "longitude": 4.03332996368408,
    "latitude": 49.25,
    "regions": [
      "1070"
    ]
  },
  {
    "code": "15f85",
    "name": "Reinhardsmunster",
    "updated_at": "2014-09-22T21:19:29.224339Z",
    "country": "fr",
    "parent": null,
    "longitude": 7.31666994094849,
    "latitude": 48.6833000183105,
    "regions": [
      "106a"
    ]
  },
  {
    "code": "15f84",
    "name": "Relevant",
    "updated_at": "2014-09-22T21:19:29.204305Z",
    "country": "fr",
    "parent": null,
    "longitude": 4.94999980926514,
    "latitude": 46.0833015441895,
    "regions": [
      "107a"
    ]
  },
  {
    "code": "15f83",
    "name": "Rémalard",
    "updated_at": "2014-09-22T21:19:29.183848Z",
    "country": "fr",
    "parent": null,
    "longitude": 0.783333003520966,
    "latitude": 48.4333000183105,
    "regions": [
      "1334"
    ]
  },
  {
    "code": "15f82",
    "name": "Remilly-Aillicourt",
    "updated_at": "2014-09-22T21:19:29.161191Z",
    "country": "fr",
    "parent": null,
    "longitude": 5.0,
    "latitude": 49.6500015258789,
    "regions": [
      "1070"
    ]
  },
  {
    "code": "15f81",
    "name": "Réminiac",
    "updated_at": "2014-09-22T21:19:29.134922Z",
    "country": "fr",
    "parent": null,
    "longitude": -2.25,
    "latitude": 47.8499984741211,
    "regions": [
      "106d"
    ]
  },
  {
    "code": "15f80",
    "name": "Remiremont",
    "updated_at": "2014-09-22T21:19:29.108899Z",
    "country": "fr",
    "parent": null,
    "longitude": 6.58333015441895,
    "latitude": 48.0167007446289,
    "regions": [
      "1074"
    ]
  },
  {
    "code": "15f7f",
    "name": "Remoulins",
    "updated_at": "2014-09-22T21:19:29.077225Z",
    "country": "fr",
    "parent": null,
    "longitude": 4.56666994094849,
    "latitude": 43.9333000183105,
    "regions": [
      "1072",
      "1079"
    ]
  },
  {
    "code": "15f7e",
    "name": "Rémuzat",
    "updated_at": "2014-09-22T21:19:29.041631Z",
    "country": "fr",
    "parent": null,
    "longitude": 5.34999990463257,
    "latitude": 44.4000015258789,
    "regions": [
      "107a"
    ]
  },
  {
    "code": "15f7d",
    "name": "Rémy",
    "updated_at": "2014-09-22T21:19:29.004844Z",
    "country": "fr",
    "parent": null,
    "longitude": 2.71667003631592,
    "latitude": 49.4333000183105,
    "regions": [
      "1078"
    ]
  },
  {
    "code": "15f7c",
    "name": "Renazé",
    "updated_at": "2014-09-22T21:19:28.984465Z",
    "country": "fr",
    "parent": null,
    "longitude": -1.04999995231628,
    "latitude": 47.7999992370605,
    "regions": [
      "1077"
    ]
  },
  {
    "code": "15f7b",
    "name": "Rencurel",
    "updated_at": "2014-09-22T21:19:28.966373Z",
    "country": "fr",
    "parent": null,
    "longitude": 5.48332977294922,
    "latitude": 45.0999984741211,
    "regions": [
      "107a"
    ]
  },
  {
    "code": "15f7a",
    "name": "Renescure",
    "updated_at": "2014-09-22T21:19:28.947836Z",
    "country": "fr",
    "parent": null,
    "longitude": 2.36666989326477,
    "latitude": 50.7332992553711,
    "regions": []
  },
  {
    "code": "15f79",
    "name": "Rennes",
    "updated_at": "2014-09-22T21:19:28.928883Z",
    "country": "fr",
    "parent": null,
    "longitude": -1.67927742004395,
    "latitude": 48.1113586425781,
    "regions": [
      "106d"
    ]
  },
  {
    "code": "15f78",
    "name": "Rennes-le-Château",
    "updated_at": "2014-09-22T21:19:28.908571Z",
    "country": "fr",
    "parent": null,
    "longitude": 2.2666699886322,
    "latitude": 42.9333000183105,
    "regions": [
      "1072"
    ]
  },
  {
    "code": "15f77",
    "name": "Rennes-les-Bains",
    "updated_at": "2014-09-22T21:19:28.883073Z",
    "country": "fr",
    "parent": null,
    "longitude": 2.31666994094849,
    "latitude": 42.9166984558105,
    "regions": [
      "1072"
    ]
  },
  {
    "code": "15f76",
    "name": "Renneville",
    "updated_at": "2014-09-22T21:19:28.829648Z",
    "country": "fr",
    "parent": null,
    "longitude": 1.71667003631592,
    "latitude": 43.38330078125,
    "regions": [
      "1075"
    ]
  },
  {
    "code": "15f75",
    "name": "Repenti",
    "updated_at": "2014-09-22T21:19:28.792857Z",
    "country": "fr",
    "parent": null,
    "longitude": 6.33333015441895,
    "latitude": 43.3499984741211,
    "regions": []
  },
  {
    "code": "15f74",
    "name": "Replonges",
    "updated_at": "2014-09-22T21:19:28.757332Z",
    "country": "fr",
    "parent": null,
    "longitude": 4.88332986831665,
    "latitude": 46.2999992370605,
    "regions": [
      "107a"
    ]
  },
  {
    "code": "15f73",
    "name": "Réquista",
    "updated_at": "2014-09-22T21:19:28.725019Z",
    "country": "fr",
    "parent": null,
    "longitude": 2.53332996368408,
    "latitude": 44.0332984924316,
    "regions": [
      "1075"
    ]
  },
  {
    "code": "15f72",
    "name": "Restigné",
    "updated_at": "2014-09-22T21:19:28.706781Z",
    "country": "fr",
    "parent": null,
    "longitude": 0.233333006501198,
    "latitude": 47.2832984924316,
    "regions": [
      "106f"
    ]
  },
  {
    "code": "15f71",
    "name": "Rétaud",
    "updated_at": "2014-09-22T21:19:28.687133Z",
    "country": "fr",
    "parent": null,
    "longitude": -0.733332991600037,
    "latitude": 45.6833000183105,
    "regions": [
      "1232"
    ]
  },
  {
    "code": "15f70",
    "name": "Retournac",
    "updated_at": "2014-09-22T21:19:28.667403Z",
    "country": "fr",
    "parent": null,
    "longitude": 4.03332996368408,
    "latitude": 45.2000007629395,
    "regions": [
      "106c"
    ]
  },
  {
    "code": "15f6f",
    "name": "Reugny",
    "updated_at": "2014-09-22T21:19:28.647458Z",
    "country": "fr",
    "parent": null,
    "longitude": 0.883333027362823,
    "latitude": 47.4832992553711,
    "regions": [
      "106f"
    ]
  },
  {
    "code": "15f6e",
    "name": "Reuilly-Sauvigny",
    "updated_at": "2014-09-22T21:19:28.627463Z",
    "country": "fr",
    "parent": null,
    "longitude": 3.54999995231628,
    "latitude": 49.0666999816895,
    "regions": [
      "1078"
    ]
  },
  {
    "code": "15f6d",
    "name": "Reuil-sur-Marne",
    "updated_at": "2014-09-22T21:19:28.602596Z",
    "country": "fr",
    "parent": null,
    "longitude": 3.79999995231628,
    "latitude": 49.0833015441895,
    "regions": [
      "1070"
    ]
  },
  {
    "code": "15f6c",
    "name": "Réveillon",
    "updated_at": "2014-09-22T21:19:28.576736Z",
    "country": "fr",
    "parent": null,
    "longitude": 0.566667020320892,
    "latitude": 48.4832992553711,
    "regions": [
      "1334"
    ]
  },
  {
    "code": "15f6b",
    "name": "Revel",
    "updated_at": "2014-09-22T21:19:28.548395Z",
    "country": "fr",
    "parent": null,
    "longitude": 2.0,
    "latitude": 43.4667015075684,
    "regions": [
      "1075"
    ]
  },
  {
    "code": "15f6a",
    "name": "Reventin-Vaugris",
    "updated_at": "2014-09-22T21:19:28.511689Z",
    "country": "fr",
    "parent": null,
    "longitude": 4.83333015441895,
    "latitude": 45.4667015075684,
    "regions": [
      "107a"
    ]
  },
  {
    "code": "15f69",
    "name": "Revest-les-Roches",
    "updated_at": "2014-09-22T21:19:28.475465Z",
    "country": "fr",
    "parent": null,
    "longitude": 7.15000009536743,
    "latitude": 43.88330078125,
    "regions": [
      "1079"
    ]
  },
  {
    "code": "15f68",
    "name": "Revigny-sur-Ornain",
    "updated_at": "2014-09-22T21:19:28.446817Z",
    "country": "fr",
    "parent": null,
    "longitude": 4.98332977294922,
    "latitude": 48.8333015441895,
    "regions": [
      "1074"
    ]
  },
  {
    "code": "15f67",
    "name": "Réville",
    "updated_at": "2014-09-22T21:19:28.427448Z",
    "country": "fr",
    "parent": null,
    "longitude": -1.25,
    "latitude": 49.61669921875,
    "regions": [
      "1334"
    ]
  },
  {
    "code": "15f66",
    "name": "Revin",
    "updated_at": "2014-09-22T21:19:28.407908Z",
    "country": "fr",
    "parent": null,
    "longitude": 4.63332986831665,
    "latitude": 49.9333000183105,
    "regions": [
      "1070"
    ]
  },
  {
    "code": "15f65",
    "name": "Reynès",
    "updated_at": "2014-09-22T21:19:28.388786Z",
    "country": "fr",
    "parent": null,
    "longitude": 2.70000004768372,
    "latitude": 42.4832992553711,
    "regions": [
      "1072"
    ]
  },
  {
    "code": "15f64",
    "name": "Reyrieux",
    "updated_at": "2014-09-22T21:19:28.351803Z",
    "country": "fr",
    "parent": null,
    "longitude": 4.81666994094849,
    "latitude": 45.9333000183105,
    "regions": [
      "107a"
    ]
  },
  {
    "code": "15f63",
    "name": "Rezé",
    "updated_at": "2014-09-22T21:19:28.326120Z",
    "country": "fr",
    "parent": null,
    "longitude": -1.56666994094849,
    "latitude": 47.2000007629395,
    "regions": [
      "1077"
    ]
  },
  {
    "code": "15f62",
    "name": "Rézentières",
    "updated_at": "2014-09-22T21:19:28.299395Z",
    "country": "fr",
    "parent": null,
    "longitude": 3.11666989326477,
    "latitude": 45.13330078125,
    "regions": [
      "106c"
    ]
  },
  {
    "code": "15f61",
    "name": "Ria",
    "updated_at": "2014-09-22T21:19:28.262392Z",
    "country": "fr",
    "parent": null,
    "longitude": 2.40000009536743,
    "latitude": 42.61669921875,
    "regions": [
      "1072"
    ]
  },
  {
    "code": "15f60",
    "name": "Rians",
    "updated_at": "2014-09-22T21:19:28.226040Z",
    "country": "fr",
    "parent": null,
    "longitude": 5.75,
    "latitude": 43.61669921875,
    "regions": [
      "1079"
    ]
  },
  {
    "code": "15f5f",
    "name": "Riantec",
    "updated_at": "2014-09-22T21:19:28.194738Z",
    "country": "fr",
    "parent": null,
    "longitude": -3.31666994094849,
    "latitude": 47.7167015075684,
    "regions": [
      "106d"
    ]
  },
  {
    "code": "15f5e",
    "name": "Ribaute",
    "updated_at": "2014-09-22T21:19:28.175075Z",
    "country": "fr",
    "parent": null,
    "longitude": 2.63333010673523,
    "latitude": 43.0999984741211,
    "regions": [
      "1072"
    ]
  },
  {
    "code": "15f5d",
    "name": "Ribeauvillé",
    "updated_at": "2014-09-22T21:19:28.155506Z",
    "country": "fr",
    "parent": null,
    "longitude": 7.31666994094849,
    "latitude": 48.2000007629395,
    "regions": [
      "106a"
    ]
  },
  {
    "code": "15f5c",
    "name": "Ribécourt-la-Tour",
    "updated_at": "2014-09-22T21:19:28.135653Z",
    "country": "fr",
    "parent": null,
    "longitude": 3.11666989326477,
    "latitude": 50.0999984741211,
    "regions": [
      "1076",
      "1230"
    ]
  },
  {
    "code": "15f5b",
    "name": "Ribérac",
    "updated_at": "2014-09-22T21:19:28.115531Z",
    "country": "fr",
    "parent": null,
    "longitude": 0.333332985639572,
    "latitude": 45.25,
    "regions": [
      "106b"
    ]
  },
  {
    "code": "15f5a",
    "name": "Richebourg-lʼAvoué",
    "updated_at": "2014-09-22T21:19:28.092832Z",
    "country": "fr",
    "parent": null,
    "longitude": 2.75,
    "latitude": 50.5666999816895,
    "regions": [
      "1076"
    ]
  },
  {
    "code": "15f59",
    "name": "Richebourg-Saint-Vaast",
    "updated_at": "2014-09-22T21:19:28.067088Z",
    "country": "fr",
    "parent": null,
    "longitude": 2.7333300113678,
    "latitude": 50.5833015441895,
    "regions": [
      "1076"
    ]
  },
  {
    "code": "15f58",
    "name": "Richelieu",
    "updated_at": "2014-09-22T21:19:28.041219Z",
    "country": "fr",
    "parent": null,
    "longitude": 0.31666699051857,
    "latitude": 47.0167007446289,
    "regions": [
      "106f"
    ]
  },
  {
    "code": "15f57",
    "name": "Richerenches",
    "updated_at": "2014-09-22T21:19:28.013098Z",
    "country": "fr",
    "parent": null,
    "longitude": 4.91666984558105,
    "latitude": 44.36669921875,
    "regions": [
      "1079",
      "107a"
    ]
  },
  {
    "code": "15f56",
    "name": "Riec-sur-Bélon",
    "updated_at": "2014-09-22T21:19:27.975880Z",
    "country": "fr",
    "parent": null,
    "longitude": -3.70000004768372,
    "latitude": 47.8333015441895,
    "regions": [
      "106d"
    ]
  },
  {
    "code": "15f55",
    "name": "Rieucros",
    "updated_at": "2014-09-22T21:19:27.937900Z",
    "country": "fr",
    "parent": null,
    "longitude": 1.7666699886322,
    "latitude": 43.0833015441895,
    "regions": []
  },
  {
    "code": "15f54",
    "name": "Rieumes",
    "updated_at": "2014-09-22T21:19:27.910356Z",
    "country": "fr",
    "parent": null,
    "longitude": 1.11667001247406,
    "latitude": 43.4166984558105,
    "regions": [
      "1075"
    ]
  },
  {
    "code": "15f53",
    "name": "Rieupeyroux",
    "updated_at": "2014-09-22T21:19:27.891982Z",
    "country": "fr",
    "parent": null,
    "longitude": 2.2333300113678,
    "latitude": 44.2999992370605,
    "regions": [
      "1075"
    ]
  },
  {
    "code": "15f52",
    "name": "Rieussec",
    "updated_at": "2014-09-22T21:19:27.873646Z",
    "country": "fr",
    "parent": null,
    "longitude": 2.75,
    "latitude": 43.4166984558105,
    "regions": [
      "1072"
    ]
  },
  {
    "code": "15f51",
    "name": "Rieutort",
    "updated_at": "2014-09-22T21:19:27.854848Z",
    "country": "fr",
    "parent": null,
    "longitude": 3.4833300113678,
    "latitude": 44.63330078125,
    "regions": [
      "1072"
    ]
  },
  {
    "code": "15f50",
    "name": "Rieux-de-Pelleport",
    "updated_at": "2014-09-22T21:19:27.836086Z",
    "country": "fr",
    "parent": null,
    "longitude": 1.60000002384186,
    "latitude": 43.0499992370605,
    "regions": [
      "1075"
    ]
  },
  {
    "code": "15f4f",
    "name": "Rieux-en-Val",
    "updated_at": "2014-09-22T21:19:27.815346Z",
    "country": "fr",
    "parent": null,
    "longitude": 2.53332996368408,
    "latitude": 43.0833015441895,
    "regions": [
      "1072"
    ]
  },
  {
    "code": "15f4e",
    "name": "Rieux-Minervois",
    "updated_at": "2014-09-22T21:19:27.786404Z",
    "country": "fr",
    "parent": null,
    "longitude": 2.58332991600037,
    "latitude": 43.2832984924316,
    "regions": [
      "1072"
    ]
  },
  {
    "code": "15f4d",
    "name": "Riez",
    "updated_at": "2014-09-22T21:19:27.757513Z",
    "country": "fr",
    "parent": null,
    "longitude": 6.09999990463257,
    "latitude": 43.8166999816895,
    "regions": [
      "1079"
    ]
  },
  {
    "code": "15f4c",
    "name": "Rigarda",
    "updated_at": "2014-09-22T21:19:27.726527Z",
    "country": "fr",
    "parent": null,
    "longitude": 2.53332996368408,
    "latitude": 42.63330078125,
    "regions": [
      "1072"
    ]
  },
  {
    "code": "15f4b",
    "name": "Rignac",
    "updated_at": "2014-09-22T21:19:27.690168Z",
    "country": "fr",
    "parent": null,
    "longitude": 2.29999995231628,
    "latitude": 44.4166984558105,
    "regions": [
      "1075"
    ]
  },
  {
    "code": "15f4a",
    "name": "Rillé",
    "updated_at": "2014-09-22T21:19:27.629910Z",
    "country": "fr",
    "parent": null,
    "longitude": 0.25,
    "latitude": 47.4500007629395,
    "regions": [
      "106f"
    ]
  },
  {
    "code": "15f49",
    "name": "Rilly-la-Montagne",
    "updated_at": "2014-09-22T21:19:27.610356Z",
    "country": "fr",
    "parent": null,
    "longitude": 4.05000019073486,
    "latitude": 49.1666984558105,
    "regions": [
      "1070"
    ]
  },
  {
    "code": "15f48",
    "name": "Rimbach-près-Guebwiller",
    "updated_at": "2014-09-22T21:19:27.590193Z",
    "country": "fr",
    "parent": null,
    "longitude": 7.15000009536743,
    "latitude": 47.9000015258789,
    "regions": [
      "106a"
    ]
  },
  {
    "code": "15f47",
    "name": "Rimeize",
    "updated_at": "2014-09-22T21:19:27.569646Z",
    "country": "fr",
    "parent": null,
    "longitude": 3.31666994094849,
    "latitude": 44.7667007446289,
    "regions": [
      "1072"
    ]
  },
  {
    "code": "15f46",
    "name": "Rimont",
    "updated_at": "2014-09-22T21:19:27.549718Z",
    "country": "fr",
    "parent": null,
    "longitude": 1.28332996368408,
    "latitude": 43.0,
    "regions": [
      "1075"
    ]
  },
  {
    "code": "15f45",
    "name": "Rimoux",
    "updated_at": "2014-09-22T21:19:27.527367Z",
    "country": "fr",
    "parent": null,
    "longitude": -1.5166699886322,
    "latitude": 48.4000015258789,
    "regions": [
      "106d"
    ]
  },
  {
    "code": "15f44",
    "name": "Rimplas",
    "updated_at": "2014-09-22T21:19:27.501650Z",
    "country": "fr",
    "parent": null,
    "longitude": 7.13332986831665,
    "latitude": 44.0666999816895,
    "regions": [
      "1079"
    ]
  },
  {
    "code": "15f43",
    "name": "Riols",
    "updated_at": "2014-09-22T21:19:27.474917Z",
    "country": "fr",
    "parent": null,
    "longitude": 2.78332996368408,
    "latitude": 43.5,
    "regions": [
      "1072"
    ]
  },
  {
    "code": "15f42",
    "name": "Riom",
    "updated_at": "2014-09-22T21:19:27.442588Z",
    "country": "fr",
    "parent": null,
    "longitude": 3.11666989326477,
    "latitude": 45.9000015258789,
    "regions": [
      "106c"
    ]
  },
  {
    "code": "15f41",
    "name": "Riom-ès-Montagnes",
    "updated_at": "2014-09-22T21:19:27.406133Z",
    "country": "fr",
    "parent": null,
    "longitude": 2.66667008399963,
    "latitude": 45.2832984924316,
    "regions": [
      "106c"
    ]
  },
  {
    "code": "15f40",
    "name": "Rioux",
    "updated_at": "2014-09-22T21:19:27.370335Z",
    "country": "fr",
    "parent": null,
    "longitude": -0.716666996479034,
    "latitude": 45.63330078125,
    "regions": [
      "1232"
    ]
  },
  {
    "code": "15f3f",
    "name": "Riquewihr",
    "updated_at": "2014-09-22T21:19:27.348273Z",
    "country": "fr",
    "parent": null,
    "longitude": 7.30000019073486,
    "latitude": 48.1666984558105,
    "regions": [
      "106a"
    ]
  },
  {
    "code": "15f3e",
    "name": "Riscle",
    "updated_at": "2014-09-22T21:19:27.328242Z",
    "country": "fr",
    "parent": null,
    "longitude": -0.0833332985639572,
    "latitude": 43.6666984558105,
    "regions": [
      "1075"
    ]
  },
  {
    "code": "15f3d",
    "name": "Risoul",
    "updated_at": "2014-09-22T21:19:27.308450Z",
    "country": "fr",
    "parent": null,
    "longitude": 6.63332986831665,
    "latitude": 44.6500015258789,
    "regions": [
      "1079"
    ]
  },
  {
    "code": "15f3c",
    "name": "Ristolas",
    "updated_at": "2014-09-22T21:19:27.289374Z",
    "country": "fr",
    "parent": null,
    "longitude": 6.94999980926514,
    "latitude": 44.7667007446289,
    "regions": [
      "1079"
    ]
  },
  {
    "code": "15f3b",
    "name": "Rive-de-Gier",
    "updated_at": "2014-09-22T21:19:27.245307Z",
    "country": "fr",
    "parent": null,
    "longitude": 4.61667013168335,
    "latitude": 45.5332984924316,
    "regions": [
      "107a"
    ]
  },
  {
    "code": "15f3a",
    "name": "Rivedoux-Plage",
    "updated_at": "2014-09-22T21:19:27.217181Z",
    "country": "fr",
    "parent": null,
    "longitude": -1.27664995193481,
    "latitude": 46.1587982177734,
    "regions": [
      "117d",
      "1232"
    ]
  },
  {
    "code": "15f39",
    "name": "Riventosa",
    "updated_at": "2014-09-22T21:19:27.188098Z",
    "country": "fr",
    "parent": null,
    "longitude": 9.18332958221436,
    "latitude": 42.25,
    "regions": [
      "115d"
    ]
  },
  {
    "code": "15f38",
    "name": "Rivesaltes",
    "updated_at": "2014-09-22T21:19:27.153277Z",
    "country": "fr",
    "parent": null,
    "longitude": 2.86666989326477,
    "latitude": 42.7667007446289,
    "regions": [
      "1072"
    ]
  },
  {
    "code": "15f37",
    "name": "Rivière",
    "updated_at": "2014-09-22T21:19:27.116743Z",
    "country": "fr",
    "parent": null,
    "longitude": 0.266667008399963,
    "latitude": 47.1500015258789,
    "regions": [
      "106f"
    ]
  },
  {
    "code": "15f36",
    "name": "Rivières",
    "updated_at": "2014-09-22T21:19:27.082195Z",
    "country": "fr",
    "parent": null,
    "longitude": 1.96667003631592,
    "latitude": 43.9166984558105,
    "regions": [
      "1075"
    ]
  },
  {
    "code": "15f35",
    "name": "Rivière-sur-Tarn",
    "updated_at": "2014-09-22T21:19:27.045307Z",
    "country": "fr",
    "parent": null,
    "longitude": 3.13333010673523,
    "latitude": 44.1833000183105,
    "regions": [
      "1075"
    ]
  },
  {
    "code": "15f34",
    "name": "Rixheim",
    "updated_at": "2014-09-22T21:19:27.025067Z",
    "country": "fr",
    "parent": null,
    "longitude": 7.40000009536743,
    "latitude": 47.7667007446289,
    "regions": [
      "106a"
    ]
  },
  {
    "code": "15f33",
    "name": "Roanne",
    "updated_at": "2014-09-22T21:19:27.005215Z",
    "country": "fr",
    "parent": null,
    "longitude": 4.06666994094849,
    "latitude": 46.0332984924316,
    "regions": [
      "107a"
    ]
  },
  {
    "code": "15f32",
    "name": "Robion en Luberon",
    "updated_at": "2014-09-22T21:19:26.985155Z",
    "country": "fr",
    "parent": null,
    "longitude": 5.11667013168335,
    "latitude": 43.8499984741211,
    "regions": [
      "1079"
    ]
  },
  {
    "code": "15f31",
    "name": "Rocamadour",
    "updated_at": "2014-09-22T21:19:26.961851Z",
    "country": "fr",
    "parent": null,
    "longitude": 1.63332998752594,
    "latitude": 44.7999992370605,
    "regions": [
      "1075"
    ]
  },
  {
    "code": "15f30",
    "name": "Rocbaron",
    "updated_at": "2014-09-22T21:19:26.935490Z",
    "country": "fr",
    "parent": null,
    "longitude": 6.08333015441895,
    "latitude": 43.2999992370605,
    "regions": [
      "1079"
    ]
  },
  {
    "code": "15f2f",
    "name": "Rochebrune",
    "updated_at": "2014-09-22T21:19:26.909164Z",
    "country": "fr",
    "parent": null,
    "longitude": 5.25,
    "latitude": 44.3333015441895,
    "regions": [
      "107a"
    ]
  },
  {
    "code": "15f2e",
    "name": "Rochechouart",
    "updated_at": "2014-09-22T21:19:26.871587Z",
    "country": "fr",
    "parent": null,
    "longitude": 0.816667020320892,
    "latitude": 45.8166999816895,
    "regions": [
      "1073"
    ]
  },
  {
    "code": "15f2d",
    "name": "Rochecorbon",
    "updated_at": "2014-09-22T21:19:26.836913Z",
    "country": "fr",
    "parent": null,
    "longitude": 0.75,
    "latitude": 47.4166984558105,
    "regions": [
      "106f"
    ]
  },
  {
    "code": "15f2c",
    "name": "Rochefort",
    "updated_at": "2014-09-22T21:19:26.788135Z",
    "country": "fr",
    "parent": null,
    "longitude": -0.983332991600037,
    "latitude": 45.9333000183105,
    "regions": [
      "1232"
    ]
  },
  {
    "code": "15f2b",
    "name": "Rochefort-du-Gard",
    "updated_at": "2014-09-22T21:19:26.769993Z",
    "country": "fr",
    "parent": null,
    "longitude": 4.68333005905151,
    "latitude": 43.9667015075684,
    "regions": [
      "1072",
      "1079"
    ]
  },
  {
    "code": "15f2a",
    "name": "Rochefort-en-Terre",
    "updated_at": "2014-09-22T21:19:26.751421Z",
    "country": "fr",
    "parent": null,
    "longitude": -2.33332991600037,
    "latitude": 47.7000007629395,
    "regions": [
      "106d"
    ]
  },
  {
    "code": "15f29",
    "name": "Rochefort-en-Yvelines",
    "updated_at": "2014-09-22T21:19:26.732642Z",
    "country": "fr",
    "parent": null,
    "longitude": 1.9833300113678,
    "latitude": 48.5833015441895,
    "regions": [
      "116b"
    ]
  },
  {
    "code": "15f28",
    "name": "Rochefort-sur-Loire",
    "updated_at": "2014-09-22T21:19:26.713797Z",
    "country": "fr",
    "parent": null,
    "longitude": -0.649999976158142,
    "latitude": 47.3499984741211,
    "regions": [
      "1077"
    ]
  },
  {
    "code": "15f27",
    "name": "Rochefort-sur-Nenon",
    "updated_at": "2014-09-22T21:19:26.685168Z",
    "country": "fr",
    "parent": null,
    "longitude": 5.56666994094849,
    "latitude": 47.11669921875,
    "regions": [
      "1071"
    ]
  },
  {
    "code": "15f26",
    "name": "Rochegude",
    "updated_at": "2014-09-22T21:19:26.656337Z",
    "country": "fr",
    "parent": null,
    "longitude": 4.83333015441895,
    "latitude": 44.25,
    "regions": [
      "1079",
      "107a"
    ]
  },
  {
    "code": "15f25",
    "name": "Rochejean",
    "updated_at": "2014-09-22T21:19:26.628076Z",
    "country": "fr",
    "parent": null,
    "longitude": 6.30000019073486,
    "latitude": 46.75,
    "regions": []
  },
  {
    "code": "15f24",
    "name": "Rochemaure",
    "updated_at": "2014-09-22T21:19:26.589799Z",
    "country": "fr",
    "parent": null,
    "longitude": 4.69999980926514,
    "latitude": 44.5833015441895,
    "regions": [
      "107a"
    ]
  },
  {
    "code": "15f23",
    "name": "Rochemenier",
    "updated_at": "2014-09-22T21:19:26.555023Z",
    "country": "fr",
    "parent": null,
    "longitude": -0.300000011920929,
    "latitude": 47.2332992553711,
    "regions": [
      "1077"
    ]
  },
  {
    "code": "15f22",
    "name": "Rocher",
    "updated_at": "2014-09-22T21:19:26.507223Z",
    "country": "fr",
    "parent": null,
    "longitude": 4.30000019073486,
    "latitude": 44.5666999816895,
    "regions": [
      "107a"
    ]
  },
  {
    "code": "15f21",
    "name": "Roche-Saint-Secret",
    "updated_at": "2014-09-22T21:19:26.489115Z",
    "country": "fr",
    "parent": null,
    "longitude": 5.03332996368408,
    "latitude": 44.4832992553711,
    "regions": [
      "107a"
    ]
  },
  {
    "code": "15f20",
    "name": "Rochessauve",
    "updated_at": "2014-09-22T21:19:26.470302Z",
    "country": "fr",
    "parent": null,
    "longitude": 4.61667013168335,
    "latitude": 44.6833000183105,
    "regions": [
      "107a"
    ]
  },
  {
    "code": "15f1f",
    "name": "Roche-sur-Linotte-et-Sorans-les-Cordiers",
    "updated_at": "2014-09-22T21:19:26.451768Z",
    "country": "fr",
    "parent": null,
    "longitude": 6.19999980926514,
    "latitude": 47.4667015075684,
    "regions": [
      "1071"
    ]
  },
  {
    "code": "15f1e",
    "name": "Rocroi",
    "updated_at": "2014-09-22T21:19:26.431331Z",
    "country": "fr",
    "parent": null,
    "longitude": 4.51667022705078,
    "latitude": 49.9166984558105,
    "regions": [
      "1070"
    ]
  },
  {
    "code": "15f1d",
    "name": "Rodez",
    "updated_at": "2014-09-22T21:19:26.408148Z",
    "country": "fr",
    "parent": null,
    "longitude": 2.57389,
    "latitude": 44.350833,
    "regions": [
      "1075"
    ]
  },
  {
    "code": "15f1c",
    "name": "Rognes",
    "updated_at": "2014-09-22T21:19:26.382003Z",
    "country": "fr",
    "parent": null,
    "longitude": 5.34999990463257,
    "latitude": 43.6666984558105,
    "regions": [
      "1079"
    ]
  },
  {
    "code": "15f1b",
    "name": "Rognonas",
    "updated_at": "2014-09-22T21:19:26.349451Z",
    "country": "fr",
    "parent": null,
    "longitude": 4.80000019073486,
    "latitude": 43.9000015258789,
    "regions": [
      "1079"
    ]
  },
  {
    "code": "15f1a",
    "name": "Rogny",
    "updated_at": "2014-09-22T21:19:26.311875Z",
    "country": "fr",
    "parent": null,
    "longitude": 2.88333010673523,
    "latitude": 47.75,
    "regions": [
      "106e"
    ]
  },
  {
    "code": "15f19",
    "name": "Rohan",
    "updated_at": "2014-09-22T21:19:26.276160Z",
    "country": "fr",
    "parent": null,
    "longitude": -2.7666699886322,
    "latitude": 48.0666999816895,
    "regions": [
      "106d"
    ]
  },
  {
    "code": "15f18",
    "name": "Roiffé",
    "updated_at": "2014-09-22T21:19:26.252798Z",
    "country": "fr",
    "parent": null,
    "longitude": 0.0528717003762722,
    "latitude": 47.1254997253418,
    "regions": [
      "1232"
    ]
  },
  {
    "code": "15f17",
    "name": "Roisel",
    "updated_at": "2014-09-22T21:19:26.233089Z",
    "country": "fr",
    "parent": null,
    "longitude": 3.09999990463257,
    "latitude": 49.9500007629395,
    "regions": [
      "1078"
    ]
  },
  {
    "code": "15f16",
    "name": "Roissy-en-France",
    "updated_at": "2014-09-22T21:19:26.213258Z",
    "country": "fr",
    "parent": null,
    "longitude": 2.5166699886322,
    "latitude": 49.0,
    "regions": [
      "116b"
    ]
  },
  {
    "code": "15f15",
    "name": "Roizey",
    "updated_at": "2016-02-09T09:32:33.366772Z",
    "country": "fr",
    "parent": null,
    "longitude": 4.66666984558105,
    "latitude": 45.38330078125,
    "regions": [
      "107a"
    ]
  },
  {
    "code": "15f14",
    "name": "Rolleboise",
    "updated_at": "2014-09-22T21:19:26.172517Z",
    "country": "fr",
    "parent": null,
    "longitude": 1.61667001247406,
    "latitude": 49.0167007446289,
    "regions": [
      "116b"
    ]
  },
  {
    "code": "15f13",
    "name": "Romagne",
    "updated_at": "2014-09-22T21:19:26.145463Z",
    "country": "fr",
    "parent": null,
    "longitude": -0.183332994580269,
    "latitude": 44.7667007446289,
    "regions": [
      "106b"
    ]
  },
  {
    "code": "15f12",
    "name": "Romagne",
    "updated_at": "2014-09-22T21:19:26.118406Z",
    "country": "fr",
    "parent": null,
    "longitude": 0.300000011920929,
    "latitude": 46.2667007446289,
    "regions": [
      "1232"
    ]
  },
  {
    "code": "15f11",
    "name": "Romagne-sous-Montfaucon",
    "updated_at": "2014-09-22T21:19:26.091829Z",
    "country": "fr",
    "parent": null,
    "longitude": 5.08333015441895,
    "latitude": 49.3333015441895,
    "regions": [
      "1074"
    ]
  },
  {
    "code": "15f10",
    "name": "Romagnieu",
    "updated_at": "2014-09-22T21:19:26.057045Z",
    "country": "fr",
    "parent": null,
    "longitude": 5.63332986831665,
    "latitude": 45.5666999816895,
    "regions": [
      "107a"
    ]
  },
  {
    "code": "15f0f",
    "name": "Romanèche-Thorins",
    "updated_at": "2014-09-22T21:19:26.020130Z",
    "country": "fr",
    "parent": null,
    "longitude": 4.73332977294922,
    "latitude": 46.1833000183105,
    "regions": [
      "106e"
    ]
  },
  {
    "code": "15f0e",
    "name": "Romans-sur-Isère",
    "updated_at": "2014-09-22T21:19:25.983050Z",
    "country": "fr",
    "parent": null,
    "longitude": 5.05000019073486,
    "latitude": 45.0499992370605,
    "regions": [
      "107a"
    ]
  },
  {
    "code": "15f0d",
    "name": "Rombach-le-Franc",
    "updated_at": "2014-09-22T21:19:25.963997Z",
    "country": "fr",
    "parent": null,
    "longitude": 7.26667022705078,
    "latitude": 48.2832984924316,
    "regions": [
      "106a"
    ]
  },
  {
    "code": "15f0c",
    "name": "Romegoux",
    "updated_at": "2014-09-22T21:19:25.944061Z",
    "country": "fr",
    "parent": null,
    "longitude": -0.800000011920929,
    "latitude": 45.86669921875,
    "regions": [
      "1232"
    ]
  },
  {
    "code": "15f0b",
    "name": "Romenay",
    "updated_at": "2014-09-22T21:19:25.923893Z",
    "country": "fr",
    "parent": null,
    "longitude": 5.06666994094849,
    "latitude": 46.5,
    "regions": [
      "106e"
    ]
  },
  {
    "code": "15f0a",
    "name": "Romeries",
    "updated_at": "2014-09-22T21:19:25.903577Z",
    "country": "fr",
    "parent": null,
    "longitude": 3.53332996368408,
    "latitude": 50.2000007629395,
    "regions": [
      "1076",
      "1230"
    ]
  },
  {
    "code": "15f09",
    "name": "Romilly-sur-Seine",
    "updated_at": "2014-09-22T21:19:25.858296Z",
    "country": "fr",
    "parent": null,
    "longitude": 3.71667003631592,
    "latitude": 48.5167007446289,
    "regions": [
      "1070"
    ]
  },
  {
    "code": "15f08",
    "name": "Romorantin",
    "updated_at": "2014-09-22T21:19:25.829572Z",
    "country": "fr",
    "parent": null,
    "longitude": 1.75,
    "latitude": 47.36669921875,
    "regions": [
      "106f"
    ]
  },
  {
    "code": "15f07",
    "name": "Ronce-les-Bains",
    "updated_at": "2014-09-22T21:19:25.800614Z",
    "country": "fr",
    "parent": null,
    "longitude": -1.16252994537354,
    "latitude": 45.7977981567383,
    "regions": [
      "1232"
    ]
  },
  {
    "code": "15f06",
    "name": "Ronchamp",
    "updated_at": "2014-09-22T21:19:25.765356Z",
    "country": "fr",
    "parent": null,
    "longitude": 6.65000009536743,
    "latitude": 47.7000007629395,
    "regions": [
      "1071"
    ]
  },
  {
    "code": "15f05",
    "name": "Ronchin",
    "updated_at": "2014-09-22T21:19:25.728575Z",
    "country": "fr",
    "parent": null,
    "longitude": 3.09999990463257,
    "latitude": 50.5999984741211,
    "regions": [
      "1076",
      "1230"
    ]
  },
  {
    "code": "15f04",
    "name": "Roncq",
    "updated_at": "2014-09-22T21:19:25.695940Z",
    "country": "fr",
    "parent": null,
    "longitude": 3.11666989326477,
    "latitude": 50.75,
    "regions": [
      "1076",
      "1230"
    ]
  },
  {
    "code": "15f03",
    "name": "Ronno",
    "updated_at": "2014-09-22T21:19:25.677236Z",
    "country": "fr",
    "parent": null,
    "longitude": 4.38332986831665,
    "latitude": 45.9832992553711,
    "regions": [
      "107a"
    ]
  },
  {
    "code": "15f02",
    "name": "Roppenheim",
    "updated_at": "2014-09-22T21:19:25.658908Z",
    "country": "fr",
    "parent": null,
    "longitude": 8.05000019073486,
    "latitude": 48.8499984741211,
    "regions": [
      "106a"
    ]
  },
  {
    "code": "15f01",
    "name": "Roquebrune",
    "updated_at": "2014-09-22T21:19:25.640137Z",
    "country": "fr",
    "parent": null,
    "longitude": 0.0333333015441895,
    "latitude": 44.61669921875,
    "regions": [
      "106b"
    ]
  },
  {
    "code": "15f00",
    "name": "Roquebrune-Cap-Martin",
    "updated_at": "2014-09-22T21:19:25.621037Z",
    "country": "fr",
    "parent": null,
    "longitude": 7.46667003631592,
    "latitude": 43.7667007446289,
    "regions": [
      "1079"
    ]
  },
  {
    "code": "15eff",
    "name": "Roquebrune-sur-Argens",
    "updated_at": "2016-02-09T09:32:28.180710Z",
    "country": "fr",
    "parent": null,
    "longitude": 6.63332986831665,
    "latitude": 43.4333000183105,
    "regions": [
      "1079"
    ]
  },
  {
    "code": "15efe",
    "name": "Roquefort",
    "updated_at": "2014-09-22T21:19:25.546238Z",
    "country": "fr",
    "parent": null,
    "longitude": -0.31666699051857,
    "latitude": 44.0332984924316,
    "regions": [
      "106b"
    ]
  },
  {
    "code": "15efd",
    "name": "Roquefort",
    "updated_at": "2014-09-22T21:19:25.515074Z",
    "country": "fr",
    "parent": null,
    "longitude": 0.550000011920929,
    "latitude": 44.1833000183105,
    "regions": [
      "106b"
    ]
  },
  {
    "code": "15efc",
    "name": "Roquefort-des-Corbières",
    "updated_at": "2014-09-22T21:19:25.441197Z",
    "country": "fr",
    "parent": null,
    "longitude": 2.95000004768372,
    "latitude": 43.0,
    "regions": [
      "1072"
    ]
  },
  {
    "code": "15efb",
    "name": "Roquemaure",
    "updated_at": "2014-09-22T21:19:25.415929Z",
    "country": "fr",
    "parent": null,
    "longitude": 4.78332996368408,
    "latitude": 44.0499992370605,
    "regions": [
      "1072",
      "1079"
    ]
  },
  {
    "code": "15efa",
    "name": "Roquetoire",
    "updated_at": "2014-09-22T21:19:25.397574Z",
    "country": "fr",
    "parent": null,
    "longitude": 2.34999990463257,
    "latitude": 50.6666984558105,
    "regions": [
      "1076"
    ]
  },
  {
    "code": "15ef9",
    "name": "Roquevaire",
    "updated_at": "2014-09-22T21:19:25.379478Z",
    "country": "fr",
    "parent": null,
    "longitude": 5.59999990463257,
    "latitude": 43.3499984741211,
    "regions": [
      "1079"
    ]
  },
  {
    "code": "15ef8",
    "name": "Rorschwihr",
    "updated_at": "2014-09-22T21:19:25.361082Z",
    "country": "fr",
    "parent": null,
    "longitude": 7.36667013168335,
    "latitude": 48.2167015075684,
    "regions": [
      "106a"
    ]
  },
  {
    "code": "15ef7",
    "name": "Rosans",
    "updated_at": "2014-09-22T21:19:25.341140Z",
    "country": "fr",
    "parent": null,
    "longitude": 5.46667003631592,
    "latitude": 44.38330078125,
    "regions": [
      "1079",
      "107a"
    ]
  },
  {
    "code": "15ef6",
    "name": "Roscanvel",
    "updated_at": "2014-09-22T21:19:25.320470Z",
    "country": "fr",
    "parent": null,
    "longitude": -4.55000019073486,
    "latitude": 48.3166999816895,
    "regions": [
      "106d"
    ]
  },
  {
    "code": "15ef5",
    "name": "Roscoff",
    "updated_at": "2014-09-22T21:19:25.294292Z",
    "country": "fr",
    "parent": null,
    "longitude": -3.98537993431091,
    "latitude": 48.7224998474121,
    "regions": [
      "106d"
    ]
  },
  {
    "code": "15ef4",
    "name": "Rosheim",
    "updated_at": "2014-09-22T21:19:25.267940Z",
    "country": "fr",
    "parent": null,
    "longitude": 7.46667003631592,
    "latitude": 48.5,
    "regions": [
      "106a"
    ]
  },
  {
    "code": "15ef3",
    "name": "Rosières",
    "updated_at": "2014-09-22T21:19:25.236653Z",
    "country": "fr",
    "parent": null,
    "longitude": 4.28332996368408,
    "latitude": 44.4832992553711,
    "regions": [
      "107a"
    ]
  },
  {
    "code": "15ef2",
    "name": "Rosières",
    "updated_at": "2014-09-22T21:19:25.199440Z",
    "country": "fr",
    "parent": null,
    "longitude": 3.9833300113678,
    "latitude": 45.13330078125,
    "regions": [
      "106c"
    ]
  },
  {
    "code": "15ef1",
    "name": "Roziers-dʼÉgletons",
    "updated_at": "2014-09-22T21:19:25.163251Z",
    "country": "fr",
    "parent": null,
    "longitude": 2.0166699886322,
    "latitude": 45.38330078125,
    "regions": []
  },
  {
    "code": "15ef0",
    "name": "Rosny-sous-Bois",
    "updated_at": "2014-09-22T21:19:25.139554Z",
    "country": "fr",
    "parent": null,
    "longitude": 2.4833300113678,
    "latitude": 48.86669921875,
    "regions": [
      "116b"
    ]
  },
  {
    "code": "15eef",
    "name": "Rospez",
    "updated_at": "2014-09-22T21:19:25.119903Z",
    "country": "fr",
    "parent": null,
    "longitude": -3.38333010673523,
    "latitude": 48.7332992553711,
    "regions": [
      "106d"
    ]
  },
  {
    "code": "15eee",
    "name": "Rosporden",
    "updated_at": "2014-09-22T21:19:25.099900Z",
    "country": "fr",
    "parent": null,
    "longitude": -3.83332991600037,
    "latitude": 47.9667015075684,
    "regions": [
      "106d"
    ]
  },
  {
    "code": "15eed",
    "name": "Rostrenen",
    "updated_at": "2014-09-22T21:19:25.079902Z",
    "country": "fr",
    "parent": null,
    "longitude": -3.31666994094849,
    "latitude": 48.2332992553711,
    "regions": [
      "106d"
    ]
  },
  {
    "code": "15eec",
    "name": "Rottani",
    "updated_at": "2014-09-22T21:19:25.061995Z",
    "country": "fr",
    "parent": null,
    "longitude": 9.44999980926514,
    "latitude": 42.13330078125,
    "regions": []
  },
  {
    "code": "15eeb",
    "name": "Roubaix",
    "updated_at": "2014-09-22T21:19:25.038488Z",
    "country": "fr",
    "parent": null,
    "longitude": 3.16667008399963,
    "latitude": 50.7000007629395,
    "regions": [
      "1076",
      "1230"
    ]
  },
  {
    "code": "15eea",
    "name": "Roubion",
    "updated_at": "2014-09-22T21:19:24.980739Z",
    "country": "fr",
    "parent": null,
    "longitude": 7.05000019073486,
    "latitude": 44.0833015441895,
    "regions": [
      "1079"
    ]
  },
  {
    "code": "15ee9",
    "name": "Rouen",
    "updated_at": "2014-09-22T21:19:24.947646Z",
    "country": "fr",
    "parent": null,
    "longitude": 1.09887027740479,
    "latitude": 49.4434280395508,
    "regions": [
      "1335"
    ]
  },
  {
    "code": "15ee8",
    "name": "Rouessé-Vassé",
    "updated_at": "2014-09-22T21:19:24.911430Z",
    "country": "fr",
    "parent": null,
    "longitude": -0.200000002980232,
    "latitude": 48.1666984558105,
    "regions": [
      "1077"
    ]
  },
  {
    "code": "15ee7",
    "name": "Rouffach",
    "updated_at": "2014-09-22T21:19:24.872953Z",
    "country": "fr",
    "parent": null,
    "longitude": 7.28332996368408,
    "latitude": 47.9667015075684,
    "regions": [
      "106a"
    ]
  },
  {
    "code": "15ee6",
    "name": "Rouffiac-des-Corbières",
    "updated_at": "2014-09-22T21:19:24.835947Z",
    "country": "fr",
    "parent": null,
    "longitude": 2.54999995231628,
    "latitude": 42.88330078125,
    "regions": [
      "1072"
    ]
  },
  {
    "code": "15ee5",
    "name": "Rouffiac-Tolosan",
    "updated_at": "2014-09-22T21:19:24.816118Z",
    "country": "fr",
    "parent": null,
    "longitude": 1.5166699886322,
    "latitude": 43.6666984558105,
    "regions": [
      "1075"
    ]
  },
  {
    "code": "15ee4",
    "name": "Rouffignac Saint-Cernin",
    "updated_at": "2014-09-22T21:19:24.795866Z",
    "country": "fr",
    "parent": null,
    "longitude": 0.978812992572784,
    "latitude": 45.0466003417969,
    "regions": [
      "106b"
    ]
  },
  {
    "code": "15ee3",
    "name": "Rouffignac-de-Sigoulès",
    "updated_at": "2014-09-22T21:19:24.752586Z",
    "country": "fr",
    "parent": null,
    "longitude": 0.449999988079071,
    "latitude": 44.7832984924316,
    "regions": [
      "106b"
    ]
  },
  {
    "code": "15ee2",
    "name": "Rouillac",
    "updated_at": "2014-09-22T21:19:24.724299Z",
    "country": "fr",
    "parent": null,
    "longitude": -0.0666666999459267,
    "latitude": 45.7832984924316,
    "regions": [
      "1232"
    ]
  },
  {
    "code": "15ee1",
    "name": "Rouilly-Sacey",
    "updated_at": "2014-09-22T21:19:24.695371Z",
    "country": "fr",
    "parent": null,
    "longitude": 4.26667022705078,
    "latitude": 48.3499984741211,
    "regions": [
      "1070"
    ]
  },
  {
    "code": "15ee0",
    "name": "Roujan",
    "updated_at": "2014-09-22T21:19:24.660838Z",
    "country": "fr",
    "parent": null,
    "longitude": 3.29999995231628,
    "latitude": 43.5167007446289,
    "regions": [
      "1072"
    ]
  },
  {
    "code": "15edf",
    "name": "Roullet",
    "updated_at": "2014-09-22T21:19:24.625260Z",
    "country": "fr",
    "parent": null,
    "longitude": 0.0500000007450581,
    "latitude": 45.5833015441895,
    "regions": [
      "1232"
    ]
  },
  {
    "code": "15ede",
    "name": "Roumazières",
    "updated_at": "2014-09-22T21:19:24.589488Z",
    "country": "fr",
    "parent": null,
    "longitude": 0.583333015441895,
    "latitude": 45.86669921875,
    "regions": [
      "1232"
    ]
  },
  {
    "code": "15edd",
    "name": "Roumoules",
    "updated_at": "2014-09-22T21:19:24.571260Z",
    "country": "fr",
    "parent": null,
    "longitude": 6.13332986831665,
    "latitude": 43.8333015441895,
    "regions": [
      "1079"
    ]
  },
  {
    "code": "15edc",
    "name": "Roure",
    "updated_at": "2014-09-22T21:19:21.843551Z",
    "country": "fr",
    "parent": null,
    "longitude": 7.08333015441895,
    "latitude": 44.0833015441895,
    "regions": [
      "1079"
    ]
  },
  {
    "code": "15edb",
    "name": "Roussac",
    "updated_at": "2014-09-22T21:19:21.822888Z",
    "country": "fr",
    "parent": null,
    "longitude": 1.20000004768372,
    "latitude": 46.0833015441895,
    "regions": [
      "1073"
    ]
  },
  {
    "code": "15eda",
    "name": "Roussent",
    "updated_at": "2014-09-22T21:19:21.798910Z",
    "country": "fr",
    "parent": null,
    "longitude": 1.78332996368408,
    "latitude": 50.36669921875,
    "regions": [
      "1076"
    ]
  },
  {
    "code": "15ed9",
    "name": "Rousset",
    "updated_at": "2014-09-22T21:19:21.768863Z",
    "country": "fr",
    "parent": null,
    "longitude": 5.61667013168335,
    "latitude": 43.4832992553711,
    "regions": [
      "1079"
    ]
  },
  {
    "code": "15ed8",
    "name": "Rousset-les-Vignes",
    "updated_at": "2014-09-22T21:19:21.744402Z",
    "country": "fr",
    "parent": null,
    "longitude": 5.06666994094849,
    "latitude": 44.4166984558105,
    "regions": [
      "107a"
    ]
  },
  {
    "code": "15ed7",
    "name": "Roussières",
    "updated_at": "2014-09-22T21:19:21.713807Z",
    "country": "fr",
    "parent": null,
    "longitude": 3.71667003631592,
    "latitude": 43.75,
    "regions": [
      "1072"
    ]
  },
  {
    "code": "15ed6",
    "name": "Roussillon",
    "updated_at": "2014-09-22T21:19:21.675677Z",
    "country": "fr",
    "parent": null,
    "longitude": 5.28332996368408,
    "latitude": 43.9000015258789,
    "regions": [
      "1079"
    ]
  },
  {
    "code": "15ed5",
    "name": "Roussillon en Isere",
    "updated_at": "2014-09-22T21:19:21.638082Z",
    "country": "fr",
    "parent": null,
    "longitude": 4.81666994094849,
    "latitude": 45.36669921875,
    "regions": [
      "107a"
    ]
  },
  {
    "code": "15ed4",
    "name": "Roussines",
    "updated_at": "2014-09-22T21:19:21.612806Z",
    "country": "fr",
    "parent": null,
    "longitude": 0.616666972637177,
    "latitude": 45.7167015075684,
    "regions": [
      "1232"
    ]
  },
  {
    "code": "15ed3",
    "name": "Rousson",
    "updated_at": "2014-09-22T21:19:21.590520Z",
    "country": "fr",
    "parent": null,
    "longitude": 4.15000009536743,
    "latitude": 44.2000007629395,
    "regions": [
      "1072"
    ]
  },
  {
    "code": "15ed2",
    "name": "Roussy",
    "updated_at": "2014-09-22T21:19:21.568507Z",
    "country": "fr",
    "parent": null,
    "longitude": 2.58332991600037,
    "latitude": 44.8166999816895,
    "regions": [
      "106c"
    ]
  },
  {
    "code": "15ed1",
    "name": "Rouves",
    "updated_at": "2014-09-22T21:19:21.546243Z",
    "country": "fr",
    "parent": null,
    "longitude": 6.19999980926514,
    "latitude": 48.9000015258789,
    "regions": []
  },
  {
    "code": "15ed0",
    "name": "Rouvray",
    "updated_at": "2014-09-22T21:19:21.523945Z",
    "country": "fr",
    "parent": null,
    "longitude": 4.09999990463257,
    "latitude": 47.4166984558105,
    "regions": [
      "106e"
    ]
  },
  {
    "code": "15ecf",
    "name": "Rouvres",
    "updated_at": "2014-09-22T21:19:21.499446Z",
    "country": "fr",
    "parent": null,
    "longitude": -0.166666999459267,
    "latitude": 49.0,
    "regions": [
      "1334"
    ]
  },
  {
    "code": "15ece",
    "name": "Rouvres-en-Xaintois",
    "updated_at": "2014-09-22T21:19:21.474476Z",
    "country": "fr",
    "parent": null,
    "longitude": 6.03332996368408,
    "latitude": 48.3166999816895,
    "regions": [
      "1074"
    ]
  },
  {
    "code": "15ecd",
    "name": "Rouvres-la-Chétive",
    "updated_at": "2014-09-22T21:19:21.447516Z",
    "country": "fr",
    "parent": null,
    "longitude": 5.78332996368408,
    "latitude": 48.3166999816895,
    "regions": [
      "1074"
    ]
  },
  {
    "code": "15ecc",
    "name": "Royan",
    "updated_at": "2014-09-22T21:19:21.377412Z",
    "country": "fr",
    "parent": null,
    "longitude": -1.03332996368408,
    "latitude": 45.63330078125,
    "regions": [
      "1232"
    ]
  },
  {
    "code": "15ecb",
    "name": "Royat",
    "updated_at": "2014-09-22T21:19:21.338146Z",
    "country": "fr",
    "parent": null,
    "longitude": 3.04999995231628,
    "latitude": 45.7667007446289,
    "regions": [
      "106c"
    ]
  },
  {
    "code": "15eca",
    "name": "Roye",
    "updated_at": "2014-09-22T21:19:21.318121Z",
    "country": "fr",
    "parent": null,
    "longitude": 2.79999995231628,
    "latitude": 49.7000007629395,
    "regions": [
      "1078"
    ]
  },
  {
    "code": "15ec9",
    "name": "Royères-Saint-Léonard",
    "updated_at": "2014-09-22T21:19:21.298067Z",
    "country": "fr",
    "parent": null,
    "longitude": 1.43333005905151,
    "latitude": 45.86669921875,
    "regions": [
      "1073"
    ]
  },
  {
    "code": "15ec8",
    "name": "Rozérieulles",
    "updated_at": "2014-09-22T21:19:21.257114Z",
    "country": "fr",
    "parent": null,
    "longitude": 6.08333015441895,
    "latitude": 49.0999984741211,
    "regions": [
      "1074"
    ]
  },
  {
    "code": "15ec7",
    "name": "Roz-Landrieux",
    "updated_at": "2014-09-22T21:19:21.236305Z",
    "country": "fr",
    "parent": null,
    "longitude": -1.83333003520966,
    "latitude": 48.5332984924316,
    "regions": [
      "106d"
    ]
  },
  {
    "code": "15ec6",
    "name": "Rozoy-sur-Serre",
    "updated_at": "2014-09-22T21:19:21.211589Z",
    "country": "fr",
    "parent": null,
    "longitude": 4.13332986831665,
    "latitude": 49.7167015075684,
    "regions": [
      "1078"
    ]
  },
  {
    "code": "15ec5",
    "name": "Roz-sur-Couesnon",
    "updated_at": "2014-09-22T21:19:21.184832Z",
    "country": "fr",
    "parent": null,
    "longitude": -1.60000002384186,
    "latitude": 48.5833015441895,
    "regions": [
      "106d"
    ]
  },
  {
    "code": "15ec4",
    "name": "Ruaudin",
    "updated_at": "2014-09-22T21:19:21.157364Z",
    "country": "fr",
    "parent": null,
    "longitude": 0.266667008399963,
    "latitude": 47.9500007629395,
    "regions": [
      "1077"
    ]
  },
  {
    "code": "15ec3",
    "name": "Rubelles",
    "updated_at": "2014-09-22T21:19:21.118718Z",
    "country": "fr",
    "parent": null,
    "longitude": 2.68333005905151,
    "latitude": 48.5666999816895,
    "regions": [
      "116b"
    ]
  },
  {
    "code": "15ec2",
    "name": "Ruch",
    "updated_at": "2014-09-22T21:19:21.081075Z",
    "country": "fr",
    "parent": null,
    "longitude": -0.0333333015441895,
    "latitude": 44.7667007446289,
    "regions": [
      "106b"
    ]
  },
  {
    "code": "15ec1",
    "name": "Rue",
    "updated_at": "2014-09-22T21:19:21.048163Z",
    "country": "fr",
    "parent": null,
    "longitude": 1.66666996479034,
    "latitude": 50.2667007446289,
    "regions": [
      "1078"
    ]
  },
  {
    "code": "15ec0",
    "name": "Ruederbach",
    "updated_at": "2014-09-22T21:19:21.026178Z",
    "country": "fr",
    "parent": null,
    "longitude": 7.26667022705078,
    "latitude": 47.5666999816895,
    "regions": [
      "106a"
    ]
  },
  {
    "code": "15ebf",
    "name": "Rueil-Malmaison",
    "updated_at": "2014-09-22T21:19:21.006201Z",
    "country": "fr",
    "parent": null,
    "longitude": 2.20000004768372,
    "latitude": 48.88330078125,
    "regions": [
      "116b"
    ]
  },
  {
    "code": "15ebe",
    "name": "Ruffey-lès-Échirey",
    "updated_at": "2014-09-22T21:19:20.985509Z",
    "country": "fr",
    "parent": null,
    "longitude": 5.08333015441895,
    "latitude": 47.36669921875,
    "regions": [
      "106e"
    ]
  },
  {
    "code": "15ebd",
    "name": "Ruffieu",
    "updated_at": "2014-09-22T21:19:20.942432Z",
    "country": "fr",
    "parent": null,
    "longitude": 5.66666984558105,
    "latitude": 46.0,
    "regions": [
      "107a"
    ]
  },
  {
    "code": "15ebc",
    "name": "Rugney",
    "updated_at": "2014-09-22T21:19:20.913774Z",
    "country": "fr",
    "parent": null,
    "longitude": 6.25,
    "latitude": 48.3499984741211,
    "regions": [
      "1074"
    ]
  },
  {
    "code": "15ebb",
    "name": "Ruillé-sur-Loir",
    "updated_at": "2014-09-22T21:19:20.883950Z",
    "country": "fr",
    "parent": null,
    "longitude": 0.616666972637177,
    "latitude": 47.75,
    "regions": [
      "1077"
    ]
  },
  {
    "code": "15eba",
    "name": "Rumilly",
    "updated_at": "2014-09-22T21:19:20.782120Z",
    "country": "fr",
    "parent": null,
    "longitude": 5.94999980926514,
    "latitude": 45.86669921875,
    "regions": [
      "107a"
    ]
  },
  {
    "code": "15eb9",
    "name": "Runan",
    "updated_at": "2014-09-22T21:19:20.749705Z",
    "country": "fr",
    "parent": null,
    "longitude": -3.20000004768372,
    "latitude": 48.7000007629395,
    "regions": []
  },
  {
    "code": "15eb8",
    "name": "Rungis",
    "updated_at": "2014-09-22T21:19:20.727956Z",
    "country": "fr",
    "parent": null,
    "longitude": 2.34999990463257,
    "latitude": 48.75,
    "regions": [
      "116b"
    ]
  },
  {
    "code": "15eb7",
    "name": "Ruoms",
    "updated_at": "2014-09-22T21:19:20.706059Z",
    "country": "fr",
    "parent": null,
    "longitude": 4.34999990463257,
    "latitude": 44.4500007629395,
    "regions": [
      "107a"
    ]
  },
  {
    "code": "15eb6",
    "name": "Rupt-sur-Moselle",
    "updated_at": "2014-09-22T21:19:20.684095Z",
    "country": "fr",
    "parent": null,
    "longitude": 6.66666984558105,
    "latitude": 47.9333000183105,
    "regions": [
      "1074"
    ]
  },
  {
    "code": "15eb5",
    "name": "Rustiques",
    "updated_at": "2014-09-22T21:19:20.641737Z",
    "country": "fr",
    "parent": null,
    "longitude": 2.4833300113678,
    "latitude": 43.2167015075684,
    "regions": [
      "1072"
    ]
  },
  {
    "code": "15eb4",
    "name": "Rustrel",
    "updated_at": "2014-09-22T21:19:20.610958Z",
    "country": "fr",
    "parent": null,
    "longitude": 5.48332977294922,
    "latitude": 43.9166984558105,
    "regions": []
  },
  {
    "code": "15eb3",
    "name": "Rutali",
    "updated_at": "2014-09-22T21:19:20.586187Z",
    "country": "fr",
    "parent": null,
    "longitude": 9.35000038146973,
    "latitude": 42.5833015441895,
    "regions": [
      "115d"
    ]
  },
  {
    "code": "15eb2",
    "name": "Ruy",
    "updated_at": "2014-09-22T21:19:20.560392Z",
    "country": "fr",
    "parent": null,
    "longitude": 5.31666994094849,
    "latitude": 45.5833015441895,
    "regions": [
      "107a"
    ]
  },
  {
    "code": "15eb1",
    "name": "Ryes",
    "updated_at": "2014-09-22T21:19:20.520599Z",
    "country": "fr",
    "parent": null,
    "longitude": -0.616666972637177,
    "latitude": 49.3166999816895,
    "regions": [
      "1334"
    ]
  },
  {
    "code": "15eb0",
    "name": "Saales",
    "updated_at": "2014-09-22T21:19:20.480896Z",
    "country": "fr",
    "parent": null,
    "longitude": 7.11667013168335,
    "latitude": 48.3499984741211,
    "regions": [
      "106a"
    ]
  },
  {
    "code": "15eaf",
    "name": "Sables-dʼOr-les-Pins",
    "updated_at": "2014-09-22T21:19:20.449091Z",
    "country": "fr",
    "parent": null,
    "longitude": -2.40497994422913,
    "latitude": 48.6371994018555,
    "regions": [
      "106d"
    ]
  },
  {
    "code": "15eae",
    "name": "Sablé-sur-Sarthe",
    "updated_at": "2014-09-22T21:19:20.427355Z",
    "country": "fr",
    "parent": null,
    "longitude": -0.333332985639572,
    "latitude": 47.8333015441895,
    "regions": [
      "1077"
    ]
  },
  {
    "code": "15ead",
    "name": "Sablet",
    "updated_at": "2014-09-22T21:19:20.405645Z",
    "country": "fr",
    "parent": null,
    "longitude": 5.0,
    "latitude": 44.1833000183105,
    "regions": []
  },
  {
    "code": "15eac",
    "name": "Sablonceaux",
    "updated_at": "2014-09-22T21:19:20.383437Z",
    "country": "fr",
    "parent": null,
    "longitude": -0.883333027362823,
    "latitude": 45.7167015075684,
    "regions": [
      "1232"
    ]
  },
  {
    "code": "15eab",
    "name": "Sablons",
    "updated_at": "2014-09-22T21:19:20.360941Z",
    "country": "fr",
    "parent": null,
    "longitude": -0.183332994580269,
    "latitude": 45.0332984924316,
    "regions": []
  },
  {
    "code": "15eaa",
    "name": "Sabran",
    "updated_at": "2014-09-22T21:19:20.338366Z",
    "country": "fr",
    "parent": null,
    "longitude": 4.55000019073486,
    "latitude": 44.1500015258789,
    "regions": []
  },
  {
    "code": "15ea9",
    "name": "Sacey",
    "updated_at": "2014-09-22T21:19:20.313259Z",
    "country": "fr",
    "parent": null,
    "longitude": -1.45000004768372,
    "latitude": 48.5,
    "regions": [
      "1334"
    ]
  },
  {
    "code": "15ea8",
    "name": "Saclay",
    "updated_at": "2014-09-22T21:19:20.285935Z",
    "country": "fr",
    "parent": null,
    "longitude": 2.16667008399963,
    "latitude": 48.7332992553711,
    "regions": [
      "116b"
    ]
  },
  {
    "code": "15ea7",
    "name": "Sacquenville",
    "updated_at": "2014-09-22T21:19:20.252263Z",
    "country": "fr",
    "parent": null,
    "longitude": 1.06666994094849,
    "latitude": 49.0833015441895,
    "regions": [
      "1335"
    ]
  },
  {
    "code": "15ea6",
    "name": "Sadillac",
    "updated_at": "2014-09-22T21:19:20.213164Z",
    "country": "fr",
    "parent": null,
    "longitude": 0.483332991600037,
    "latitude": 44.7332992553711,
    "regions": [
      "106b"
    ]
  },
  {
    "code": "15ea5",
    "name": "Sadroc",
    "updated_at": "2014-09-22T21:19:20.172903Z",
    "country": "fr",
    "parent": null,
    "longitude": 1.54999995231628,
    "latitude": 45.2832984924316,
    "regions": [
      "1073"
    ]
  },
  {
    "code": "15ea4",
    "name": "Sagelat",
    "updated_at": "2014-09-22T21:19:20.147826Z",
    "country": "fr",
    "parent": null,
    "longitude": 1.0,
    "latitude": 44.7832984924316,
    "regions": [
      "106b"
    ]
  },
  {
    "code": "15ea3",
    "name": "Sagone",
    "updated_at": "2014-09-22T21:19:20.125986Z",
    "country": "fr",
    "parent": null,
    "longitude": 8.69999980926514,
    "latitude": 42.0999984741211,
    "regions": [
      "115d"
    ]
  },
  {
    "code": "15ea2",
    "name": "Sagriès",
    "updated_at": "2014-09-22T21:19:20.106175Z",
    "country": "fr",
    "parent": null,
    "longitude": 4.41666984558105,
    "latitude": 43.9832992553711,
    "regions": [
      "1072",
      "1079"
    ]
  },
  {
    "code": "15ea1",
    "name": "Sahorre",
    "updated_at": "2014-09-22T21:19:20.085642Z",
    "country": "fr",
    "parent": null,
    "longitude": 2.36666989326477,
    "latitude": 42.5332984924316,
    "regions": [
      "1072"
    ]
  },
  {
    "code": "15ea0",
    "name": "Sahurs",
    "updated_at": "2014-09-22T21:19:20.064787Z",
    "country": "fr",
    "parent": null,
    "longitude": 0.933332979679108,
    "latitude": 49.3499984741211,
    "regions": [
      "1335"
    ]
  },
  {
    "code": "15e9f",
    "name": "Saigneville",
    "updated_at": "2014-09-22T21:19:20.040903Z",
    "country": "fr",
    "parent": null,
    "longitude": 1.71667003631592,
    "latitude": 50.13330078125,
    "regions": [
      "1078"
    ]
  },
  {
    "code": "15e9e",
    "name": "Saignon",
    "updated_at": "2014-09-22T21:19:20.009948Z",
    "country": "fr",
    "parent": null,
    "longitude": 5.43333005905151,
    "latitude": 43.86669921875,
    "regions": [
      "1079"
    ]
  },
  {
    "code": "15e9d",
    "name": "Saillagouse",
    "updated_at": "2014-09-22T21:19:19.979232Z",
    "country": "fr",
    "parent": null,
    "longitude": 2.03332996368408,
    "latitude": 42.4500007629395,
    "regions": [
      "1072"
    ]
  },
  {
    "code": "15e9c",
    "name": "Saillans",
    "updated_at": "2014-09-22T21:19:19.946312Z",
    "country": "fr",
    "parent": null,
    "longitude": 5.18333005905151,
    "latitude": 44.7000007629395,
    "regions": [
      "107a"
    ]
  },
  {
    "code": "15e9b",
    "name": "Sailly",
    "updated_at": "2014-09-22T21:19:19.907159Z",
    "country": "fr",
    "parent": null,
    "longitude": 4.56666994094849,
    "latitude": 46.5332984924316,
    "regions": [
      "106e"
    ]
  },
  {
    "code": "15e9a",
    "name": "Sail-sous-Couzan",
    "updated_at": "2014-09-22T21:19:19.844797Z",
    "country": "fr",
    "parent": null,
    "longitude": 3.95000004768372,
    "latitude": 45.7332992553711,
    "regions": [
      "107a"
    ]
  },
  {
    "code": "15e99",
    "name": "Sainghin-en-Mélantois",
    "updated_at": "2014-09-22T21:19:19.822862Z",
    "country": "fr",
    "parent": null,
    "longitude": 3.16667008399963,
    "latitude": 50.5833015441895,
    "regions": [
      "1076",
      "1230"
    ]
  },
  {
    "code": "15e98",
    "name": "Sains",
    "updated_at": "2014-09-22T21:19:19.801072Z",
    "country": "fr",
    "parent": null,
    "longitude": -1.58333003520966,
    "latitude": 48.5499992370605,
    "regions": [
      "106d"
    ]
  },
  {
    "code": "15e97",
    "name": "Sains-du-Nord",
    "updated_at": "2014-09-22T21:19:19.778962Z",
    "country": "fr",
    "parent": null,
    "longitude": 4.0,
    "latitude": 50.0999984741211,
    "regions": [
      "1076",
      "1230"
    ]
  },
  {
    "code": "15e96",
    "name": "Sains-lès-Pernes",
    "updated_at": "2014-09-22T21:19:19.756591Z",
    "country": "fr",
    "parent": null,
    "longitude": 2.34999990463257,
    "latitude": 50.4832992553711,
    "regions": [
      "1076"
    ]
  },
  {
    "code": "15e95",
    "name": "Saint-Aaron",
    "updated_at": "2014-09-22T21:19:19.734264Z",
    "country": "fr",
    "parent": null,
    "longitude": -2.4833300113678,
    "latitude": 48.5167007446289,
    "regions": [
      "106d"
    ]
  },
  {
    "code": "15e94",
    "name": "Saint-Adrien",
    "updated_at": "2014-09-22T21:19:19.712065Z",
    "country": "fr",
    "parent": null,
    "longitude": -3.70000004768372,
    "latitude": 47.9667015075684,
    "regions": [
      "106d"
    ]
  },
  {
    "code": "15e93",
    "name": "Saint-Affrique-les-Montagnes",
    "updated_at": "2014-09-22T21:19:19.689820Z",
    "country": "fr",
    "parent": null,
    "longitude": 2.20000004768372,
    "latitude": 43.5332984924316,
    "regions": [
      "1075"
    ]
  },
  {
    "code": "15e92",
    "name": "Saint-Affrique",
    "updated_at": "2014-09-22T21:19:19.666750Z",
    "country": "fr",
    "parent": null,
    "longitude": 2.88333010673523,
    "latitude": 43.9500007629395,
    "regions": [
      "1075"
    ]
  },
  {
    "code": "15e91",
    "name": "Saint-Agathon",
    "updated_at": "2014-09-22T21:19:19.645291Z",
    "country": "fr",
    "parent": null,
    "longitude": -3.09999990463257,
    "latitude": 48.5666999816895,
    "regions": []
  },
  {
    "code": "15e90",
    "name": "Saint-Agnan",
    "updated_at": "2014-09-22T21:19:19.622504Z",
    "country": "fr",
    "parent": null,
    "longitude": 4.09999990463257,
    "latitude": 47.3166999816895,
    "regions": [
      "106e"
    ]
  },
  {
    "code": "15e8f",
    "name": "Saint-Agnan-en-Vercors",
    "updated_at": "2014-09-22T21:19:19.602294Z",
    "country": "fr",
    "parent": null,
    "longitude": 5.41666984558105,
    "latitude": 44.9333000183105,
    "regions": [
      "107a"
    ]
  },
  {
    "code": "15e8e",
    "name": "Saint-Agrève",
    "updated_at": "2014-09-22T21:19:19.581952Z",
    "country": "fr",
    "parent": null,
    "longitude": 4.40000009536743,
    "latitude": 45.0167007446289,
    "regions": [
      "107a"
    ]
  },
  {
    "code": "15e8d",
    "name": "Saint-Aignan",
    "updated_at": "2014-09-22T21:19:19.561368Z",
    "country": "fr",
    "parent": null,
    "longitude": 1.38332998752594,
    "latitude": 47.2667007446289,
    "regions": [
      "106f"
    ]
  },
  {
    "code": "15e8c",
    "name": "Saint-Aignan",
    "updated_at": "2014-09-22T21:19:19.541038Z",
    "country": "fr",
    "parent": null,
    "longitude": -3.0166699886322,
    "latitude": 48.1833000183105,
    "regions": [
      "106d"
    ]
  },
  {
    "code": "15e8b",
    "name": "Saint-Aignan",
    "updated_at": "2014-09-22T21:19:19.518904Z",
    "country": "fr",
    "parent": null,
    "longitude": 0.349999994039536,
    "latitude": 48.2167015075684,
    "regions": [
      "1077"
    ]
  },
  {
    "code": "15e8a",
    "name": "Saint-Albain",
    "updated_at": "2014-09-22T21:19:19.469442Z",
    "country": "fr",
    "parent": null,
    "longitude": 4.88332986831665,
    "latitude": 46.4333000183105,
    "regions": [
      "106e"
    ]
  },
  {
    "code": "15e89",
    "name": "Saint-Alban",
    "updated_at": "2014-09-22T21:19:19.424063Z",
    "country": "fr",
    "parent": null,
    "longitude": 5.94999980926514,
    "latitude": 45.5833015441895,
    "regions": [
      "107a"
    ]
  },
  {
    "code": "15e88",
    "name": "Saint-Alban",
    "updated_at": "2014-09-22T21:19:19.402417Z",
    "country": "fr",
    "parent": null,
    "longitude": -2.54999995231628,
    "latitude": 48.5666999816895,
    "regions": [
      "106d"
    ]
  },
  {
    "code": "15e87",
    "name": "Saint-Alban-de-Roche",
    "updated_at": "2014-09-22T21:19:19.380377Z",
    "country": "fr",
    "parent": null,
    "longitude": 5.23332977294922,
    "latitude": 45.5999984741211,
    "regions": [
      "107a"
    ]
  },
  {
    "code": "15e86",
    "name": "Saint-Alban-sur-Limagnole",
    "updated_at": "2014-09-22T21:19:19.315378Z",
    "country": "fr",
    "parent": null,
    "longitude": 3.38333010673523,
    "latitude": 44.7832984924316,
    "regions": [
      "1072"
    ]
  },
  {
    "code": "15e85",
    "name": "Saint-Alexandre",
    "updated_at": "2014-09-22T21:19:19.289902Z",
    "country": "fr",
    "parent": null,
    "longitude": 4.63332986831665,
    "latitude": 44.2167015075684,
    "regions": [
      "1072",
      "1079"
    ]
  },
  {
    "code": "15e84",
    "name": "Saint-Alvère",
    "updated_at": "2014-09-22T21:19:19.259454Z",
    "country": "fr",
    "parent": null,
    "longitude": 0.816667020320892,
    "latitude": 44.9500007629395,
    "regions": [
      "106b"
    ]
  },
  {
    "code": "15e83",
    "name": "Saint-Amand",
    "updated_at": "2014-09-22T21:19:19.228724Z",
    "country": "fr",
    "parent": null,
    "longitude": -0.966666996479034,
    "latitude": 49.0499992370605,
    "regions": [
      "1334"
    ]
  },
  {
    "code": "15e82",
    "name": "Saint-Amand-de-Coly",
    "updated_at": "2014-09-22T21:19:19.195085Z",
    "country": "fr",
    "parent": null,
    "longitude": 1.2666699886322,
    "latitude": 45.0666999816895,
    "regions": [
      "106b"
    ]
  },
  {
    "code": "15e81",
    "name": "Saint-Amand-en-Puisaye",
    "updated_at": "2014-09-22T21:19:19.168230Z",
    "country": "fr",
    "parent": null,
    "longitude": 3.06666994094849,
    "latitude": 47.5167007446289,
    "regions": []
  },
  {
    "code": "15e80",
    "name": "Saint-Amand-les-Eaux",
    "updated_at": "2014-09-22T21:19:19.140538Z",
    "country": "fr",
    "parent": null,
    "longitude": 3.43333005905151,
    "latitude": 50.4333000183105,
    "regions": [
      "1076",
      "1230"
    ]
  },
  {
    "code": "15e7f",
    "name": "Saint-Amand-Montrond",
    "updated_at": "2014-09-22T21:19:19.116642Z",
    "country": "fr",
    "parent": null,
    "longitude": 2.5166699886322,
    "latitude": 46.7167015075684,
    "regions": [
      "106f"
    ]
  },
  {
    "code": "15e7e",
    "name": "Saint-Amarin",
    "updated_at": "2014-09-22T21:19:19.075723Z",
    "country": "fr",
    "parent": null,
    "longitude": 7.01667022705078,
    "latitude": 47.88330078125,
    "regions": [
      "106a"
    ]
  },
  {
    "code": "15e7d",
    "name": "Saint-Ambroix",
    "updated_at": "2014-09-22T21:19:19.055592Z",
    "country": "fr",
    "parent": null,
    "longitude": 4.18333005905151,
    "latitude": 44.25,
    "regions": [
      "1072"
    ]
  },
  {
    "code": "15e7c",
    "name": "Saint-Amé",
    "updated_at": "2014-09-22T21:19:19.032991Z",
    "country": "fr",
    "parent": null,
    "longitude": 6.66666984558105,
    "latitude": 48.0332984924316,
    "regions": [
      "1074"
    ]
  },
  {
    "code": "15e7b",
    "name": "Saint-Amour-Bellevue",
    "updated_at": "2014-09-22T21:19:19.010576Z",
    "country": "fr",
    "parent": null,
    "longitude": 4.75,
    "latitude": 46.25,
    "regions": [
      "106e"
    ]
  },
  {
    "code": "15e7a",
    "name": "Saint-Andéol",
    "updated_at": "2014-09-22T21:19:18.985869Z",
    "country": "fr",
    "parent": null,
    "longitude": 5.26667022705078,
    "latitude": 44.7999992370605,
    "regions": [
      "107a"
    ]
  },
  {
    "code": "15e79",
    "name": "Saint-Andéol-de-Berg",
    "updated_at": "2014-09-22T21:19:18.931359Z",
    "country": "fr",
    "parent": null,
    "longitude": 4.53332996368408,
    "latitude": 44.5167007446289,
    "regions": [
      "107a"
    ]
  },
  {
    "code": "15e78",
    "name": "Saint-Andiol",
    "updated_at": "2014-09-22T21:19:18.898482Z",
    "country": "fr",
    "parent": null,
    "longitude": 4.94999980926514,
    "latitude": 43.8333015441895,
    "regions": [
      "1079"
    ]
  },
  {
    "code": "15e77",
    "name": "Saint-André",
    "updated_at": "2014-09-22T21:19:18.867164Z",
    "country": "fr",
    "parent": null,
    "longitude": 6.61667013168335,
    "latitude": 45.2000007629395,
    "regions": [
      "107a"
    ]
  },
  {
    "code": "15e76",
    "name": "Saint-André-dʼAllas",
    "updated_at": "2014-09-22T21:19:18.813857Z",
    "country": "fr",
    "parent": null,
    "longitude": 1.18333005905151,
    "latitude": 44.88330078125,
    "regions": [
      "106b"
    ]
  },
  {
    "code": "15e75",
    "name": "Saint-André-dʼApchon",
    "updated_at": "2014-09-22T21:19:18.794215Z",
    "country": "fr",
    "parent": null,
    "longitude": 3.93333005905151,
    "latitude": 46.0332984924316,
    "regions": [
      "107a"
    ]
  },
  {
    "code": "15e74",
    "name": "Saint-André-de-Buèges",
    "updated_at": "2014-09-22T21:19:18.774063Z",
    "country": "fr",
    "parent": null,
    "longitude": 3.66667008399963,
    "latitude": 43.8499984741211,
    "regions": [
      "1072"
    ]
  },
  {
    "code": "15e73",
    "name": "Saint-André-de-Chalençon",
    "updated_at": "2014-09-22T21:19:18.753907Z",
    "country": "fr",
    "parent": null,
    "longitude": 4.0,
    "latitude": 45.2832984924316,
    "regions": [
      "106c"
    ]
  },
  {
    "code": "15e72",
    "name": "Saint-André-de-la-Marche",
    "updated_at": "2014-09-22T21:19:18.733832Z",
    "country": "fr",
    "parent": null,
    "longitude": -1.0,
    "latitude": 47.0999984741211,
    "regions": [
      "1077"
    ]
  },
  {
    "code": "15e71",
    "name": "Saint-André-de-Majencoules",
    "updated_at": "2014-09-22T21:19:18.706133Z",
    "country": "fr",
    "parent": null,
    "longitude": 3.66667008399963,
    "latitude": 44.0332984924316,
    "regions": []
  },
  {
    "code": "15e70",
    "name": "Saint-André-dʼEmbrun",
    "updated_at": "2014-09-22T21:19:18.675372Z",
    "country": "fr",
    "parent": null,
    "longitude": 6.53332996368408,
    "latitude": 44.5833015441895,
    "regions": [
      "1079"
    ]
  },
  {
    "code": "15e6f",
    "name": "Saint-André-de-Roquelongue",
    "updated_at": "2014-09-22T21:19:18.644864Z",
    "country": "fr",
    "parent": null,
    "longitude": 2.83332991600037,
    "latitude": 43.11669921875,
    "regions": [
      "1072"
    ]
  },
  {
    "code": "15e6e",
    "name": "Saint-André-de-Sangonis",
    "updated_at": "2014-09-22T21:19:18.609620Z",
    "country": "fr",
    "parent": null,
    "longitude": 3.5,
    "latitude": 43.6500015258789,
    "regions": [
      "1072"
    ]
  },
  {
    "code": "15e6d",
    "name": "Saint-André-des-Eaux",
    "updated_at": "2014-09-22T21:19:18.575426Z",
    "country": "fr",
    "parent": null,
    "longitude": -2.31666994094849,
    "latitude": 47.3166999816895,
    "regions": [
      "1077"
    ]
  },
  {
    "code": "15e6c",
    "name": "Saint-André-de-Seignanx",
    "updated_at": "2014-09-22T21:19:18.543929Z",
    "country": "fr",
    "parent": null,
    "longitude": -1.33333003520966,
    "latitude": 43.5666999816895,
    "regions": [
      "106b"
    ]
  },
  {
    "code": "15e6b",
    "name": "Saint-André-de-Valborgne",
    "updated_at": "2014-09-22T21:19:18.523880Z",
    "country": "fr",
    "parent": null,
    "longitude": 3.68333005905151,
    "latitude": 44.1500015258789,
    "regions": [
      "1072"
    ]
  },
  {
    "code": "15e6a",
    "name": "Saint-André-dʼHébertot",
    "updated_at": "2014-09-22T21:19:18.503833Z",
    "country": "fr",
    "parent": null,
    "longitude": 0.283333003520966,
    "latitude": 49.3166999816895,
    "regions": [
      "1334"
    ]
  },
  {
    "code": "15e69",
    "name": "Saint-André-la-Côte",
    "updated_at": "2014-09-22T21:19:18.463791Z",
    "country": "fr",
    "parent": null,
    "longitude": 4.59999990463257,
    "latitude": 45.63330078125,
    "regions": [
      "107a"
    ]
  },
  {
    "code": "15e68",
    "name": "Saint-André-les-Alpes",
    "updated_at": "2014-09-22T21:19:18.442740Z",
    "country": "fr",
    "parent": null,
    "longitude": 6.5,
    "latitude": 43.9667015075684,
    "regions": [
      "1079"
    ]
  },
  {
    "code": "15e67",
    "name": "Saint-André-les-Vergers",
    "updated_at": "2014-09-22T21:19:18.411903Z",
    "country": "fr",
    "parent": null,
    "longitude": 4.05000019073486,
    "latitude": 48.2832984924316,
    "regions": [
      "1070"
    ]
  },
  {
    "code": "15e66",
    "name": "Saint-Androny",
    "updated_at": "2014-09-22T21:19:18.381553Z",
    "country": "fr",
    "parent": null,
    "longitude": -0.649999976158142,
    "latitude": 45.1833000183105,
    "regions": [
      "106b"
    ]
  },
  {
    "code": "15e65",
    "name": "Saint-Anthème",
    "updated_at": "2014-09-22T21:19:18.351944Z",
    "country": "fr",
    "parent": null,
    "longitude": 3.91667008399963,
    "latitude": 45.5167007446289,
    "regions": [
      "106c"
    ]
  },
  {
    "code": "15e64",
    "name": "Saint-Antoine-de-Breuilh",
    "updated_at": "2014-09-22T21:19:18.285338Z",
    "country": "fr",
    "parent": null,
    "longitude": 0.166666999459267,
    "latitude": 44.8333015441895,
    "regions": [
      "106b"
    ]
  },
  {
    "code": "15e63",
    "name": "Saint-Antonin",
    "updated_at": "2014-09-22T21:19:18.255993Z",
    "country": "fr",
    "parent": null,
    "longitude": 1.7666699886322,
    "latitude": 44.1500015258789,
    "regions": [
      "1075"
    ]
  },
  {
    "code": "15e62",
    "name": "Saint-Apollinaire",
    "updated_at": "2014-09-22T21:19:18.212800Z",
    "country": "fr",
    "parent": null,
    "longitude": 5.08333015441895,
    "latitude": 47.3333015441895,
    "regions": [
      "106e"
    ]
  },
  {
    "code": "15e61",
    "name": "Saint-Arailles",
    "updated_at": "2014-09-22T21:19:18.191207Z",
    "country": "fr",
    "parent": null,
    "longitude": 0.349999994039536,
    "latitude": 43.63330078125,
    "regions": [
      "1075"
    ]
  },
  {
    "code": "15e60",
    "name": "Saint-Arcons-de-Barges",
    "updated_at": "2014-09-22T21:19:18.148438Z",
    "country": "fr",
    "parent": null,
    "longitude": 3.93333005905151,
    "latitude": 44.8333015441895,
    "regions": [
      "106c"
    ]
  },
  {
    "code": "15e5f",
    "name": "Saint-Armel",
    "updated_at": "2014-09-22T21:19:18.117656Z",
    "country": "fr",
    "parent": null,
    "longitude": -2.71667003631592,
    "latitude": 47.5666999816895,
    "regions": [
      "106d"
    ]
  },
  {
    "code": "15e5e",
    "name": "Saint-Arnoult",
    "updated_at": "2014-09-22T21:19:18.087356Z",
    "country": "fr",
    "parent": null,
    "longitude": 0.0833332985639572,
    "latitude": 49.3333015441895,
    "regions": [
      "1334"
    ]
  },
  {
    "code": "15e5d",
    "name": "Saint-Arnoult",
    "updated_at": "2014-09-22T21:19:18.054699Z",
    "country": "fr",
    "parent": null,
    "longitude": 0.666666984558105,
    "latitude": 49.5332984924316,
    "regions": [
      "1335"
    ]
  },
  {
    "code": "15e5c",
    "name": "Saint-Arnoult-des-Bois",
    "updated_at": "2014-09-22T21:19:18.018507Z",
    "country": "fr",
    "parent": null,
    "longitude": 1.2666699886322,
    "latitude": 48.4832992553711,
    "regions": [
      "106f"
    ]
  },
  {
    "code": "15e5b",
    "name": "Saint-Arroman",
    "updated_at": "2014-09-22T21:19:17.980918Z",
    "country": "fr",
    "parent": null,
    "longitude": 0.400000005960464,
    "latitude": 43.0499992370605,
    "regions": [
      "1075"
    ]
  },
  {
    "code": "15e5a",
    "name": "Saint-Arroumex",
    "updated_at": "2014-09-22T21:19:17.957740Z",
    "country": "fr",
    "parent": null,
    "longitude": 1.0,
    "latitude": 44.0,
    "regions": [
      "1075"
    ]
  },
  {
    "code": "15e59",
    "name": "Saint-Auban",
    "updated_at": "2014-09-22T21:19:17.917683Z",
    "country": "fr",
    "parent": null,
    "longitude": 6.73332977294922,
    "latitude": 43.8499984741211,
    "regions": [
      "1079"
    ]
  },
  {
    "code": "15e58",
    "name": "Saint-Auban-sur-lʼOuvèze",
    "updated_at": "2014-09-22T21:19:17.876867Z",
    "country": "fr",
    "parent": null,
    "longitude": 5.41666984558105,
    "latitude": 44.2832984924316,
    "regions": [
      "107a"
    ]
  },
  {
    "code": "15e57",
    "name": "Saint-Aubin",
    "updated_at": "2014-09-22T21:19:17.851851Z",
    "country": "fr",
    "parent": null,
    "longitude": 3.91667008399963,
    "latitude": 50.1666984558105,
    "regions": [
      "1076",
      "1230"
    ]
  },
  {
    "code": "15e56",
    "name": "Saint-Aubin-de-Bonneval",
    "updated_at": "2014-09-22T21:19:17.821331Z",
    "country": "fr",
    "parent": null,
    "longitude": 0.383332997560501,
    "latitude": 48.9333000183105,
    "regions": [
      "1334"
    ]
  },
  {
    "code": "15e55",
    "name": "Saint-Aubin-de-Luigné",
    "updated_at": "2014-09-22T21:19:17.790064Z",
    "country": "fr",
    "parent": null,
    "longitude": -0.666666984558105,
    "latitude": 47.3333015441895,
    "regions": [
      "1077"
    ]
  },
  {
    "code": "15e54",
    "name": "Saint-Aubin-de-Médoc",
    "updated_at": "2014-09-22T21:19:17.757945Z",
    "country": "fr",
    "parent": null,
    "longitude": -0.724238991737366,
    "latitude": 44.9114990234375,
    "regions": [
      "106b"
    ]
  },
  {
    "code": "15e53",
    "name": "Saint-Aubin-de-Nabirat",
    "updated_at": "2014-09-22T21:19:17.721284Z",
    "country": "fr",
    "parent": null,
    "longitude": 1.2666699886322,
    "latitude": 44.7332992553711,
    "regions": [
      "106b"
    ]
  },
  {
    "code": "15e52",
    "name": "Saint-Aubin-de-Terregatte",
    "updated_at": "2014-09-22T21:19:17.666029Z",
    "country": "fr",
    "parent": null,
    "longitude": -1.29999995231628,
    "latitude": 48.5833015441895,
    "regions": [
      "1334"
    ]
  },
  {
    "code": "15e51",
    "name": "Saint-Aubin-la-Plaine",
    "updated_at": "2014-09-22T21:19:17.646009Z",
    "country": "fr",
    "parent": null,
    "longitude": -1.04999995231628,
    "latitude": 46.5167007446289,
    "regions": [
      "1077"
    ]
  },
  {
    "code": "15e50",
    "name": "Saint-Aubin-le-Cauf",
    "updated_at": "2014-09-22T21:19:17.625941Z",
    "country": "fr",
    "parent": null,
    "longitude": 1.18333005905151,
    "latitude": 49.86669921875,
    "regions": [
      "1335"
    ]
  },
  {
    "code": "15e4f",
    "name": "Saint-Aubin-le-Monial",
    "updated_at": "2014-09-22T21:19:17.605901Z",
    "country": "fr",
    "parent": null,
    "longitude": 3.0166699886322,
    "latitude": 46.5167007446289,
    "regions": [
      "106c"
    ]
  },
  {
    "code": "15e4e",
    "name": "Saint-Aubin-lès-Elbeuf",
    "updated_at": "2014-09-22T21:19:17.585672Z",
    "country": "fr",
    "parent": null,
    "longitude": 1.0166699886322,
    "latitude": 49.2999992370605,
    "regions": [
      "1335"
    ]
  },
  {
    "code": "15e4d",
    "name": "Saint-Aubin-sur-Algot",
    "updated_at": "2014-09-22T21:19:17.560563Z",
    "country": "fr",
    "parent": null,
    "longitude": 0.0833332985639572,
    "latitude": 49.13330078125,
    "regions": [
      "1334"
    ]
  },
  {
    "code": "15e4c",
    "name": "Saint-Aubin-sur-Mer",
    "updated_at": "2014-09-22T21:19:17.530037Z",
    "country": "fr",
    "parent": null,
    "longitude": -0.400000005960464,
    "latitude": 49.3333015441895,
    "regions": [
      "1334"
    ]
  },
  {
    "code": "15e4b",
    "name": "Saint-Aubin-sur-Mer",
    "updated_at": "2014-09-22T21:19:17.499457Z",
    "country": "fr",
    "parent": null,
    "longitude": 0.883333027362823,
    "latitude": 49.88330078125,
    "regions": [
      "1335"
    ]
  },
  {
    "code": "15e4a",
    "name": "Saint-Aubin-sur-Scie",
    "updated_at": "2014-09-22T21:19:17.467833Z",
    "country": "fr",
    "parent": null,
    "longitude": 1.06666994094849,
    "latitude": 49.86669921875,
    "regions": [
      "1335"
    ]
  },
  {
    "code": "15e49",
    "name": "Saint-Augustin",
    "updated_at": "2014-09-22T21:19:17.433411Z",
    "country": "fr",
    "parent": null,
    "longitude": -1.11667001247406,
    "latitude": 45.6833000183105,
    "regions": [
      "1232"
    ]
  },
  {
    "code": "15e48",
    "name": "Saint-Aunès",
    "updated_at": "2014-09-22T21:19:17.398560Z",
    "country": "fr",
    "parent": null,
    "longitude": 3.96667003631592,
    "latitude": 43.63330078125,
    "regions": [
      "1072"
    ]
  },