[
  {
    "code": "1fc15",
    "name": "Borghesiana ",
    "updated_at": "2014-09-22T21:43:51.950061Z",
    "country": "it",
    "parent": null,
    "longitude": 12.6695108413696,
    "latitude": 41.8610916137695,
    "regions": [
      "1097"
    ]
  },
  {
    "code": "1fc14",
    "name": "Lake Bennett",
    "updated_at": "2014-09-22T21:43:51.930745Z",
    "country": "au",
    "parent": null,
    "longitude": 131.167083740234,
    "latitude": -12.9616146087646,
    "regions": [
      "100c"
    ]
  },
  {
    "code": "1fc13",
    "name": "Warth",
    "updated_at": "2014-09-22T21:43:51.910498Z",
    "country": "ch",
    "parent": null,
    "longitude": 8.87600040435791,
    "latitude": 47.5839996337891,
    "regions": [
      "142b"
    ]
  },
  {
    "code": "1fc12",
    "name": "Alopronia",
    "updated_at": "2014-09-22T21:43:51.893324Z",
    "country": "gr",
    "parent": null,
    "longitude": 25.1432933807373,
    "latitude": 36.6776580810547,
    "regions": [
      "107d",
      "1457"
    ]
  },
  {
    "code": "1fc11",
    "name": "Mansonville",
    "updated_at": "2014-09-22T21:43:51.873780Z",
    "country": "ca",
    "parent": null,
    "longitude": -72.3919906616211,
    "latitude": 45.0497360229492,
    "regions": [
      "102c"
    ]
  },
  {
    "code": "1fc10",
    "name": "Boswinger",
    "updated_at": "2014-09-22T21:43:51.823598Z",
    "country": "gb",
    "parent": null,
    "longitude": -4.81899976730347,
    "latitude": 50.2369995117188,
    "regions": [
      "118b"
    ]
  },
  {
    "code": "1fc0f",
    "name": "Gorran Haven",
    "updated_at": "2014-09-22T21:43:51.798019Z",
    "country": "gb",
    "parent": null,
    "longitude": -4.79199981689453,
    "latitude": 50.2410011291504,
    "regions": [
      "118b"
    ]
  },
  {
    "code": "1fc0e",
    "name": "Balgowan",
    "updated_at": "2014-09-22T21:43:51.733918Z",
    "country": "za",
    "parent": null,
    "longitude": 30.0580272674561,
    "latitude": -29.4007778167725,
    "regions": [
      "12a4"
    ]
  },
  {
    "code": "1fc0d",
    "name": "Snowshoe",
    "updated_at": "2014-09-22T21:43:51.700889Z",
    "country": "us",
    "parent": null,
    "longitude": -79.9954071044922,
    "latitude": 38.4104232788086,
    "regions": [
      "12f7"
    ]
  },
  {
    "code": "1fc0c",
    "name": "Vikhammer",
    "updated_at": "2014-09-22T21:43:51.673751Z",
    "country": "no",
    "parent": null,
    "longitude": 10.6265687942505,
    "latitude": 63.4375038146973,
    "regions": [
      "1299"
    ]
  },
  {
    "code": "1fc0b",
    "name": "Lincoln",
    "updated_at": "2014-09-22T21:43:51.654313Z",
    "country": "us",
    "parent": null,
    "longitude": -71.4350280761719,
    "latitude": 41.9211311340332,
    "regions": [
      "12f2"
    ]
  },
  {
    "code": "1fc0a",
    "name": "Ome",
    "updated_at": "2014-09-22T21:43:51.629757Z",
    "country": "it",
    "parent": null,
    "longitude": 10.1144819259644,
    "latitude": 45.6183433532715,
    "regions": [
      "1099"
    ]
  },
  {
    "code": "1fc09",
    "name": "Entrelacs",
    "updated_at": "2014-09-22T21:43:51.611758Z",
    "country": "ca",
    "parent": null,
    "longitude": -74.0019989013672,
    "latitude": 46.1119995117188,
    "regions": [
      "102c"
    ]
  },
  {
    "code": "1fc08",
    "name": "Porporana",
    "updated_at": "2014-09-22T21:43:51.568431Z",
    "country": "it",
    "parent": null,
    "longitude": 11.4729995727539,
    "latitude": 44.923999786377,
    "regions": [
      "1095"
    ]
  },
  {
    "code": "1fc07",
    "name": "Prea",
    "updated_at": "2014-09-22T21:43:51.551205Z",
    "country": "br",
    "parent": null,
    "longitude": -40.4140014648438,
    "latitude": -2.81299996376038,
    "regions": [
      "101d"
    ]
  },
  {
    "code": "1fc06",
    "name": "Lachenaie",
    "updated_at": "2014-09-22T21:43:51.532884Z",
    "country": "ca",
    "parent": null,
    "longitude": -73.5171890258789,
    "latitude": 45.7263145446777,
    "regions": [
      "102c"
    ]
  },
  {
    "code": "1fc05",
    "name": "Alversund",
    "updated_at": "2014-09-22T21:43:51.484892Z",
    "country": "no",
    "parent": null,
    "longitude": 5.23571586608887,
    "latitude": 60.5718841552734,
    "regions": [
      "10c2"
    ]
  },
  {
    "code": "1fc04",
    "name": "Esperanza",
    "updated_at": "2014-09-22T21:43:51.463691Z",
    "country": "lt",
    "parent": null,
    "longitude": 24.7462749481201,
    "latitude": 54.6049842834473,
    "regions": [
      "1198"
    ]
  },
  {
    "code": "1fc03",
    "name": "Perama",
    "updated_at": "2014-09-22T21:43:51.446296Z",
    "country": "gr",
    "parent": null,
    "longitude": 19.9120006561279,
    "latitude": 39.5810012817383,
    "regions": [
      "107f",
      "1180"
    ]
  },
  {
    "code": "1fc02",
    "name": "Reitani",
    "updated_at": "2014-09-22T21:43:51.426085Z",
    "country": "it",
    "parent": null,
    "longitude": 15.1013269424438,
    "latitude": 36.7556076049805,
    "regions": [
      "109e"
    ]
  },
  {
    "code": "1fc01",
    "name": "Beget",
    "updated_at": "2014-09-22T21:43:51.403279Z",
    "country": "es",
    "parent": null,
    "longitude": 2.48000001907349,
    "latitude": 42.3209991455078,
    "regions": [
      "105c"
    ]
  },
  {
    "code": "1fc00",
    "name": "Marsh Lake",
    "updated_at": "2014-09-22T21:43:51.380365Z",
    "country": "ca",
    "parent": null,
    "longitude": -134.332992553711,
    "latitude": 60.515998840332,
    "regions": [
      "131f"
    ]
  },
  {
    "code": "1fbff",
    "name": "Valstrona",
    "updated_at": "2014-09-22T21:43:51.334955Z",
    "country": "it",
    "parent": null,
    "longitude": 8.34500026702881,
    "latitude": 45.9080009460449,
    "regions": [
      "109b"
    ]
  },
  {
    "code": "1fbfe",
    "name": "Kopaonik",
    "updated_at": "2014-09-22T21:43:51.318208Z",
    "country": "rs",
    "parent": null,
    "longitude": 20.8080005645752,
    "latitude": 43.2840003967285,
    "regions": [
      "1367"
    ]
  },
  {
    "code": "1fbfd",
    "name": "Venus Bay",
    "updated_at": "2014-09-22T21:43:51.304573Z",
    "country": "au",
    "parent": null,
    "longitude": 145.823257446289,
    "latitude": -38.7008781433105,
    "regions": [
      "100f"
    ]
  },
  {
    "code": "1fbfc",
    "name": "Bischofszell",
    "updated_at": "2014-09-22T21:43:51.287499Z",
    "country": "ch",
    "parent": null,
    "longitude": 9.23915863037109,
    "latitude": 47.497257232666,
    "regions": [
      "13f9",
      "142b"
    ]
  },
  {
    "code": "1fbfb",
    "name": "Huntly",
    "updated_at": "2014-09-22T21:43:51.272640Z",
    "country": "nz",
    "parent": null,
    "longitude": 175.159271240234,
    "latitude": -37.557300567627,
    "regions": [
      "1167"
    ]
  },
  {
    "code": "1fbfa",
    "name": "Bogogno",
    "updated_at": "2014-09-22T21:43:51.258771Z",
    "country": "it",
    "parent": null,
    "longitude": 8.53570175170898,
    "latitude": 45.6644592285156,
    "regions": [
      "109b"
    ]
  },
  {
    "code": "1fbf9",
    "name": "Kamagaya",
    "updated_at": "2014-09-22T21:43:51.242573Z",
    "country": "jp",
    "parent": null,
    "longitude": 139.999908447266,
    "latitude": 35.7777976989746,
    "regions": [
      "145b"
    ]
  },
  {
    "code": "1fbf8",
    "name": "Aizuwakamatsu",
    "updated_at": "2014-09-22T21:43:51.226539Z",
    "country": "jp",
    "parent": null,
    "longitude": 139.929992675781,
    "latitude": 37.494800567627,
    "regions": [
      "145c"
    ]
  },
  {
    "code": "1fbf7",
    "name": "Playa Conchal",
    "updated_at": "2014-09-22T21:43:51.211375Z",
    "country": "cr",
    "parent": null,
    "longitude": -85.8065185546875,
    "latitude": 10.4006385803223,
    "regions": [
      "1102"
    ]
  },
  {
    "code": "1fbf6",
    "name": "Nomi",
    "updated_at": "2014-09-22T21:43:51.197116Z",
    "country": "jp",
    "parent": null,
    "longitude": 136.457992553711,
    "latitude": 36.4490013122559,
    "regions": [
      "11ee"
    ]
  },
  {
    "code": "1fbf5",
    "name": "Port Leucate",
    "updated_at": "2014-09-22T21:43:51.181904Z",
    "country": "fr",
    "parent": null,
    "longitude": 3.04098606109619,
    "latitude": 42.8565216064453,
    "regions": [
      "1072"
    ]
  },
  {
    "code": "1fbf4",
    "name": "Oro-Medonte",
    "updated_at": "2014-09-22T21:43:51.164477Z",
    "country": "ca",
    "parent": null,
    "longitude": -79.5920333862305,
    "latitude": 44.5620498657227,
    "regions": [
      "102b"
    ]
  },
  {
    "code": "1fbf3",
    "name": "Fraiburgo",
    "updated_at": "2014-09-22T21:43:51.118584Z",
    "country": "br",
    "parent": null,
    "longitude": -50.9219818115234,
    "latitude": -27.0266075134277,
    "regions": [
      "1027"
    ]
  },
  {
    "code": "1fbf2",
    "name": "San Savino",
    "updated_at": "2014-09-22T21:43:51.101603Z",
    "country": "it",
    "parent": null,
    "longitude": 12.1920003890991,
    "latitude": 43.1059989929199,
    "regions": [
      "10a1"
    ]
  },
  {
    "code": "1fbf1",
    "name": "Laem Sor",
    "updated_at": "2014-09-22T21:43:51.083085Z",
    "country": "th",
    "parent": null,
    "longitude": 99.9690017700195,
    "latitude": 9.41199970245361,
    "regions": [
      "1172",
      "14b5"
    ]
  },
  {
    "code": "1fbf0",
    "name": "Lower Boddington",
    "updated_at": "2014-09-22T21:43:51.064141Z",
    "country": "gb",
    "parent": null,
    "longitude": -1.29960000514984,
    "latitude": 52.1655006408691,
    "regions": [
      "11ad"
    ]
  },
  {
    "code": "1fbef",
    "name": "Saint Come",
    "updated_at": "2014-09-22T21:43:51.042203Z",
    "country": "ca",
    "parent": null,
    "longitude": -73.7671966552734,
    "latitude": 46.2783012390137,
    "regions": [
      "102c"
    ]
  },
  {
    "code": "1fbee",
    "name": "Venticano",
    "updated_at": "2014-09-22T21:43:50.990635Z",
    "country": "it",
    "parent": null,
    "longitude": 14.9153003692627,
    "latitude": 41.0483016967773,
    "regions": [
      "1094"
    ]
  },
  {
    "code": "1fbed",
    "name": "Salins",
    "updated_at": "2014-09-22T21:43:50.969559Z",
    "country": "ch",
    "parent": null,
    "longitude": 7.35693979263306,
    "latitude": 46.2107009887695,
    "regions": [
      "1030"
    ]
  },
  {
    "code": "1fbec",
    "name": "Sioux Narrows",
    "updated_at": "2014-09-22T21:43:50.951043Z",
    "country": "ca",
    "parent": null,
    "longitude": -94.0761032104492,
    "latitude": 49.4110984802246,
    "regions": [
      "102b"
    ]
  },
  {
    "code": "1fbeb",
    "name": "L'Ile d'Yeu",
    "updated_at": "2014-09-22T21:43:50.903618Z",
    "country": "fr",
    "parent": null,
    "longitude": -2.3408100605011,
    "latitude": 46.7052001953125,
    "regions": [
      "1077"
    ]
  },
  {
    "code": "1fbea",
    "name": "Fujiyoshida",
    "updated_at": "2014-09-22T21:43:50.886943Z",
    "country": "jp",
    "parent": null,
    "longitude": 138.807998657227,
    "latitude": 35.4874000549316,
    "regions": [
      "1473"
    ]
  },
  {
    "code": "1fbe9",
    "name": "Agnontas",
    "updated_at": "2014-09-22T21:43:50.872104Z",
    "country": "gr",
    "parent": null,
    "longitude": 23.7115001678467,
    "latitude": 39.0839996337891,
    "regions": [
      "1292",
      "143a"
    ]
  },
  {
    "code": "1fbe8",
    "name": "Slutarp",
    "updated_at": "2014-09-22T21:43:50.856386Z",
    "country": "se",
    "parent": null,
    "longitude": 13.5240001678467,
    "latitude": 58.0890007019043,
    "regions": [
      "1146"
    ]
  },
  {
    "code": "1fbe7",
    "name": "Port des Torrent",
    "updated_at": "2014-09-22T21:43:50.840536Z",
    "country": "es",
    "parent": null,
    "longitude": 1.25909996032715,
    "latitude": 38.9650993347168,
    "regions": [
      "1056",
      "1160"
    ]
  },
  {
    "code": "1fbe6",
    "name": "Deptford",
    "updated_at": "2014-09-22T21:43:50.823737Z",
    "country": "us",
    "parent": null,
    "longitude": -75.122802734375,
    "latitude": 39.8196983337402,
    "regions": [
      "123a"
    ]
  },
  {
    "code": "1fbe5",
    "name": "Lysekloster",
    "updated_at": "2014-09-22T21:43:50.801268Z",
    "country": "no",
    "parent": null,
    "longitude": 5.40000009536743,
    "latitude": 60.2249984741211,
    "regions": [
      "10c2"
    ]
  },
  {
    "code": "1fbe4",
    "name": "Fingal",
    "updated_at": "2014-09-22T21:43:50.784817Z",
    "country": "au",
    "parent": null,
    "longitude": 144.85400390625,
    "latitude": -38.3963012695312,
    "regions": [
      "100f"
    ]
  },
  {
    "code": "1fbe3",
    "name": "Pago de San Clemente",
    "updated_at": "2014-09-22T21:43:50.768077Z",
    "country": "es",
    "parent": null,
    "longitude": -5.7820200920105,
    "latitude": 39.3953018188477,
    "regions": [
      "117a"
    ]
  },
  {
    "code": "1fbe2",
    "name": "Cenate Sopra",
    "updated_at": "2014-09-22T21:43:50.751628Z",
    "country": "it",
    "parent": null,
    "longitude": 9.82400035858154,
    "latitude": 45.7130012512207,
    "regions": [
      "1099"
    ]
  },
  {
    "code": "1fbe1",
    "name": "Ipioca",
    "updated_at": "2014-09-22T21:43:50.735049Z",
    "country": "br",
    "parent": null,
    "longitude": -35.601001739502,
    "latitude": -9.52299976348877,
    "regions": [
      "101a"
    ]
  },
  {
    "code": "1fbe0",
    "name": "Rivoli Veronese",
    "updated_at": "2014-09-22T21:43:50.717913Z",
    "country": "it",
    "parent": null,
    "longitude": 10.811900138855,
    "latitude": 45.5716018676758,
    "regions": [
      "10a3"
    ]
  },
  {
    "code": "1fbdf",
    "name": "Colognola ai Colli",
    "updated_at": "2014-09-22T21:43:50.697552Z",
    "country": "it",
    "parent": null,
    "longitude": 11.1852998733521,
    "latitude": 45.434700012207,
    "regions": [
      "10a3"
    ]
  },
  {
    "code": "1fbde",
    "name": "Ano Trikala",
    "updated_at": "2014-09-22T21:43:50.673976Z",
    "country": "gr",
    "parent": null,
    "longitude": 22.4669990539551,
    "latitude": 37.9879989624023,
    "regions": [
      "1439"
    ]
  },
  {
    "code": "1fbdd",
    "name": "Halikounas",
    "updated_at": "2014-09-22T21:43:50.653479Z",
    "country": "gr",
    "parent": null,
    "longitude": 19.8729991912842,
    "latitude": 39.483699798584,
    "regions": [
      "107f",
      "1180"
    ]
  },
  {
    "code": "1fbdc",
    "name": "Los Naveros",
    "updated_at": "2014-09-22T21:43:50.634095Z",
    "country": "es",
    "parent": null,
    "longitude": -5.97849988937378,
    "latitude": 36.3581008911133,
    "regions": [
      "1053"
    ]
  },
  {
    "code": "1fbdb",
    "name": "Stanhope",
    "updated_at": "2014-09-22T21:43:50.613065Z",
    "country": "ca",
    "parent": null,
    "longitude": -63.1433982849121,
    "latitude": 46.4224014282227,
    "regions": [
      "131e"
    ]
  },
  {
    "code": "1fbda",
    "name": "Oberägeri",
    "updated_at": "2014-09-22T21:43:50.547511Z",
    "country": "ch",
    "parent": null,
    "longitude": 8.61458015441895,
    "latitude": 47.1366996765137,
    "regions": [
      "142d"
    ]
  },
  {
    "code": "1fbd9",
    "name": "Meien",
    "updated_at": "2014-09-22T21:43:50.528682Z",
    "country": "ch",
    "parent": null,
    "longitude": 8.55177021026611,
    "latitude": 46.7262992858887,
    "regions": [
      "142c"
    ]
  },
  {
    "code": "1fbd8",
    "name": "Heiligkreuz",
    "updated_at": "2014-09-22T21:43:50.514852Z",
    "country": "ch",
    "parent": null,
    "longitude": 8.05000019073486,
    "latitude": 46.9492988586426,
    "regions": [
      "1424"
    ]
  },
  {
    "code": "1fbd7",
    "name": "Finstersee",
    "updated_at": "2014-09-22T21:43:50.500422Z",
    "country": "ch",
    "parent": null,
    "longitude": 8.62963008880615,
    "latitude": 47.1678009033203,
    "regions": [
      "1031",
      "142d"
    ]
  },
  {
    "code": "1fbd6",
    "name": "Richmond",
    "updated_at": "2014-09-22T21:43:50.486560Z",
    "country": "nz",
    "parent": null,
    "longitude": 173.188003540039,
    "latitude": -41.342399597168,
    "regions": []
  },
  {
    "code": "1fbd5",
    "name": "Sella Nevea",
    "updated_at": "2014-09-22T21:43:50.472138Z",
    "country": "it",
    "parent": null,
    "longitude": 13.4739999771118,
    "latitude": 46.3899993896484,
    "regions": [
      "1096"
    ]
  },
  {
    "code": "1fbd4",
    "name": "Marina di Modica",
    "updated_at": "2014-09-22T21:43:50.455438Z",
    "country": "it",
    "parent": null,
    "longitude": 14.7779998779297,
    "latitude": 36.7130012512207,
    "regions": [
      "109e"
    ]
  },
  {
    "code": "1fbd3",
    "name": "Paliochori",
    "updated_at": "2014-09-22T21:43:50.439071Z",
    "country": "gr",
    "parent": null,
    "longitude": 24.5179996490479,
    "latitude": 36.6749992370605,
    "regions": [
      "107d",
      "11db"
    ]
  },
  {
    "code": "1fbd2",
    "name": "Torre Vado",
    "updated_at": "2014-09-22T21:43:50.409152Z",
    "country": "it",
    "parent": null,
    "longitude": 18.2749996185303,
    "latitude": 39.8339996337891,
    "regions": [
      "109c"
    ]
  },
  {
    "code": "1fbd1",
    "name": "Wisen",
    "updated_at": "2014-09-22T21:43:50.392675Z",
    "country": "ch",
    "parent": null,
    "longitude": 7.88676023483276,
    "latitude": 47.3931007385254,
    "regions": [
      "142a"
    ]
  },
  {
    "code": "1fbd0",
    "name": "Härkingen",
    "updated_at": "2014-09-22T21:43:50.378888Z",
    "country": "ch",
    "parent": null,
    "longitude": 7.82002019882202,
    "latitude": 47.3056983947754,
    "regions": [
      "142a"
    ]
  },
  {
    "code": "1fbcf",
    "name": "Guazuvira",
    "updated_at": "2014-09-22T21:43:50.364900Z",
    "country": "uy",
    "parent": null,
    "longitude": -55.6129989624023,
    "latitude": -34.7639999389648,
    "regions": [
      "156c"
    ]
  },
  {
    "code": "1fbce",
    "name": "Montorio",
    "updated_at": "2014-09-22T21:43:50.348443Z",
    "country": "it",
    "parent": null,
    "longitude": 10.9630002975464,
    "latitude": 43.8320007324219,
    "regions": [
      "109f"
    ]
  },
  {
    "code": "1fbcd",
    "name": "Pickmere",
    "updated_at": "2014-09-22T21:43:50.331083Z",
    "country": "gb",
    "parent": null,
    "longitude": -2.46099996566772,
    "latitude": 53.2890014648438,
    "regions": [
      "11ae"
    ]
  },
  {
    "code": "1fbcc",
    "name": "Montevecchia",
    "updated_at": "2014-09-22T21:43:50.315035Z",
    "country": "it",
    "parent": null,
    "longitude": 9.38000011444092,
    "latitude": 45.7050018310547,
    "regions": [
      "1099"
    ]
  },
  {
    "code": "1fbcb",
    "name": "San Sisto",
    "updated_at": "2014-09-22T21:43:50.297623Z",
    "country": "it",
    "parent": null,
    "longitude": 12.3459997177124,
    "latitude": 43.0839996337891,
    "regions": [
      "10a1"
    ]
  },
  {
    "code": "1fbca",
    "name": "Red Bay",
    "updated_at": "2014-09-22T21:43:50.273769Z",
    "country": "ca",
    "parent": null,
    "longitude": -81.2826995849609,
    "latitude": 44.8044013977051,
    "regions": []
  },
  {
    "code": "1fbc9",
    "name": "Romoos",
    "updated_at": "2014-09-22T21:43:50.225284Z",
    "country": "ch",
    "parent": null,
    "longitude": 8.02894973754883,
    "latitude": 47.0116996765137,
    "regions": [
      "1424"
    ]
  },
  {
    "code": "1fbc8",
    "name": "Rottnest Island",
    "updated_at": "2014-09-22T21:43:50.190056Z",
    "country": "au",
    "parent": null,
    "longitude": 115.513999938965,
    "latitude": -32.0035018920898,
    "regions": [
      "115a"
    ]
  },
  {
    "code": "1fbc7",
    "name": "Panorama",
    "updated_at": "2014-09-22T21:43:50.161412Z",
    "country": "ca",
    "parent": null,
    "longitude": -116.237998962402,
    "latitude": 50.4584007263184,
    "regions": [
      "102a"
    ]
  },
  {
    "code": "1fbc6",
    "name": "Ringoldswil",
    "updated_at": "2014-09-22T21:43:50.115872Z",
    "country": "ch",
    "parent": null,
    "longitude": 7.69471979141235,
    "latitude": 46.7332992553711,
    "regions": [
      "1421"
    ]
  },
  {
    "code": "1fbc5",
    "name": "Hasliberg Wasserwendi",
    "updated_at": "2014-09-22T21:43:50.100537Z",
    "country": "ch",
    "parent": null,
    "longitude": 8.19832992553711,
    "latitude": 46.7463989257812,
    "regions": [
      "1421"
    ]
  },
  {
    "code": "1fbc4",
    "name": "Scharnachtal ",
    "updated_at": "2014-09-22T21:43:50.084632Z",
    "country": "ch",
    "parent": null,
    "longitude": 7.69815015792847,
    "latitude": 46.6147994995117,
    "regions": [
      "1421"
    ]
  },
  {
    "code": "1fbc3",
    "name": "Rosenlaui ",
    "updated_at": "2014-09-22T21:43:50.068570Z",
    "country": "ch",
    "parent": null,
    "longitude": 8.15365028381348,
    "latitude": 46.6805000305176,
    "regions": []
  },
  {
    "code": "1fbc2",
    "name": "Niederstocken ",
    "updated_at": "2014-09-22T21:43:50.052914Z",
    "country": "ch",
    "parent": null,
    "longitude": 7.58413982391357,
    "latitude": 46.7025985717773,
    "regions": [
      "1421"
    ]
  },
  {
    "code": "1fbc1",
    "name": "Hofstetten ",
    "updated_at": "2014-09-22T21:43:50.026486Z",
    "country": "ch",
    "parent": null,
    "longitude": 8.07516002655029,
    "latitude": 46.7541999816895,
    "regions": [
      "1421"
    ]
  },
  {
    "code": "1fbc0",
    "name": "Achseten",
    "updated_at": "2014-09-22T21:43:50.000048Z",
    "country": "ch",
    "parent": null,
    "longitude": 7.59600019454956,
    "latitude": 46.5283012390137,
    "regions": [
      "1421"
    ]
  },
  {
    "code": "1fbbf",
    "name": "Villanueva de Ardisana",
    "updated_at": "2014-09-22T21:43:49.977000Z",
    "country": "es",
    "parent": null,
    "longitude": -4.93451976776123,
    "latitude": 43.385799407959,
    "regions": [
      "1055"
    ]
  },
  {
    "code": "1fbbe",
    "name": "Grimsel Hospiz",
    "updated_at": "2014-09-22T21:43:49.946400Z",
    "country": "ch",
    "parent": null,
    "longitude": 8.33300018310547,
    "latitude": 46.5719985961914,
    "regions": [
      "1421"
    ]
  },
  {
    "code": "1fbbd",
    "name": "Fossa",
    "updated_at": "2014-09-22T21:43:49.915076Z",
    "country": "ie",
    "parent": null,
    "longitude": -9.58385467529297,
    "latitude": 52.0693778991699,
    "regions": [
      "1088"
    ]
  },
  {
    "code": "1fbbc",
    "name": "Mill Bay",
    "updated_at": "2014-09-22T21:43:49.883691Z",
    "country": "ca",
    "parent": null,
    "longitude": -123.556999206543,
    "latitude": 48.6502990722656,
    "regions": [
      "102a",
      "135b"
    ]
  },
  {
    "code": "1fbbb",
    "name": "Saint-Basile",
    "updated_at": "2014-09-22T21:43:49.837627Z",
    "country": "ca",
    "parent": null,
    "longitude": -68.2070007324219,
    "latitude": 47.3470001220703,
    "regions": [
      "131c"
    ]
  },
  {
    "code": "1fbba",
    "name": "Rolim de Moura",
    "updated_at": "2014-09-22T21:43:49.791364Z",
    "country": "br",
    "parent": null,
    "longitude": -61.7760009765625,
    "latitude": -11.7270002365112,
    "regions": [
      "13db"
    ]
  },
  {
    "code": "1fbb9",
    "name": "Stokes Bay",
    "updated_at": "2014-09-22T21:43:49.772891Z",
    "country": "au",
    "parent": null,
    "longitude": 137.203002929688,
    "latitude": -35.6290016174316,
    "regions": [
      "115b",
      "13e3"
    ]
  },
  {
    "code": "1fbb8",
    "name": "Kemble",
    "updated_at": "2014-09-22T21:43:49.705351Z",
    "country": "ca",
    "parent": null,
    "longitude": -80.9319000244141,
    "latitude": 44.7247009277344,
    "regions": [
      "102b"
    ]
  },
  {
    "code": "1fbb7",
    "name": "Juquei",
    "updated_at": "2014-09-22T21:43:49.648615Z",
    "country": "br",
    "parent": null,
    "longitude": -45.7299995422363,
    "latitude": -23.763500213623,
    "regions": [
      "1028"
    ]
  },
  {
    "code": "1fbb6",
    "name": "Bunaken",
    "updated_at": "2014-09-22T21:43:49.626394Z",
    "country": "id",
    "parent": null,
    "longitude": 124.75,
    "latitude": 1.61600005626678,
    "regions": [
      "159b"
    ]
  },
  {
    "code": "1fbb5",
    "name": "Neo Klima",
    "updated_at": "2014-09-22T21:43:49.568895Z",
    "country": "gr",
    "parent": null,
    "longitude": 23.6450004577637,
    "latitude": 39.1389999389648,
    "regions": [
      "1292",
      "143a"
    ]
  },
  {
    "code": "1fbb4",
    "name": "Jekyll Island",
    "updated_at": "2014-09-22T21:43:49.530247Z",
    "country": "us",
    "parent": null,
    "longitude": -81.4179992675781,
    "latitude": 31.0690002441406,
    "regions": [
      "122d"
    ]
  },
  {
    "code": "1fbb3",
    "name": "Saint Zenon",
    "updated_at": "2014-09-22T21:43:49.497557Z",
    "country": "ca",
    "parent": null,
    "longitude": -73.8140029907227,
    "latitude": 46.5579986572266,
    "regions": [
      "102c"
    ]
  },
  {
    "code": "1fbb2",
    "name": "Enge-Sande",
    "updated_at": "2014-09-22T21:43:49.452244Z",
    "country": "de",
    "parent": null,
    "longitude": 8.98999977111816,
    "latitude": 54.7179985046387,
    "regions": [
      "104e"
    ]
  },
  {
    "code": "1fbb1",
    "name": "Sampatiki",
    "updated_at": "2014-09-22T21:43:49.434733Z",
    "country": "gr",
    "parent": null,
    "longitude": 22.9069995880127,
    "latitude": 37.189998626709,
    "regions": [
      "1439"
    ]
  },
  {
    "code": "1fbb0",
    "name": "Oneroa",
    "updated_at": "2014-09-22T21:43:49.416143Z",
    "country": "nz",
    "parent": null,
    "longitude": 175.02099609375,
    "latitude": -36.7869987487793,
    "regions": [
      "1162",
      "143f"
    ]
  },
  {
    "code": "1fbaf",
    "name": "Dickenson Bay",
    "updated_at": "2014-09-22T21:43:49.399633Z",
    "country": "ag",
    "parent": null,
    "longitude": -61.8478012084961,
    "latitude": 17.1590003967285,
    "regions": [
      "10f7"
    ]
  },
  {
    "code": "1fbae",
    "name": "Oden",
    "updated_at": "2014-09-22T21:43:49.384460Z",
    "country": "es",
    "parent": null,
    "longitude": 1.45500004291534,
    "latitude": 42.1319999694824,
    "regions": [
      "105c"
    ]
  },
  {
    "code": "1fbad",
    "name": "Valmuel",
    "updated_at": "2014-09-22T21:43:49.356415Z",
    "country": "es",
    "parent": null,
    "longitude": -0.214000001549721,
    "latitude": 41.1269989013672,
    "regions": [
      "1054"
    ]
  },
  {
    "code": "1fbac",
    "name": "Vokaria",
    "updated_at": "2014-09-22T21:43:49.328108Z",
    "country": "gr",
    "parent": null,
    "longitude": 26.1049995422363,
    "latitude": 38.2410011291504,
    "regions": [
      "127c"
    ]
  },
  {
    "code": "1fbab",
    "name": "Roccasparvera",
    "updated_at": "2014-09-22T21:43:49.297720Z",
    "country": "it",
    "parent": null,
    "longitude": 7.43521976470947,
    "latitude": 44.3462982177734,
    "regions": [
      "109b"
    ]
  },
  {
    "code": "1fbaa",
    "name": "Olyva",
    "updated_at": "2014-09-22T21:43:49.262923Z",
    "country": "xc",
    "parent": null,
    "longitude": 33.8672981262207,
    "latitude": 44.4143981933594,
    "regions": [
      "144a"
    ]
  },
  {
    "code": "1fba9",
    "name": "Pleasant Bay",
    "updated_at": "2014-09-22T21:43:49.226737Z",
    "country": "ca",
    "parent": null,
    "longitude": -60.798999786377,
    "latitude": 46.8230018615723,
    "regions": [
      "102d"
    ]
  },
  {
    "code": "1fba8",
    "name": "Mansfield",
    "updated_at": "2014-09-22T21:43:49.176365Z",
    "country": "ca",
    "parent": null,
    "longitude": -80.038200378418,
    "latitude": 44.1696014404297,
    "regions": [
      "102b"
    ]
  },
  {
    "code": "1fba7",
    "name": "Sonntag",
    "updated_at": "2014-09-22T21:43:49.131731Z",
    "country": "at",
    "parent": null,
    "longitude": 9.89799976348877,
    "latitude": 47.2379989624023,
    "regions": [
      "10ef"
    ]
  },
  {
    "code": "1fba6",
    "name": "Meziadin Junction",
    "updated_at": "2014-09-22T21:43:49.115592Z",
    "country": "ca",
    "parent": null,
    "longitude": -129.300003051758,
    "latitude": 56.1013984680176,
    "regions": [
      "102a"
    ]
  },
  {
    "code": "1fba5",
    "name": "Kalogria",
    "updated_at": "2014-09-22T21:43:49.069045Z",
    "country": "gr",
    "parent": null,
    "longitude": 23.7217998504639,
    "latitude": 40.1721000671387,
    "regions": [
      "14cb"
    ]
  },
  {
    "code": "1fba4",
    "name": "Bragg Creek",
    "updated_at": "2014-09-22T21:43:49.048948Z",
    "country": "ca",
    "parent": null,
    "longitude": -114.565002441406,
    "latitude": 50.9519996643066,
    "regions": [
      "1319"
    ]
  },
  {
    "code": "1fba3",
    "name": "Sorreisa",
    "updated_at": "2014-09-22T21:43:48.994736Z",
    "country": "no",
    "parent": null,
    "longitude": 18.1520004272461,
    "latitude": 69.1449966430664,
    "regions": [
      "11a4"
    ]
  },
  {
    "code": "1fba2",
    "name": "Saluang",
    "updated_at": "2014-09-22T21:43:48.965819Z",
    "country": "th",
    "parent": null,
    "longitude": 98.8720016479492,
    "latitude": 19.0230007171631,
    "regions": [
      "143b"
    ]
  },
  {
    "code": "1fba1",
    "name": "Milo",
    "updated_at": "2014-09-22T21:43:48.926047Z",
    "country": "it",
    "parent": null,
    "longitude": 12.581000328064,
    "latitude": 38.0130004882812,
    "regions": [
      "109e"
    ]
  },
  {
    "code": "1fba0",
    "name": "Rial",
    "updated_at": "2014-09-22T21:43:48.892870Z",
    "country": "es",
    "parent": null,
    "longitude": -8.70300006866455,
    "latitude": 42.4410018920898,
    "regions": [
      "105d"
    ]
  },
  {
    "code": "1fb9f",
    "name": "Valmorea",
    "updated_at": "2014-09-22T21:43:48.872771Z",
    "country": "it",
    "parent": null,
    "longitude": 8.93169975280762,
    "latitude": 45.8162002563477,
    "regions": [
      "1099"
    ]
  },
  {
    "code": "1fb9e",
    "name": "Cookstown",
    "updated_at": "2014-09-22T21:43:48.847825Z",
    "country": "ca",
    "parent": null,
    "longitude": -79.6996002197266,
    "latitude": 44.1887016296387,
    "regions": [
      "102b"
    ]
  },
  {
    "code": "1fb9d",
    "name": "Kurovo",
    "updated_at": "2014-09-22T21:43:48.798283Z",
    "country": "ru",
    "parent": null,
    "longitude": 37.5540008544922,
    "latitude": 56.273998260498,
    "regions": [
      "1451"
    ]
  },
  {
    "code": "1fb9c",
    "name": "Lake Eacham",
    "updated_at": "2014-09-22T21:43:48.771179Z",
    "country": "au",
    "parent": null,
    "longitude": 145.634002685547,
    "latitude": -17.30299949646,
    "regions": [
      "100d"
    ]
  },
  {
    "code": "1fb9b",
    "name": "Monteluco",
    "updated_at": "2014-09-22T21:43:48.745383Z",
    "country": "it",
    "parent": null,
    "longitude": 12.7534999847412,
    "latitude": 42.7233009338379,
    "regions": [
      "10a1"
    ]
  },
  {
    "code": "1fb9a",
    "name": "Cortaccione",
    "updated_at": "2014-09-22T21:43:48.719787Z",
    "country": "it",
    "parent": null,
    "longitude": 12.7597999572754,
    "latitude": 42.7650985717773,
    "regions": [
      "10a1"
    ]
  },
  {
    "code": "1fb99",
    "name": "San Sabino",
    "updated_at": "2014-09-22T21:43:48.689154Z",
    "country": "it",
    "parent": null,
    "longitude": 12.7349996566772,
    "latitude": 42.7630996704102,
    "regions": [
      "10a1"
    ]
  },
  {
    "code": "1fb98",
    "name": "Brognaturo",
    "updated_at": "2014-09-22T21:43:48.653728Z",
    "country": "it",
    "parent": null,
    "longitude": 16.3404006958008,
    "latitude": 38.6026000976562,
    "regions": [
      "1093"
    ]
  },
  {
    "code": "1fb97",
    "name": "Lone Butte",
    "updated_at": "2014-09-22T21:43:48.617117Z",
    "country": "ca",
    "parent": null,
    "longitude": -121.200996398926,
    "latitude": 51.5546989440918,
    "regions": [
      "102a"
    ]
  },
  {
    "code": "1fb96",
    "name": "Kurobe",
    "updated_at": "2014-09-22T21:43:48.567216Z",
    "country": "jp",
    "parent": null,
    "longitude": 137.434005737305,
    "latitude": 36.8700981140137,
    "regions": [
      "1472"
    ]
  },
  {
    "code": "1fb95",
    "name": "Fuefuki",
    "updated_at": "2014-09-22T21:43:48.550605Z",
    "country": "jp",
    "parent": null,
    "longitude": 138.639999389648,
    "latitude": 35.646900177002,
    "regions": [
      "1473"
    ]
  },
  {
    "code": "1fb94",
    "name": "Sumba",
    "updated_at": "2014-09-22T21:43:48.534087Z",
    "country": "id",
    "parent": null,
    "longitude": 120.125,
    "latitude": -9.485520362854,
    "regions": [
      "158e"
    ]
  },
  {
    "code": "1fb93",
    "name": "Trois Rives",
    "updated_at": "2014-09-22T21:43:48.512995Z",
    "country": "ca",
    "parent": null,
    "longitude": -72.7303009033203,
    "latitude": 46.9852981567383,
    "regions": [
      "102c"
    ]
  },
  {
    "code": "1fb92",
    "name": "Lhaviyani Atoll",
    "updated_at": "2014-09-22T21:43:48.467218Z",
    "country": "mv",
    "parent": null,
    "longitude": 73.4738998413086,
    "latitude": 5.32461977005005,
    "regions": []
  },
  {
    "code": "1fb91",
    "name": "San Leonardello",
    "updated_at": "2014-09-22T21:43:48.446116Z",
    "country": "it",
    "parent": null,
    "longitude": 15.1721000671387,
    "latitude": 37.6888008117676,
    "regions": [
      "109e"
    ]
  },
  {
    "code": "1fb90",
    "name": "Mecseknádasd",
    "updated_at": "2014-09-22T21:43:48.417414Z",
    "country": "hu",
    "parent": null,
    "longitude": 18.4731006622314,
    "latitude": 46.2256011962891,
    "regions": [
      "14d0"
    ]
  },
  {
    "code": "1fb8f",
    "name": "Rarotonga",
    "updated_at": "2014-09-22T21:43:48.391579Z",
    "country": "ck",
    "parent": null,
    "longitude": -159.774993896484,
    "latitude": -21.2289009094238,
    "regions": [
      "13ff"
    ]
  },
  {
    "code": "1fb8e",
    "name": "Tongatapu",
    "updated_at": "2014-09-22T21:43:48.361203Z",
    "country": "to",
    "parent": null,
    "longitude": -175.177001953125,
    "latitude": -21.1077995300293,
    "regions": [
      "1651"
    ]
  },
  {
    "code": "1fb8d",
    "name": "Blueys Beach",
    "updated_at": "2014-09-22T21:43:48.326368Z",
    "country": "au",
    "parent": null,
    "longitude": 152.535995483398,
    "latitude": -32.347900390625,
    "regions": [
      "100b"
    ]
  },
  {
    "code": "1fb8c",
    "name": "Lac-Brome",
    "updated_at": "2014-09-22T21:43:48.288476Z",
    "country": "ca",
    "parent": null,
    "longitude": -72.5167007446289,
    "latitude": 45.2167015075684,
    "regions": [
      "102c"
    ]
  },
  {
    "code": "1fb8b",
    "name": "Sainte-Anne-de-la-Pérade",
    "updated_at": "2014-09-22T21:43:48.244558Z",
    "country": "ca",
    "parent": null,
    "longitude": -72.2049026489258,
    "latitude": 46.5721015930176,
    "regions": [
      "102c"
    ]
  },
  {
    "code": "1fb8a",
    "name": "Lampenberg",
    "updated_at": "2014-09-22T21:43:48.199145Z",
    "country": "ch",
    "parent": null,
    "longitude": 7.75870990753174,
    "latitude": 47.4258003234863,
    "regions": [
      "141a"
    ]
  },
  {
    "code": "1fb89",
    "name": "Barolo",
    "updated_at": "2014-09-22T21:43:48.183469Z",
    "country": "it",
    "parent": null,
    "longitude": 7.9425802230835,
    "latitude": 44.6104011535645,
    "regions": [
      "109b"
    ]
  },
  {
    "code": "1fb88",
    "name": "A Cachada",
    "updated_at": "2014-09-22T21:43:48.165129Z",
    "country": "es",
    "parent": null,
    "longitude": -8.81970024108887,
    "latitude": 42.4240989685059,
    "regions": [
      "105d"
    ]
  },
  {
    "code": "1fb87",
    "name": "Conzano",
    "updated_at": "2014-09-22T21:43:48.146745Z",
    "country": "it",
    "parent": null,
    "longitude": 8.45400047302246,
    "latitude": 45.0200004577637,
    "regions": [
      "109b"
    ]
  },
  {
    "code": "1fb86",
    "name": "Mombello Monferrato",
    "updated_at": "2014-09-22T21:43:48.120686Z",
    "country": "it",
    "parent": null,
    "longitude": 8.25,
    "latitude": 45.1319999694824,
    "regions": [
      "109b"
    ]
  },
  {
    "code": "1fb85",
    "name": "Kemionsaari",
    "updated_at": "2014-09-22T21:43:48.092348Z",
    "country": "fi",
    "parent": null,
    "longitude": 22.7275009155273,
    "latitude": 60.2002983093262,
    "regions": [
      "1068"
    ]
  },
  {
    "code": "1fb84",
    "name": "Smiths Cove",
    "updated_at": "2014-09-22T21:43:48.065036Z",
    "country": "ca",
    "parent": null,
    "longitude": -65.7020034790039,
    "latitude": 44.6119995117188,
    "regions": [
      "102d"
    ]
  },
  {
    "code": "1fb83",
    "name": "New Minas",
    "updated_at": "2014-09-22T21:43:48.002868Z",
    "country": "ca",
    "parent": null,
    "longitude": -64.4690017700195,
    "latitude": 45.0688018798828,
    "regions": [
      "102d"
    ]
  },
  {
    "code": "1fb82",
    "name": "Falasarna",
    "updated_at": "2014-09-22T21:43:47.941791Z",
    "country": "gr",
    "parent": "23a96",
    "longitude": 23.5785999298096,
    "latitude": 35.4827995300293,
    "regions": [
      "107c"
    ]
  },
  {
    "code": "1fb81",
    "name": "Telkwa",
    "updated_at": "2014-09-22T21:43:47.913056Z",
    "country": "ca",
    "parent": null,
    "longitude": -127.047996520996,
    "latitude": 54.6949996948242,
    "regions": [
      "102a"
    ]
  },
  {
    "code": "1fb80",
    "name": "Maho Reef",
    "updated_at": "2014-09-22T21:43:47.853367Z",
    "country": "sx",
    "parent": null,
    "longitude": -63.1189994812012,
    "latitude": 18.0419998168945,
    "regions": []
  },
  {
    "code": "1fb7f",
    "name": "Roques Sur Garonne",
    "updated_at": "2014-09-22T21:43:47.838126Z",
    "country": "fr",
    "parent": null,
    "longitude": 1.37600004673004,
    "latitude": 43.5089988708496,
    "regions": [
      "1075"
    ]
  },
  {
    "code": "1fb7e",
    "name": "Neggio",
    "updated_at": "2014-09-22T21:43:47.819705Z",
    "country": "ch",
    "parent": null,
    "longitude": 8.87899971008301,
    "latitude": 45.9869995117188,
    "regions": [
      "102f"
    ]
  },
  {
    "code": "1fb7d",
    "name": "Tulamben",
    "updated_at": "2018-03-20T08:50:02.607403Z",
    "country": "id",
    "parent": "23a95",
    "longitude": 115.587997436523,
    "latitude": -8.29300022125244,
    "regions": [
      "1080"
    ]
  },
  {
    "code": "1fb7c",
    "name": "North Saanich",
    "updated_at": "2014-09-22T21:43:47.777773Z",
    "country": "ca",
    "parent": null,
    "longitude": -123.416999816895,
    "latitude": 48.6175003051758,
    "regions": [
      "102a",
      "135b"
    ]
  },
  {
    "code": "1fb7b",
    "name": "Sir Lowry Pass",
    "updated_at": "2014-09-22T21:43:47.725934Z",
    "country": "za",
    "parent": null,
    "longitude": 18.9090003967285,
    "latitude": -34.1209983825684,
    "regions": [
      "10e9"
    ]
  },
  {
    "code": "1fb7a",
    "name": "Westoverledingen",
    "updated_at": "2014-09-22T21:43:47.696989Z",
    "country": "de",
    "parent": null,
    "longitude": 7.45900011062622,
    "latitude": 53.1679992675781,
    "regions": [
      "1048"
    ]
  },
  {
    "code": "1fb79",
    "name": "Elafonisi ",
    "updated_at": "2014-09-22T21:43:47.661658Z",
    "country": "gr",
    "parent": null,
    "longitude": 23.5440006256104,
    "latitude": 35.2750015258789,
    "regions": []
  },
  {
    "code": "1fb78",
    "name": "Malcocinado",
    "updated_at": "2014-09-22T21:43:47.626509Z",
    "country": "es",
    "parent": null,
    "longitude": -5.86700010299683,
    "latitude": 36.3580017089844,
    "regions": [
      "1053"
    ]
  },
  {
    "code": "1fb77",
    "name": "Villa Meliquina",
    "updated_at": "2014-09-22T21:43:47.600568Z",
    "country": "ar",
    "parent": null,
    "longitude": -71.2559967041016,
    "latitude": -40.3790016174316,
    "regions": [
      "13ce"
    ]
  },
  {
    "code": "1fb76",
    "name": "Osaki",
    "updated_at": "2014-09-22T21:43:47.583577Z",
    "country": "jp",
    "parent": null,
    "longitude": 140.966995239258,
    "latitude": 38.5699996948242,
    "regions": [
      "145f"
    ]
  },
  {
    "code": "1fb75",
    "name": "Higashihiroshima",
    "updated_at": "2014-09-22T21:43:47.565502Z",
    "country": "jp",
    "parent": null,
    "longitude": 132.740005493164,
    "latitude": 34.4259986877441,
    "regions": [
      "1480"
    ]
  },
  {
    "code": "1fb74",
    "name": "Bueres",
    "updated_at": "2014-09-22T21:43:47.547029Z",
    "country": "es",
    "parent": null,
    "longitude": -5.34999990463257,
    "latitude": 43.2089996337891,
    "regions": [
      "1055"
    ]
  },
  {
    "code": "1fb73",
    "name": "Brule Mines",
    "updated_at": "2014-09-22T21:43:47.527288Z",
    "country": "ca",
    "parent": null,
    "longitude": -117.870002746582,
    "latitude": 53.3089981079102,
    "regions": [
      "1319"
    ]
  },
  {
    "code": "1fb72",
    "name": "Mount Washington",
    "updated_at": "2014-09-22T21:43:47.480534Z",
    "country": "ca",
    "parent": null,
    "longitude": -125.307998657227,
    "latitude": 49.7379989624023,
    "regions": [
      "102a",
      "135b"
    ]
  },
  {
    "code": "1fb71",
    "name": "Alcoleja",
    "updated_at": "2014-09-22T21:43:47.424545Z",
    "country": "es",
    "parent": null,
    "longitude": -0.331999987363815,
    "latitude": 38.6749992370605,
    "regions": [
      "117b"
    ]
  },
  {
    "code": "1fb70",
    "name": "Alto Porvorim",
    "updated_at": "2014-09-22T21:43:47.398030Z",
    "country": "in",
    "parent": null,
    "longitude": 73.8339996337891,
    "latitude": 15.5200004577637,
    "regions": [
      "1442"
    ]
  },
  {
    "code": "1fb6f",
    "name": "Sabaris",
    "updated_at": "2014-09-22T21:43:47.368088Z",
    "country": "es",
    "parent": null,
    "longitude": -8.81700038909912,
    "latitude": 42.1129989624023,
    "regions": [
      "105d"
    ]
  },
  {
    "code": "1fb6e",
    "name": "Laurier Station",
    "updated_at": "2014-09-22T21:43:47.330703Z",
    "country": "ca",
    "parent": null,
    "longitude": -71.6309967041016,
    "latitude": 46.5379981994629,
    "regions": [
      "102c"
    ]
  },
  {
    "code": "1fb6d",
    "name": "Ebina",
    "updated_at": "2014-09-22T21:43:47.268866Z",
    "country": "jp",
    "parent": null,
    "longitude": 139.389999389648,
    "latitude": 35.4459991455078,
    "regions": [
      "1471"
    ]
  },
  {
    "code": "1fb6c",
    "name": "Kfar Adumim",
    "updated_at": "2014-09-22T21:43:47.249893Z",
    "country": "il",
    "parent": null,
    "longitude": 35.3370018005371,
    "latitude": 31.8271999359131,
    "regions": []
  },
  {
    "code": "1fb6b",
    "name": "Sorico",
    "updated_at": "2014-09-22T21:43:47.234885Z",
    "country": "it",
    "parent": null,
    "longitude": 9.38516998291016,
    "latitude": 46.1735992431641,
    "regions": [
      "1099"
    ]
  },
  {
    "code": "1fb6a",
    "name": "Dwyran",
    "updated_at": "2014-09-22T21:43:47.215990Z",
    "country": "gb",
    "parent": null,
    "longitude": -4.3289999961853,
    "latitude": 53.1629981994629,
    "regions": [
      "120e",
      "1333"
    ]
  },
  {
    "code": "1fb69",
    "name": "Dagali",
    "updated_at": "2014-09-22T21:43:47.198931Z",
    "country": "no",
    "parent": null,
    "longitude": 8.44699954986572,
    "latitude": 60.4119987487793,
    "regions": [
      "10c1"
    ]
  },
  {
    "code": "1fb68",
    "name": "Saitama",
    "updated_at": "2014-09-22T21:43:47.179480Z",
    "country": "jp",
    "parent": null,
    "longitude": 139.645004272461,
    "latitude": 35.8610000610352,
    "regions": [
      "146f"
    ]
  },
  {
    "code": "1fb67",
    "name": "Christina",
    "updated_at": "2014-09-22T21:43:47.157368Z",
    "country": "ca",
    "parent": null,
    "longitude": -118.21199798584,
    "latitude": 49.0414009094238,
    "regions": [
      "102a"
    ]
  },
  {
    "code": "1fb66",
    "name": "Ajangiz",
    "updated_at": "2014-09-22T21:43:47.098994Z",
    "country": "es",
    "parent": null,
    "longitude": -2.66100001335144,
    "latitude": 43.3120002746582,
    "regions": [
      "1057"
    ]
  },
  {
    "code": "1fb65",
    "name": "Bosia",
    "updated_at": "2014-09-22T21:43:47.070737Z",
    "country": "it",
    "parent": null,
    "longitude": 8.14599990844727,
    "latitude": 44.6020011901855,
    "regions": [
      "109b"
    ]
  },
  {
    "code": "1fb64",
    "name": "Passo San Pellegrino",
    "updated_at": "2014-09-22T21:43:47.036217Z",
    "country": "it",
    "parent": null,
    "longitude": 11.7869997024536,
    "latitude": 46.3779983520508,
    "regions": [
      "10a0"
    ]
  },
  {
    "code": "1fb63",
    "name": "Ridanna",
    "updated_at": "2014-09-22T21:43:47.001167Z",
    "country": "it",
    "parent": null,
    "longitude": 11.3055000305176,
    "latitude": 46.910099029541,
    "regions": [
      "10a0"
    ]
  },
  {
    "code": "1fb62",
    "name": "Aranno",
    "updated_at": "2014-09-22T21:43:46.967193Z",
    "country": "ch",
    "parent": null,
    "longitude": 8.87094974517822,
    "latitude": 46.0181999206543,
    "regions": [
      "102f"
    ]
  },
  {
    "code": "1fb61",
    "name": "Canning",
    "updated_at": "2014-09-22T21:43:46.951677Z",
    "country": "ca",
    "parent": null,
    "longitude": -64.4281005859375,
    "latitude": 45.1584014892578,
    "regions": [
      "102d"
    ]
  },
  {
    "code": "1fb60",
    "name": "Guildford",
    "updated_at": "2014-09-22T21:43:46.908030Z",
    "country": "ca",
    "parent": null,
    "longitude": -122.811996459961,
    "latitude": 49.1980018615723,
    "regions": [
      "102a"
    ]
  },
  {
    "code": "1fb5f",
    "name": "Steni Vala Alonissos",
    "updated_at": "2014-09-22T21:43:46.863478Z",
    "country": "gr",
    "parent": null,
    "longitude": 23.923999786377,
    "latitude": 39.1920013427734,
    "regions": [
      "1291",
      "143a"
    ]
  },
  {
    "code": "1fb5e",
    "name": "Baie Longue",
    "updated_at": "2014-09-22T21:43:46.843823Z",
    "country": "mf",
    "parent": null,
    "longitude": -63.1440010070801,
    "latitude": 18.0599994659424,
    "regions": []
  },
  {
    "code": "1fb5d",
    "name": "Tinaroo",
    "updated_at": "2014-09-22T21:43:46.826847Z",
    "country": "au",
    "parent": null,
    "longitude": 145.546997070312,
    "latitude": -17.1690006256104,
    "regions": [
      "100d"
    ]
  },
  {
    "code": "1fb5c",
    "name": "Vincentia",
    "updated_at": "2014-09-22T21:43:46.801500Z",
    "country": "au",
    "parent": null,
    "longitude": 150.675003051758,
    "latitude": -35.0690002441406,
    "regions": [
      "100b"
    ]
  },
  {
    "code": "1fb5b",
    "name": "Schwanau",
    "updated_at": "2014-09-22T21:43:46.720817Z",
    "country": "de",
    "parent": null,
    "longitude": 7.75943994522095,
    "latitude": 48.3493995666504,
    "regions": [
      "1044"
    ]
  },
  {
    "code": "1fb5a",
    "name": "Boicucanga",
    "updated_at": "2014-09-22T21:43:46.685960Z",
    "country": "br",
    "parent": null,
    "longitude": -45.6240005493164,
    "latitude": -23.7830009460449,
    "regions": [
      "1028"
    ]
  },
  {
    "code": "1fb59",
    "name": "Larrabetzu",
    "updated_at": "2014-09-22T21:43:46.651182Z",
    "country": "es",
    "parent": null,
    "longitude": -2.79500007629395,
    "latitude": 43.2610015869141,
    "regions": [
      "1057"
    ]
  },
  {
    "code": "1fb58",
    "name": "Dzoraget",
    "updated_at": "2014-09-22T21:43:46.604178Z",
    "country": "am",
    "parent": null,
    "longitude": 44.6290016174316,
    "latitude": 40.9449996948242,
    "regions": []
  },
  {
    "code": "1fb57",
    "name": "La Torre de Claramunt",
    "updated_at": "2014-09-22T21:43:46.588871Z",
    "country": "es",
    "parent": null,
    "longitude": 1.66100001335144,
    "latitude": 41.5349998474121,
    "regions": [
      "105c"
    ]
  },
  {
    "code": "1fb56",
    "name": "Gold River",
    "updated_at": "2014-09-22T21:43:46.570519Z",
    "country": "ca",
    "parent": null,
    "longitude": -126.051002502441,
    "latitude": 49.7760009765625,
    "regions": [
      "102a",
      "135b"
    ]
  },
  {
    "code": "1fb55",
    "name": "Castiglione Falletto",
    "updated_at": "2014-09-22T21:43:46.524643Z",
    "country": "it",
    "parent": null,
    "longitude": 7.97599983215332,
    "latitude": 44.6230010986328,
    "regions": [
      "109b"
    ]
  },
  {
    "code": "1fb54",
    "name": "Providenciales",
    "updated_at": "2014-09-22T21:43:46.506083Z",
    "country": "tc",
    "parent": null,
    "longitude": -72.2457427978516,
    "latitude": 21.7830448150635,
    "regions": [
      "1352"
    ]
  },
  {
    "code": "1fb53",
    "name": "Punta",
    "updated_at": "2014-09-22T21:43:46.458954Z",
    "country": "gr",
    "parent": null,
    "longitude": 23.5020008087158,
    "latitude": 39.1599998474121,
    "regions": [
      "1293",
      "143a"
    ]
  },
  {
    "code": "1fb52",
    "name": "Danilia",
    "updated_at": "2014-09-22T21:43:46.431051Z",
    "country": "gr",
    "parent": null,
    "longitude": 19.8428001403809,
    "latitude": 39.6581993103027,
    "regions": [
      "107f",
      "1180"
    ]
  },
  {
    "code": "1fb51",
    "name": "Koropi",
    "updated_at": "2014-09-22T21:43:46.396051Z",
    "country": "gr",
    "parent": null,
    "longitude": 23.1420001983643,
    "latitude": 39.2929992675781,
    "regions": [
      "143a"
    ]
  },
  {
    "code": "1fb50",
    "name": "Sainte-Flavie",
    "updated_at": "2014-09-22T21:43:46.360088Z",
    "country": "ca",
    "parent": null,
    "longitude": -68.2311019897461,
    "latitude": 48.6076011657715,
    "regions": [
      "102c"
    ]
  },
  {
    "code": "1fb4f",
    "name": "santa maria del focallo",
    "updated_at": "2014-09-22T21:43:46.305968Z",
    "country": "it",
    "parent": null,
    "longitude": 14.9378004074097,
    "latitude": 36.7150993347168,
    "regions": [
      "109e"
    ]
  },
  {
    "code": "1fb4e",
    "name": "Montegrosso",
    "updated_at": "2014-09-22T21:43:46.286685Z",
    "country": "it",
    "parent": null,
    "longitude": 16.1422996520996,
    "latitude": 41.1744995117188,
    "regions": [
      "109c"
    ]
  },
  {
    "code": "1fb4d",
    "name": "Conder Green",
    "updated_at": "2014-09-22T21:43:46.268080Z",
    "country": "gb",
    "parent": null,
    "longitude": -2.81699991226196,
    "latitude": 53.9930000305176,
    "regions": [
      "10de"
    ]
  },
  {
    "code": "1fb4c",
    "name": "Marrakai",
    "updated_at": "2014-09-22T21:43:46.249769Z",
    "country": "au",
    "parent": null,
    "longitude": 131.47900390625,
    "latitude": -12.746000289917,
    "regions": [
      "100c"
    ]
  },
  {
    "code": "1fb4b",
    "name": "Maria",
    "updated_at": "2014-09-22T21:43:46.229282Z",
    "country": "ca",
    "parent": null,
    "longitude": -65.9822998046875,
    "latitude": 48.1741981506348,
    "regions": [
      "102c"
    ]
  },
  {
    "code": "1fb4a",
    "name": "Popayan",
    "updated_at": "2014-09-22T21:43:46.181724Z",
    "country": "co",
    "parent": null,
    "longitude": -76.6139984130859,
    "latitude": 2.44400000572205,
    "regions": [
      "154c"
    ]
  },
  {
    "code": "1fb49",
    "name": "Polonghera",
    "updated_at": "2014-09-22T21:43:46.156033Z",
    "country": "it",
    "parent": null,
    "longitude": 7.59700012207031,
    "latitude": 44.8030014038086,
    "regions": [
      "109b"
    ]
  },
  {
    "code": "1fb48",
    "name": "Kurkimaki",
    "updated_at": "2014-09-22T21:43:46.130251Z",
    "country": "fi",
    "parent": null,
    "longitude": 27.4890003204346,
    "latitude": 62.7789993286133,
    "regions": [
      "1067"
    ]
  },
  {
    "code": "1fb47",
    "name": "Amoopi",
    "updated_at": "2014-09-22T21:43:46.099968Z",
    "country": "gr",
    "parent": null,
    "longitude": 27.1959991455078,
    "latitude": 35.4749984741211,
    "regions": [
      "107e",
      "127e"
    ]
  },
  {
    "code": "1fb46",
    "name": "Zab",
    "updated_at": "2014-09-22T21:43:46.065071Z",
    "country": "pl",
    "parent": null,
    "longitude": 19.94700050354,
    "latitude": 49.3370018005371,
    "regions": [
      "1131"
    ]
  },
  {
    "code": "1fb45",
    "name": "Platja de l’Almadrava",
    "updated_at": "2014-09-22T21:43:46.030822Z",
    "country": "es",
    "parent": null,
    "longitude": 0.856000006198883,
    "latitude": 40.9379997253418,
    "regions": [
      "105c"
    ]
  },
  {
    "code": "1fb44",
    "name": "Amethyst Harbour",
    "updated_at": "2014-09-22T21:43:46.008688Z",
    "country": "ca",
    "parent": null,
    "longitude": -88.8730010986328,
    "latitude": 48.5419998168945,
    "regions": [
      "102b"
    ]
  },
  {
    "code": "1fb43",
    "name": "Abu Dabab",
    "updated_at": "2014-09-22T21:43:45.962858Z",
    "country": "eg",
    "parent": null,
    "longitude": 34.7360000610352,
    "latitude": 25.3360004425049,
    "regions": [
      "1112"
    ]
  },
  {
    "code": "1fb42",
    "name": "Vassbo",
    "updated_at": "2014-09-22T21:43:45.946758Z",
    "country": "se",
    "parent": null,
    "longitude": 15.5260000228882,
    "latitude": 60.5260009765625,
    "regions": [
      "10ce"
    ]
  },
  {
    "code": "1fb41",
    "name": "Olden",
    "updated_at": "2014-09-22T21:43:45.929642Z",
    "country": "no",
    "parent": null,
    "longitude": 6.80932998657227,
    "latitude": 61.8338012695312,
    "regions": [
      "10c7"
    ]
  },
  {
    "code": "1fb40",
    "name": "Cornwall",
    "updated_at": "2014-09-22T21:43:45.889909Z",
    "country": "ca",
    "parent": null,
    "longitude": -63.2169990539551,
    "latitude": 46.2270011901855,
    "regions": [
      "131e"
    ]
  },
  {
    "code": "1fb3f",
    "name": "Curtatone",
    "updated_at": "2014-09-22T21:43:45.839099Z",
    "country": "it",
    "parent": null,
    "longitude": 10.7200002670288,
    "latitude": 45.132999420166,
    "regions": [
      "1099"
    ]
  },
  {
    "code": "1fb3e",
    "name": "Pabos",
    "updated_at": "2014-09-22T21:43:45.813268Z",
    "country": "ca",
    "parent": null,
    "longitude": -64.6084976196289,
    "latitude": 48.3616981506348,
    "regions": [
      "102c"
    ]
  },
  {
    "code": "1fb3d",
    "name": "Manesar",
    "updated_at": "2014-09-22T21:43:45.757544Z",
    "country": "in",
    "parent": null,
    "longitude": 76.9400024414062,
    "latitude": 28.3530006408691,
    "regions": [
      "1391",
      "14dd"
    ]
  },
  {
    "code": "1fb3c",
    "name": "Rollag",
    "updated_at": "2014-09-22T21:43:45.723194Z",
    "country": "no",
    "parent": null,
    "longitude": 9.30200004577637,
    "latitude": 59.9850006103516,
    "regions": [
      "10c1"
    ]
  },
  {
    "code": "1fb3b",
    "name": "La Santa Espina",
    "updated_at": "2014-09-22T21:43:45.686868Z",
    "country": "es",
    "parent": null,
    "longitude": -5.09800004959106,
    "latitude": 41.7319984436035,
    "regions": [
      "105b"
    ]
  },
  {
    "code": "1fb3a",
    "name": "Hampton",
    "updated_at": "2014-09-22T21:43:45.665259Z",
    "country": "us",
    "parent": null,
    "longitude": -84.2829971313477,
    "latitude": 33.3870010375977,
    "regions": [
      "122d"
    ]
  },
  {
    "code": "1fb39",
    "name": "Sant Jaume Enveja",
    "updated_at": "2014-09-22T21:43:45.640131Z",
    "country": "es",
    "parent": null,
    "longitude": 0.717000007629395,
    "latitude": 40.7060012817383,
    "regions": [
      "105c"
    ]
  },
  {
    "code": "1fb38",
    "name": "Brem-Sur-Mer",
    "updated_at": "2014-09-22T21:43:45.620665Z",
    "country": "fr",
    "parent": null,
    "longitude": -1.82859003543854,
    "latitude": 46.6127014160156,
    "regions": [
      "1077"
    ]
  },
  {
    "code": "1fb37",
    "name": "Windward Side",
    "updated_at": "2014-09-22T21:43:45.600607Z",
    "country": "bq",
    "parent": null,
    "longitude": -63.2309989929199,
    "latitude": 17.628999710083,
    "regions": [
      "15a9"
    ]
  },
  {
    "code": "1fb36",
    "name": "Heidal",
    "updated_at": "2014-09-22T21:43:45.583654Z",
    "country": "no",
    "parent": null,
    "longitude": 9.30500030517578,
    "latitude": 61.7560005187988,
    "regions": [
      "10c4"
    ]
  },
  {
    "code": "1fb35",
    "name": "Port d'Addaia",
    "updated_at": "2014-09-22T21:43:45.560137Z",
    "country": "es",
    "parent": null,
    "longitude": 4.19299983978271,
    "latitude": 40.0069999694824,
    "regions": [
      "1056",
      "1161"
    ]
  },
  {
    "code": "1fb34",
    "name": "Fanari",
    "updated_at": "2014-09-22T21:43:45.537308Z",
    "country": "gr",
    "parent": null,
    "longitude": 26.3519992828369,
    "latitude": 37.673999786377,
    "regions": [
      "12fa"
    ]
  },
  {
    "code": "1fb33",
    "name": "Whiston",
    "updated_at": "2014-09-22T21:43:45.508696Z",
    "country": "gb",
    "parent": null,
    "longitude": -1.94021999835968,
    "latitude": 53.0228004455566,
    "regions": []
  },
  {
    "code": "1fb32",
    "name": "Pieve a Maiano",
    "updated_at": "2014-09-22T21:43:45.473996Z",
    "country": "it",
    "parent": null,
    "longitude": 11.7569999694824,
    "latitude": 43.4630012512207,
    "regions": [
      "109f"
    ]
  },
  {
    "code": "1fb31",
    "name": "Bagnoro",
    "updated_at": "2014-09-22T21:43:45.438283Z",
    "country": "it",
    "parent": null,
    "longitude": 11.8920001983643,
    "latitude": 43.4339981079102,
    "regions": [
      "109f"
    ]
  },
  {
    "code": "1fb30",
    "name": "Mangakino",
    "updated_at": "2014-09-22T21:43:45.412090Z",
    "country": "nz",
    "parent": null,
    "longitude": 175.776000976562,
    "latitude": -38.3680000305176,
    "regions": [
      "1167"
    ]
  },
  {
    "code": "1fb2f",
    "name": "Lac La Hache",
    "updated_at": "2014-09-22T21:43:45.394731Z",
    "country": "ca",
    "parent": null,
    "longitude": -121.47200012207,
    "latitude": 51.8126983642578,
    "regions": [
      "102a"
    ]
  },
  {
    "code": "1fb2e",
    "name": "Sauraha",
    "updated_at": "2014-09-22T21:43:45.347093Z",
    "country": "np",
    "parent": null,
    "longitude": 84.4962005615234,
    "latitude": 27.5767002105713,
    "regions": []
  },
  {
    "code": "1fb2d",
    "name": "Caiano",
    "updated_at": "2014-09-22T21:43:45.329513Z",
    "country": "it",
    "parent": null,
    "longitude": 11.6529998779297,
    "latitude": 43.7680015563965,
    "regions": [
      "109f"
    ]
  },
  {
    "code": "1fb2c",
    "name": "Roure Turin",
    "updated_at": "2014-09-22T21:43:45.309835Z",
    "country": "it",
    "parent": null,
    "longitude": 7.12799978256226,
    "latitude": 45.0019989013672,
    "regions": [
      "109b"
    ]
  },
  {
    "code": "1fb2b",
    "name": "Lafkos",
    "updated_at": "2014-09-22T21:43:45.287742Z",
    "country": "gr",
    "parent": null,
    "longitude": 23.2462043762207,
    "latitude": 39.177547454834,
    "regions": [
      "143a"
    ]
  },
  {
    "code": "1fb2a",
    "name": "Piozzo",
    "updated_at": "2014-09-22T21:43:45.262215Z",
    "country": "it",
    "parent": null,
    "longitude": 7.89200019836426,
    "latitude": 44.5149993896484,
    "regions": [
      "109b"
    ]
  },
  {
    "code": "1fb29",
    "name": "Contrada Sauci Grande",
    "updated_at": "2014-09-22T21:43:45.203222Z",
    "country": "it",
    "parent": null,
    "longitude": 12.7774000167847,
    "latitude": 38.1369018554688,
    "regions": [
      "109e"
    ]
  },
  {
    "code": "1fb28",
    "name": "Lac-Simon",
    "updated_at": "2014-09-22T21:43:45.168010Z",
    "country": "ca",
    "parent": null,
    "longitude": -75.097900390625,
    "latitude": 45.8998985290527,
    "regions": [
      "102c"
    ]
  },
  {
    "code": "1fb27",
    "name": "Rogliano",
    "updated_at": "2014-09-22T21:43:45.109246Z",
    "country": "fr",
    "parent": null,
    "longitude": 9.4235897064209,
    "latitude": 42.9668006896973,
    "regions": [
      "115d"
    ]
  },
  {
    "code": "1fb26",
    "name": "Saint-Basile-le-Grand",
    "updated_at": "2014-09-22T21:43:45.089707Z",
    "country": "ca",
    "parent": null,
    "longitude": -73.2833023071289,
    "latitude": 45.5332984924316,
    "regions": [
      "102c"
    ]
  },
  {
    "code": "1fb25",
    "name": "Montagnaga",
    "updated_at": "2014-09-22T21:43:45.043440Z",
    "country": "it",
    "parent": null,
    "longitude": 11.2379999160767,
    "latitude": 46.1002998352051,
    "regions": [
      "10a0"
    ]
  },
  {
    "code": "1fb24",
    "name": "Lunde",
    "updated_at": "2014-09-22T21:43:45.005597Z",
    "country": "no",
    "parent": null,
    "longitude": 6.61700010299683,
    "latitude": 61.5209999084473,
    "regions": [
      "10c7"
    ]
  },
  {
    "code": "1fb23",
    "name": "Turtle Cove",
    "updated_at": "2014-09-22T21:43:44.985449Z",
    "country": "tc",
    "parent": null,
    "longitude": -72.2269973754883,
    "latitude": 21.7849998474121,
    "regions": [
      "1352"
    ]
  },
  {
    "code": "1fb22",
    "name": "Lindbergh Bay",
    "updated_at": "2014-09-22T21:43:44.965303Z",
    "country": "vi",
    "parent": null,
    "longitude": -64.963996887207,
    "latitude": 18.3349990844727,
    "regions": [
      "13ad"
    ]
  },
  {
    "code": "1fb21",
    "name": "Pointe a la Fregate",
    "updated_at": "2014-09-22T21:43:44.939884Z",
    "country": "ca",
    "parent": null,
    "longitude": -64.927001953125,
    "latitude": 49.2029991149902,
    "regions": [
      "102c"
    ]
  },
  {
    "code": "1fb20",
    "name": "Belveglio",
    "updated_at": "2014-09-22T21:43:44.884898Z",
    "country": "it",
    "parent": null,
    "longitude": 8.32900047302246,
    "latitude": 44.8300018310547,
    "regions": [
      "109b"
    ]
  },
  {
    "code": "1fb1f",
    "name": "Arvi",
    "updated_at": "2014-09-22T21:43:44.850498Z",
    "country": "gr",
    "parent": "23a96",
    "longitude": 25.4540004730225,
    "latitude": 34.9910011291504,
    "regions": [
      "107c"
    ]
  },
  {
    "code": "1fb1e",
    "name": "Carre",
    "updated_at": "2014-09-22T21:43:44.814654Z",
    "country": "it",
    "parent": null,
    "longitude": 11.4580001831055,
    "latitude": 45.7490005493164,
    "regions": [
      "10a3"
    ]
  },
  {
    "code": "1fb1d",
    "name": "Corsione",
    "updated_at": "2014-09-22T21:43:44.780073Z",
    "country": "it",
    "parent": null,
    "longitude": 8.14599990844727,
    "latitude": 45.0009994506836,
    "regions": [
      "109b"
    ]
  },
  {
    "code": "1fb1c",
    "name": "Zelenaya Polyana",
    "updated_at": "2014-09-22T21:43:44.761936Z",
    "country": "ru",
    "parent": null,
    "longitude": 58.6291007995605,
    "latitude": 53.6073989868164,
    "regions": []
  },
  {
    "code": "1fb1b",
    "name": "Karvåg",
    "updated_at": "2014-09-22T21:43:44.736754Z",
    "country": "no",
    "parent": null,
    "longitude": 7.43194007873535,
    "latitude": 63.0112991333008,
    "regions": [
      "11a3"
    ]
  },
  {
    "code": "1fb1a",
    "name": "Heriot Bay",
    "updated_at": "2014-09-22T21:43:44.717966Z",
    "country": "ca",
    "parent": null,
    "longitude": -125.216003417969,
    "latitude": 50.0999984741211,
    "regions": [
      "102a",
      "14c7"
    ]
  },
  {
    "code": "1fb19",
    "name": "Piverone",
    "updated_at": "2014-09-22T21:43:44.656997Z",
    "country": "it",
    "parent": null,
    "longitude": 8.00648021697998,
    "latitude": 45.4432983398438,
    "regions": [
      "109b"
    ]
  },
  {
    "code": "1fb18",
    "name": "East Ferris",
    "updated_at": "2014-09-22T21:43:44.621777Z",
    "country": "ca",
    "parent": null,
    "longitude": -79.2917022705078,
    "latitude": 46.261100769043,
    "regions": [
      "102b"
    ]
  },
  {
    "code": "1fb17",
    "name": "Gerbe",
    "updated_at": "2014-09-22T21:43:44.566330Z",
    "country": "es",
    "parent": null,
    "longitude": 0.182962000370026,
    "latitude": 42.3871994018555,
    "regions": [
      "1054"
    ]
  },
  {
    "code": "1fb16",
    "name": "Alpujarra De La Sierra",
    "updated_at": "2014-09-22T21:43:44.546800Z",
    "country": "es",
    "parent": null,
    "longitude": -3.1479799747467,
    "latitude": 37.0157012939453,
    "regions": [
      "1053"
    ]
  },
  {
    "code": "1fb15",
    "name": "Monte Colombo",
    "updated_at": "2014-09-22T21:43:44.527408Z",
    "country": "it",
    "parent": null,
    "longitude": 12.5530004501343,
    "latitude": 43.9189987182617,
    "regions": [
      "1095"
    ]
  },
  {
    "code": "1fb14",
    "name": "Hartoft End",
    "updated_at": "2014-09-22T21:43:44.507576Z",
    "country": "gb",
    "parent": null,
    "longitude": -0.84799998998642,
    "latitude": 54.326000213623,
    "regions": [
      "132d"
    ]
  },
  {
    "code": "1fb13",
    "name": "Frontignano di Ussita",
    "updated_at": "2014-09-22T21:43:44.488780Z",
    "country": "it",
    "parent": null,
    "longitude": 13.1540002822876,
    "latitude": 42.9189987182617,
    "regions": [
      "109a"
    ]
  },
  {
    "code": "1fb12",
    "name": "Challand Saint Anselme",
    "updated_at": "2014-09-22T21:43:44.468611Z",
    "country": "it",
    "parent": null,
    "longitude": 7.73600006103516,
    "latitude": 45.7150001525879,
    "regions": [
      "10a2"
    ]
  },
  {
    "code": "1fb11",
    "name": "Had Yao Beach",
    "updated_at": "2014-09-22T21:43:44.442928Z",
    "country": "th",
    "parent": null,
    "longitude": 98.9609985351562,
    "latitude": 7.95900011062622,
    "regions": [
      "1489"
    ]
  },
  {
    "code": "1fb10",
    "name": "San Nicola Manfredi",
    "updated_at": "2014-09-22T21:43:44.416903Z",
    "country": "it",
    "parent": null,
    "longitude": 14.8245906829834,
    "latitude": 41.0714721679688,
    "regions": [
      "1094"
    ]
  },
  {
    "code": "1fb0f",
    "name": "Cellarengo",
    "updated_at": "2014-09-22T21:43:44.385194Z",
    "country": "it",
    "parent": null,
    "longitude": 7.94500017166138,
    "latitude": 44.8650016784668,
    "regions": [
      "109b"
    ]
  },
  {
    "code": "1fb0e",
    "name": "Jupiter",
    "updated_at": "2014-09-22T21:43:44.319610Z",
    "country": "ro",
    "parent": null,
    "longitude": 28.6068992614746,
    "latitude": 43.8527984619141,
    "regions": [
      "12c1"
    ]
  },
  {
    "code": "1fb0d",
    "name": "Agnone Bagni",
    "updated_at": "2014-09-22T21:43:44.297867Z",
    "country": "it",
    "parent": null,
    "longitude": 15.1020002365112,
    "latitude": 37.3109016418457,
    "regions": [
      "109e"
    ]
  },
  {
    "code": "1fb0c",
    "name": "Trelaske",
    "updated_at": "2014-09-22T21:43:44.279949Z",
    "country": "gb",
    "parent": null,
    "longitude": -4.49298000335693,
    "latitude": 50.3522987365723,
    "regions": [
      "118b"
    ]
  },
  {
    "code": "1fb0b",
    "name": "Nipissing Beach",
    "updated_at": "2014-09-22T21:43:44.263441Z",
    "country": "ca",
    "parent": null,
    "longitude": -79.504997253418,
    "latitude": 46.193000793457,
    "regions": [
      "102b"
    ]
  },
  {
    "code": "1fb0a",
    "name": "Okanagan Falls",
    "updated_at": "2014-09-22T21:43:44.219052Z",
    "country": "ca",
    "parent": null,
    "longitude": -119.570999145508,
    "latitude": 49.3450012207031,
    "regions": [
      "102a"
    ]
  },
  {
    "code": "1fb09",
    "name": "Agios Nikolaos",
    "updated_at": "2014-09-22T21:43:44.173634Z",
    "country": "gr",
    "parent": null,
    "longitude": 20.7080001831055,
    "latitude": 37.9000015258789,
    "regions": [
      "107f",
      "1186"
    ]
  },
  {
    "code": "1fb08",
    "name": "Douliu",
    "updated_at": "2014-09-22T21:43:44.152111Z",
    "country": "tw",
    "parent": null,
    "longitude": 120.543998718262,
    "latitude": 23.7075004577637,
    "regions": [
      "1560"
    ]
  },
  {
    "code": "1fb07",
    "name": "Sesriem",
    "updated_at": "2014-09-22T21:43:44.092120Z",
    "country": "na",
    "parent": null,
    "longitude": 15.8009996414185,
    "latitude": -24.4860000610352,
    "regions": []
  },
  {
    "code": "1fb06",
    "name": "Poggio San Marcello ",
    "updated_at": "2014-09-22T21:43:44.063026Z",
    "country": "it",
    "parent": null,
    "longitude": 13.0520000457764,
    "latitude": 43.5017013549805,
    "regions": [
      "109a"
    ]
  },
  {
    "code": "1fb05",
    "name": "Lefkogeia",
    "updated_at": "2014-09-22T21:43:44.026781Z",
    "country": "gr",
    "parent": "23a96",
    "longitude": 24.443000793457,
    "latitude": 35.1780014038086,
    "regions": [
      "107c"
    ]
  },
  {
    "code": "1fb04",
    "name": "Tigliole",
    "updated_at": "2014-09-22T21:43:43.990559Z",
    "country": "it",
    "parent": null,
    "longitude": 8.07600021362305,
    "latitude": 44.8860015869141,
    "regions": [
      "109b"
    ]
  },
  {
    "code": "1fb03",
    "name": "Munakata",
    "updated_at": "2014-09-22T21:43:43.969903Z",
    "country": "jp",
    "parent": null,
    "longitude": 130.539993286133,
    "latitude": 33.8050003051758,
    "regions": [
      "1485"
    ]
  },
  {
    "code": "1fb02",
    "name": "Santa Maria del Cedro",
    "updated_at": "2014-09-22T21:43:43.953622Z",
    "country": "it",
    "parent": null,
    "longitude": 15.8360004425049,
    "latitude": 39.7470016479492,
    "regions": [
      "1093"
    ]
  },
  {
    "code": "1fb01",
    "name": "Brackley Beach",
    "updated_at": "2014-09-22T21:43:43.934859Z",
    "country": "ca",
    "parent": null,
    "longitude": -63.1952018737793,
    "latitude": 46.4054985046387,
    "regions": [
      "131e"
    ]
  },
  {
    "code": "1fb00",
    "name": "Palazzago",
    "updated_at": "2014-09-22T21:43:43.889659Z",
    "country": "it",
    "parent": null,
    "longitude": 9.53299999237061,
    "latitude": 45.7519989013672,
    "regions": [
      "1099"
    ]
  },
  {
    "code": "1faff",
    "name": "Palamutbuku",
    "updated_at": "2014-09-22T21:43:43.871201Z",
    "country": "tr",
    "parent": null,
    "longitude": 27.507999420166,
    "latitude": 36.673999786377,
    "regions": [
      "10d0"
    ]
  },
  {
    "code": "1fafe",
    "name": "Leontica",
    "updated_at": "2014-09-22T21:43:43.842703Z",
    "country": "ch",
    "parent": null,
    "longitude": 8.92199993133545,
    "latitude": 46.4589996337891,
    "regions": [
      "102f"
    ]
  },
  {
    "code": "1fafd",
    "name": "Lechaio",
    "updated_at": "2014-09-22T21:43:43.793267Z",
    "country": "gr",
    "parent": null,
    "longitude": 22.8470001220703,
    "latitude": 37.9339981079102,
    "regions": [
      "1439"
    ]
  },
  {
    "code": "1fafc",
    "name": "Minakami",
    "updated_at": "2014-09-22T21:43:43.758085Z",
    "country": "jp",
    "parent": null,
    "longitude": 139.003997802734,
    "latitude": 36.6781997680664,
    "regions": [
      "146e"
    ]
  },
  {
    "code": "1fafb",
    "name": "Puegnago",
    "updated_at": "2014-09-22T21:43:43.722778Z",
    "country": "it",
    "parent": null,
    "longitude": 10.5089998245239,
    "latitude": 45.568000793457,
    "regions": [
      "1099"
    ]
  },
  {
    "code": "1fafa",
    "name": "Baile Unu Mai",
    "updated_at": "2014-09-22T21:43:43.696069Z",
    "country": "ro",
    "parent": null,
    "longitude": 21.996000289917,
    "latitude": 46.9959983825684,
    "regions": [
      "11f8"
    ]
  },
  {
    "code": "1faf9",
    "name": "Guzelyali",
    "updated_at": "2014-09-22T21:43:43.678596Z",
    "country": "tr",
    "parent": null,
    "longitude": 26.3428726196289,
    "latitude": 40.0416107177734,
    "regions": [
      "10d4"
    ]
  },
  {
    "code": "1faf8",
    "name": "Brew Bay",
    "updated_at": "2014-09-22T21:43:43.658862Z",
    "country": "ca",
    "parent": null,
    "longitude": -124.356002807617,
    "latitude": 49.7760009765625,
    "regions": [
      "102a"
    ]
  },
  {
    "code": "1faf7",
    "name": "Lluc",
    "updated_at": "2014-09-22T21:43:43.612107Z",
    "country": "es",
    "parent": null,
    "longitude": 2.88420009613037,
    "latitude": 39.8226013183594,
    "regions": [
      "1056",
      "1063"
    ]
  },
  {
    "code": "1faf6",
    "name": "Vinezac",
    "updated_at": "2014-09-22T21:43:43.592265Z",
    "country": "fr",
    "parent": null,
    "longitude": 4.32499980926514,
    "latitude": 44.5379981994629,
    "regions": [
      "107a"
    ]
  },
  {
    "code": "1faf5",
    "name": "Apex Mountain",
    "updated_at": "2014-09-22T21:43:43.572114Z",
    "country": "ca",
    "parent": null,
    "longitude": -119.90299987793,
    "latitude": 49.3919982910156,
    "regions": [
      "102a"
    ]
  },
  {
    "code": "1faf4",
    "name": "Saint Adolphe D'Howard",
    "updated_at": "2014-09-22T21:43:43.520516Z",
    "country": "ca",
    "parent": null,
    "longitude": -74.3310012817383,
    "latitude": 45.9669990539551,
    "regions": [
      "102c"
    ]
  },
  {
    "code": "1faf3",
    "name": "Campllong",
    "updated_at": "2014-09-22T21:43:43.468297Z",
    "country": "es",
    "parent": null,
    "longitude": 2.83100008964539,
    "latitude": 41.8940010070801,
    "regions": [
      "105c"
    ]
  },
  {
    "code": "1faf2",
    "name": "Carro",
    "updated_at": "2014-09-22T21:43:43.437483Z",
    "country": "it",
    "parent": null,
    "longitude": 9.60999965667725,
    "latitude": 44.2729988098145,
    "regions": [
      "1098"
    ]
  },
  {
    "code": "1faf1",
    "name": "Wang Nam Khieo",
    "updated_at": "2014-09-22T21:43:43.370865Z",
    "country": "th",
    "parent": null,
    "longitude": 101.849998474121,
    "latitude": 14.4180002212524,
    "regions": [
      "15eb"
    ]
  },
  {
    "code": "1faf0",
    "name": "Duillier",
    "updated_at": "2014-09-22T21:43:43.345370Z",
    "country": "ch",
    "parent": null,
    "longitude": 6.23250007629395,
    "latitude": 46.4091987609863,
    "regions": [
      "1414"
    ]
  },
  {
    "code": "1faef",
    "name": "Athurugiriya",
    "updated_at": "2014-09-22T21:43:43.329936Z",
    "country": "lk",
    "parent": null,
    "longitude": 79.9918975830078,
    "latitude": 6.88530015945435,
    "regions": [
      "15b6"
    ]
  },
  {
    "code": "1faee",
    "name": "Jostedal",
    "updated_at": "2014-09-22T21:43:43.314352Z",
    "country": "no",
    "parent": null,
    "longitude": 7.27500009536743,
    "latitude": 61.5820007324219,
    "regions": [
      "10c7"
    ]
  },
  {
    "code": "1faed",
    "name": "Montebello",
    "updated_at": "2014-09-22T21:43:43.295437Z",
    "country": "it",
    "parent": null,
    "longitude": 12.3979997634888,
    "latitude": 43.0859985351562,
    "regions": [
      "10a1"
    ]
  },
  {
    "code": "1faec",
    "name": "Ellera",
    "updated_at": "2014-09-22T21:43:43.276842Z",
    "country": "it",
    "parent": null,
    "longitude": 12.3210000991821,
    "latitude": 43.0880012512207,
    "regions": [
      "10a1"
    ]
  },
  {
    "code": "1faeb",
    "name": "Orient Bay",
    "updated_at": "2014-09-22T21:43:43.253693Z",
    "country": "mf",
    "parent": null,
    "longitude": -63.0206985473633,
    "latitude": 18.0874004364014,
    "regions": []
  },
  {
    "code": "1faea",
    "name": "Boularderie East",
    "updated_at": "2014-09-22T21:43:43.228151Z",
    "country": "ca",
    "parent": null,
    "longitude": -60.4499015808105,
    "latitude": 46.2499008178711,
    "regions": [
      "102d"
    ]
  },
  {
    "code": "1fae9",
    "name": "A Carrasca",
    "updated_at": "2014-09-22T21:43:43.171106Z",
    "country": "es",
    "parent": null,
    "longitude": -8.79100036621094,
    "latitude": 42.125,
    "regions": [
      "105d"
    ]
  },
  {
    "code": "1fae8",
    "name": "Rivotorto ",
    "updated_at": "2014-09-22T21:43:43.141990Z",
    "country": "it",
    "parent": null,
    "longitude": 12.621000289917,
    "latitude": 43.0439987182617,
    "regions": [
      "10a1"
    ]
  },
  {
    "code": "1fae7",
    "name": "Armenzano",
    "updated_at": "2014-09-22T21:43:43.107009Z",
    "country": "it",
    "parent": null,
    "longitude": 12.6979999542236,
    "latitude": 43.0699996948242,
    "regions": [
      "10a1"
    ]
  },
  {
    "code": "1fae6",
    "name": "Santa Maria Lignano",
    "updated_at": "2014-09-22T21:43:43.073120Z",
    "country": "it",
    "parent": null,
    "longitude": 12.701000213623,
    "latitude": 43.1240005493164,
    "regions": [
      "10a1"
    ]
  },
  {
    "code": "1fae5",
    "name": "San Presto",
    "updated_at": "2014-09-22T21:43:43.053812Z",
    "country": "it",
    "parent": null,
    "longitude": 12.673999786377,
    "latitude": 43.1310005187988,
    "regions": [
      "10a1"
    ]
  },
  {
    "code": "1fae4",
    "name": "Tordibetto",
    "updated_at": "2014-09-22T21:43:43.034569Z",
    "country": "it",
    "parent": null,
    "longitude": 12.5740003585815,
    "latitude": 43.0909996032715,
    "regions": [
      "10a1"
    ]
  },
  {
    "code": "1fae3",
    "name": "Piano Delle Pieve",
    "updated_at": "2014-09-22T21:43:43.014927Z",
    "country": "it",
    "parent": null,
    "longitude": 12.6669998168945,
    "latitude": 43.101001739502,
    "regions": [
      "10a1"
    ]
  },
  {
    "code": "1fae2",
    "name": "Chiliadou",
    "updated_at": "2014-09-22T21:43:42.995125Z",
    "country": "gr",
    "parent": null,
    "longitude": 23.9200000762939,
    "latitude": 38.6699981689453,
    "regions": [
      "107b",
      "1159"
    ]
  },
  {
    "code": "1fae1",
    "name": "Romano D'Ezzelino",
    "updated_at": "2014-09-22T21:43:42.975713Z",
    "country": "it",
    "parent": null,
    "longitude": 11.7580003738403,
    "latitude": 45.7960014343262,
    "regions": [
      "10a3"
    ]
  },
  {
    "code": "1fae0",
    "name": "Cavendish",
    "updated_at": "2014-09-22T21:43:42.952748Z",
    "country": "ca",
    "parent": null,
    "longitude": -63.3779983520508,
    "latitude": 46.4910011291504,
    "regions": [
      "131e"
    ]
  },
  {
    "code": "1fadf",
    "name": "Leikanger",
    "updated_at": "2014-09-22T21:43:42.898880Z",
    "country": "no",
    "parent": null,
    "longitude": 6.80804014205933,
    "latitude": 61.1856994628906,
    "regions": [
      "10c7"
    ]
  },
  {
    "code": "1fade",
    "name": "Helengeli",
    "updated_at": "2014-09-22T21:43:42.873916Z",
    "country": "mv",
    "parent": null,
    "longitude": 73.5628967285156,
    "latitude": 4.6341700553894,
    "regions": []
  },
  {
    "code": "1fadd",
    "name": "Hafslo",
    "updated_at": "2014-09-22T21:43:42.838712Z",
    "country": "no",
    "parent": null,
    "longitude": 7.20077991485596,
    "latitude": 61.3154983520508,
    "regions": [
      "10c7"
    ]
  },
  {
    "code": "1fadc",
    "name": "Dazaifu",
    "updated_at": "2014-09-22T21:43:42.801597Z",
    "country": "jp",
    "parent": null,
    "longitude": 130.524002075195,
    "latitude": 33.5127983093262,
    "regions": [
      "1485"
    ]
  },
  {
    "code": "1fadb",
    "name": "Glencoe",
    "updated_at": "2014-09-22T21:43:42.772710Z",
    "country": "gb",
    "parent": null,
    "longitude": -5.1004900932312,
    "latitude": 56.6824989318848,
    "regions": [
      "133f"
    ]
  },
  {
    "code": "1fada",
    "name": "Buonfornello",
    "updated_at": "2014-09-22T21:43:42.756479Z",
    "country": "it",
    "parent": null,
    "longitude": 13.8159999847412,
    "latitude": 37.9690017700195,
    "regions": [
      "109e"
    ]
  },
  {
    "code": "1fad9",
    "name": "Margaree Forks",
    "updated_at": "2014-09-22T21:43:42.737491Z",
    "country": "ca",
    "parent": null,
    "longitude": -61.0960998535156,
    "latitude": 46.3329010009766,
    "regions": [
      "102d"
    ]
  },
  {
    "code": "1fad8",
    "name": "Barbiano",
    "updated_at": "2014-09-22T21:43:42.691315Z",
    "country": "it",
    "parent": null,
    "longitude": 11.520299911499,
    "latitude": 46.603099822998,
    "regions": [
      "10a0"
    ]
  },
  {
    "code": "1fad7",
    "name": "Vlassada ",
    "updated_at": "2014-09-22T21:43:42.672123Z",
    "country": "gr",
    "parent": null,
    "longitude": 21.7052993774414,
    "latitude": 37.3422012329102,
    "regions": [
      "1439"
    ]
  },
  {
    "code": "1fad6",
    "name": "Lake St Clair",
    "updated_at": "2014-09-22T21:43:42.653827Z",
    "country": "au",
    "parent": null,
    "longitude": 146.177001953125,
    "latitude": -42.1171989440918,
    "regions": [
      "100e"
    ]
  },
  {
    "code": "1fad5",
    "name": "Cachoeira Paulista",
    "updated_at": "2014-09-22T21:43:42.625847Z",
    "country": "br",
    "parent": null,
    "longitude": -44.9967002868652,
    "latitude": -22.6721000671387,
    "regions": [
      "1028"
    ]
  },
  {
    "code": "1fad4",
    "name": "Vromolimnos",
    "updated_at": "2014-09-22T21:43:42.598728Z",
    "country": "gr",
    "parent": null,
    "longitude": 23.4449996948242,
    "latitude": 39.1360015869141,
    "regions": []
  },
  {
    "code": "1fad3",
    "name": "Le Corbier",
    "updated_at": "2014-09-22T21:43:42.570143Z",
    "country": "fr",
    "parent": null,
    "longitude": 6.27099990844727,
    "latitude": 45.2389984130859,
    "regions": [
      "107a"
    ]
  },
  {
    "code": "1fad2",
    "name": "Corzoneso",
    "updated_at": "2014-09-22T21:43:42.534888Z",
    "country": "ch",
    "parent": null,
    "longitude": 8.93397998809814,
    "latitude": 46.4459991455078,
    "regions": []
  },
  {
    "code": "1fad1",
    "name": "Haag",
    "updated_at": "2014-09-22T21:43:42.501474Z",
    "country": "ch",
    "parent": null,
    "longitude": 9.49180030822754,
    "latitude": 47.2341995239258,
    "regions": [
      "13f9"
    ]
  },
  {
    "code": "1fad0",
    "name": "Cavardiras",
    "updated_at": "2014-09-22T21:43:42.474951Z",
    "country": "ch",
    "parent": null,
    "longitude": 8.88449954986572,
    "latitude": 46.7113990783691,
    "regions": [
      "10fe"
    ]
  },
  {
    "code": "1facf",
    "name": "Misasa",
    "updated_at": "2014-09-22T21:43:42.457970Z",
    "country": "jp",
    "parent": null,
    "longitude": 133.861999511719,
    "latitude": 35.4076995849609,
    "regions": [
      "147d"
    ]
  },
  {
    "code": "1face",
    "name": "Aramengo",
    "updated_at": "2014-09-22T21:43:42.439666Z",
    "country": "it",
    "parent": null,
    "longitude": 8.00109004974365,
    "latitude": 45.0996017456055,
    "regions": [
      "109b"
    ]
  },
  {
    "code": "1facd",
    "name": "Vna",
    "updated_at": "2014-09-22T21:43:42.420943Z",
    "country": "ch",
    "parent": null,
    "longitude": 10.3634004592896,
    "latitude": 46.8432006835938,
    "regions": [
      "10fe"
    ]
  },
  {
    "code": "1facc",
    "name": "Bons Villers",
    "updated_at": "2014-09-22T21:43:42.403332Z",
    "country": "be",
    "parent": null,
    "longitude": 4.48000001907349,
    "latitude": 50.523998260498,
    "regions": [
      "1013"
    ]
  },
  {
    "code": "1facb",
    "name": "Bognanco",
    "updated_at": "2014-09-22T21:43:42.384734Z",
    "country": "it",
    "parent": null,
    "longitude": 8.20199966430664,
    "latitude": 46.1269989013672,
    "regions": [
      "109b"
    ]
  },
  {
    "code": "1faca",
    "name": "Grace Bay",
    "updated_at": "2014-09-22T21:43:42.359299Z",
    "country": "tc",
    "parent": null,
    "longitude": -72.1764831542969,
    "latitude": 21.795446395874,
    "regions": [
      "1352"
    ]
  },
  {
    "code": "1fac9",
    "name": "Riehen",
    "updated_at": "2014-09-22T21:43:42.333241Z",
    "country": "ch",
    "parent": null,
    "longitude": 7.65243005752563,
    "latitude": 47.5826988220215,
    "regions": [
      "1420"
    ]
  },
  {
    "code": "1fac8",
    "name": "Montegalda",
    "updated_at": "2014-09-22T21:43:42.302922Z",
    "country": "it",
    "parent": null,
    "longitude": 11.6759996414185,
    "latitude": 45.4469985961914,
    "regions": [
      "10a3"
    ]
  },
  {
    "code": "1fac7",
    "name": "Myoko",
    "updated_at": "2014-09-22T21:43:42.267273Z",
    "country": "jp",
    "parent": null,
    "longitude": 138.177001953125,
    "latitude": 36.8941993713379,
    "regions": [
      "1460"
    ]
  },
  {
    "code": "1fac6",
    "name": "Saint-Alexis-des-Monts",
    "updated_at": "2014-09-22T21:43:42.232013Z",
    "country": "ca",
    "parent": null,
    "longitude": -73.1436004638672,
    "latitude": 46.4623985290527,
    "regions": [
      "102c"
    ]
  },
  {
    "code": "1fac5",
    "name": "O Pedrouzo",
    "updated_at": "2014-09-22T21:43:42.181736Z",
    "country": "es",
    "parent": null,
    "longitude": -8.36293983459473,
    "latitude": 42.9044990539551,
    "regions": [
      "105d"
    ]
  },
  {
    "code": "1fac4",
    "name": "Myrkdalen ",
    "updated_at": "2014-09-22T21:43:42.162271Z",
    "country": "no",
    "parent": null,
    "longitude": 6.4649600982666,
    "latitude": 60.8424987792969,
    "regions": [
      "10c2",
      "10c7"
    ]
  },
  {
    "code": "1fac3",
    "name": "Kausani",
    "updated_at": "2014-09-22T21:43:42.142147Z",
    "country": "in",
    "parent": null,
    "longitude": 79.6029968261719,
    "latitude": 29.8430004119873,
    "regions": [
      "1399"
    ]
  },
  {
    "code": "1fac2",
    "name": "Schomberg",
    "updated_at": "2014-09-22T21:43:42.123996Z",
    "country": "ca",
    "parent": null,
    "longitude": -79.6829986572266,
    "latitude": 44.0009002685547,
    "regions": [
      "102b"
    ]
  },
  {
    "code": "1fac1",
    "name": "San Isidro",
    "updated_at": "2014-09-22T21:43:42.055450Z",
    "country": "es",
    "parent": null,
    "longitude": -5.36964988708496,
    "latitude": 43.0651016235352,
    "regions": []
  },
  {
    "code": "1fac0",
    "name": "Caprioli",
    "updated_at": "2014-09-22T21:43:42.028107Z",
    "country": "it",
    "parent": null,
    "longitude": 15.2650003433228,
    "latitude": 40.0839996337891,
    "regions": [
      "1094"
    ]
  },
  {
    "code": "1fabf",
    "name": "Tamarit",
    "updated_at": "2014-09-22T21:43:41.999907Z",
    "country": "es",
    "parent": null,
    "longitude": 1.36009001731873,
    "latitude": 41.1324996948242,
    "regions": [
      "105c"
    ]
  },
  {
    "code": "1fabe",
    "name": "Troodos",
    "updated_at": "2014-09-22T21:43:41.968711Z",
    "country": "cy",
    "parent": null,
    "longitude": 32.8800010681152,
    "latitude": 34.9220008850098,
    "regions": [
      "11a9"
    ]
  },
  {
    "code": "1fabd",
    "name": "Kalamitsi",
    "updated_at": "2014-09-22T21:43:41.932920Z",
    "country": "gr",
    "parent": null,
    "longitude": 20.7099990844727,
    "latitude": 38.9799995422363,
    "regions": []
  },
  {
    "code": "1fabc",
    "name": "Ambrami",
    "updated_at": "2014-09-22T21:43:41.897190Z",
    "country": "gr",
    "parent": null,
    "longitude": 25.4790000915527,
    "latitude": 37.1720008850098,
    "regions": [
      "107d",
      "1280"
    ]
  },
  {
    "code": "1fabb",
    "name": "Malnago",
    "updated_at": "2014-09-22T21:43:41.877271Z",
    "country": "it",
    "parent": null,
    "longitude": 9.42169952392578,
    "latitude": 45.8627014160156,
    "regions": [
      "1099"
    ]
  },
  {
    "code": "1faba",
    "name": "McKerrow",
    "updated_at": "2014-09-22T21:43:41.859264Z",
    "country": "ca",
    "parent": null,
    "longitude": -81.7529983520508,
    "latitude": 46.2865982055664,
    "regions": [
      "102b"
    ]
  },
  {
    "code": "1fab9",
    "name": "Borgo Bonsignore",
    "updated_at": "2014-09-22T21:43:41.814390Z",
    "country": "it",
    "parent": null,
    "longitude": 13.269100189209,
    "latitude": 37.4222984313965,
    "regions": [
      "109e"
    ]
  },
  {
    "code": "1fab8",
    "name": "Girardville",
    "updated_at": "2014-09-22T21:43:41.795682Z",
    "country": "ca",
    "parent": null,
    "longitude": -72.5453033447266,
    "latitude": 49.003101348877,
    "regions": [
      "102c"
    ]
  },
  {
    "code": "1fab7",
    "name": "Malosco",
    "updated_at": "2014-09-22T21:43:41.751113Z",
    "country": "it",
    "parent": null,
    "longitude": 11.1473999023438,
    "latitude": 46.4370002746582,
    "regions": [
      "10a0"
    ]
  },
  {
    "code": "1fab6",
    "name": "Larouche",
    "updated_at": "2014-09-22T21:43:41.725778Z",
    "country": "ca",
    "parent": null,
    "longitude": -71.5255966186523,
    "latitude": 48.4533004760742,
    "regions": [
      "102c"
    ]
  },
  {
    "code": "1fab5",
    "name": "Igorre",
    "updated_at": "2014-09-22T21:43:41.671353Z",
    "country": "es",
    "parent": null,
    "longitude": -2.78794002532959,
    "latitude": 43.1698989868164,
    "regions": [
      "1057"
    ]
  },
  {
    "code": "1fab4",
    "name": "Cape Schanck",
    "updated_at": "2014-09-22T21:43:41.642765Z",
    "country": "au",
    "parent": null,
    "longitude": 144.901992797852,
    "latitude": -38.4620018005371,
    "regions": [
      "100f"
    ]
  },
  {
    "code": "1fab3",
    "name": "Madonna del Sasso",
    "updated_at": "2014-09-22T21:43:41.608380Z",
    "country": "it",
    "parent": null,
    "longitude": 8.37100982666016,
    "latitude": 45.7924003601074,
    "regions": [
      "109b"
    ]
  },
  {
    "code": "1fab2",
    "name": "108 Mile Ranch",
    "updated_at": "2014-09-22T21:43:41.576421Z",
    "country": "ca",
    "parent": null,
    "longitude": -121.346000671387,
    "latitude": 51.750301361084,
    "regions": [
      "102a"
    ]
  },
  {
    "code": "1fab1",
    "name": "Ampavris",
    "updated_at": "2014-09-22T21:43:41.517098Z",
    "country": "gr",
    "parent": null,
    "longitude": 27.2956008911133,
    "latitude": 36.8898010253906,
    "regions": [
      "107e",
      "119e"
    ]
  },
  {
    "code": "1fab0",
    "name": "Algarrobo-Costa",
    "updated_at": "2014-09-22T21:43:41.497859Z",
    "country": "es",
    "parent": null,
    "longitude": -4.0479998588562,
    "latitude": 36.7459983825684,
    "regions": [
      "1053"
    ]
  },
  {
    "code": "1faaf",
    "name": "Morrinsville",
    "updated_at": "2014-09-22T21:43:41.478752Z",
    "country": "nz",
    "parent": null,
    "longitude": 175.52799987793,
    "latitude": -37.6580009460449,
    "regions": [
      "1167"
    ]
  },
  {
    "code": "1faae",
    "name": "Campogrande",
    "updated_at": "2014-09-22T21:43:41.461101Z",
    "country": "it",
    "parent": null,
    "longitude": 15.1020002365112,
    "latitude": 38.0750007629395,
    "regions": [
      "109e"
    ]
  },
  {
    "code": "1faad",
    "name": "Granxa",
    "updated_at": "2014-09-22T21:43:41.441296Z",
    "country": "es",
    "parent": null,
    "longitude": -8.76099967956543,
    "latitude": 42.4000015258789,
    "regions": [
      "105d"
    ]
  },
  {
    "code": "1faac",
    "name": "Xesteriña",
    "updated_at": "2014-09-22T21:43:41.421355Z",
    "country": "es",
    "parent": null,
    "longitude": -8.82600021362305,
    "latitude": 42.4157981872559,
    "regions": [
      "105d"
    ]
  },
  {
    "code": "1faab",
    "name": "Los Cancajos",
    "updated_at": "2014-09-22T21:43:41.396282Z",
    "country": "es",
    "parent": null,
    "longitude": -17.7590007781982,
    "latitude": 28.6480007171631,
    "regions": [
      "1058",
      "115e"
    ]
  },
  {
    "code": "1faaa",
    "name": "Ars",
    "updated_at": "2014-09-22T21:43:41.370639Z",
    "country": "es",
    "parent": null,
    "longitude": 1.39400005340576,
    "latitude": 42.4440002441406,
    "regions": [
      "105c"
    ]
  },
  {
    "code": "1faa9",
    "name": "Solto Collina",
    "updated_at": "2014-09-22T21:43:41.342814Z",
    "country": "it",
    "parent": null,
    "longitude": 10.0288000106812,
    "latitude": 45.7845993041992,
    "regions": [
      "1099"
    ]
  },
  {
    "code": "1faa8",
    "name": "Helgatun",
    "updated_at": "2014-09-22T21:43:41.307205Z",
    "country": "no",
    "parent": null,
    "longitude": 6.49100017547607,
    "latitude": 60.8549995422363,
    "regions": [
      "10c2",
      "10c7"
    ]
  },
  {
    "code": "1faa7",
    "name": "Guadalupe",
    "updated_at": "2014-09-22T21:43:41.270688Z",
    "country": "pt",
    "parent": null,
    "longitude": -8.02600002288818,
    "latitude": 38.568000793457,
    "regions": [
      "1233"
    ]
  },
  {
    "code": "1faa6",
    "name": "Bowen Island",
    "updated_at": "2014-09-22T21:43:41.247774Z",
    "country": "ca",
    "parent": null,
    "longitude": -123.383003234863,
    "latitude": 49.38330078125,
    "regions": [
      "102a"
    ]
  },
  {
    "code": "1faa5",
    "name": "Wislikofen",
    "updated_at": "2014-09-22T21:43:41.201338Z",
    "country": "ch",
    "parent": null,
    "longitude": 8.3612003326416,
    "latitude": 47.5570983886719,
    "regions": [
      "141d"
    ]
  },
  {
    "code": "1faa4",
    "name": "Izunokuni",
    "updated_at": "2014-09-22T21:43:41.185830Z",
    "country": "jp",
    "parent": null,
    "longitude": 138.932998657227,
    "latitude": 35.0332984924316,
    "regions": [
      "1476"
    ]
  },
  {
    "code": "1faa3",
    "name": "Stevenson Ranch",
    "updated_at": "2014-09-22T21:43:41.168454Z",
    "country": "us",
    "parent": null,
    "longitude": -118.592002868652,
    "latitude": 34.3926010131836,
    "regions": [
      "11dc"
    ]
  },
  {
    "code": "1faa2",
    "name": "Saint Martial",
    "updated_at": "2014-09-22T21:43:41.144207Z",
    "country": "fr",
    "parent": null,
    "longitude": 2.33168005943298,
    "latitude": 44.1258010864258,
    "regions": []
  },
  {
    "code": "1faa1",
    "name": "Magliaso",
    "updated_at": "2014-09-22T21:43:41.125507Z",
    "country": "ch",
    "parent": null,
    "longitude": 8.88953971862793,
    "latitude": 45.9813995361328,
    "regions": [
      "102f"
    ]
  },
  {
    "code": "1faa0",
    "name": "Rodney Bay Village",
    "updated_at": "2014-09-22T21:43:41.099859Z",
    "country": "lc",
    "parent": null,
    "longitude": -60.9496994018555,
    "latitude": 14.0750999450684,
    "regions": []
  },
  {
    "code": "1fa9f",
    "name": "Pollena Trocchia",
    "updated_at": "2014-09-22T21:43:41.074389Z",
    "country": "it",
    "parent": null,
    "longitude": 14.3829002380371,
    "latitude": 40.8563995361328,
    "regions": [
      "1094"
    ]
  },
  {
    "code": "1fa9e",
    "name": "Alimini",
    "updated_at": "2014-09-22T21:43:41.044378Z",
    "country": "it",
    "parent": null,
    "longitude": 18.4536991119385,
    "latitude": 40.2238998413086,
    "regions": [
      "109c"
    ]
  },
  {
    "code": "1fa9d",
    "name": "Kep",
    "updated_at": "2014-09-22T21:43:40.974090Z",
    "country": "kh",
    "parent": null,
    "longitude": 104.315002441406,
    "latitude": 10.5106000900269,
    "regions": [
      "164e"
    ]
  },
  {
    "code": "1fa9c",
    "name": "Clark",
    "updated_at": "2014-09-22T21:43:40.950892Z",
    "country": "ph",
    "parent": null,
    "longitude": 120.546997070312,
    "latitude": 15.183500289917,
    "regions": [
      "10ca"
    ]
  },
  {
    "code": "1fa9b",
    "name": "Petit-Saguenay",
    "updated_at": "2014-09-22T21:43:40.934090Z",
    "country": "ca",
    "parent": null,
    "longitude": -70.0692977905273,
    "latitude": 48.2108993530273,
    "regions": [
      "102c"
    ]
  },
  {
    "code": "1fa9a",
    "name": "Cossano Belbo",
    "updated_at": "2014-09-22T21:43:40.888842Z",
    "country": "it",
    "parent": null,
    "longitude": 8.19921016693115,
    "latitude": 44.6697998046875,
    "regions": [
      "109b"
    ]
  },
  {
    "code": "1fa99",
    "name": "Uralsk",
    "updated_at": "2014-09-22T21:43:40.870315Z",
    "country": "kz",
    "parent": null,
    "longitude": 51.3680000305176,
    "latitude": 51.2319984436035,
    "regions": []
  },
  {
    "code": "1fa98",
    "name": "Connolly",
    "updated_at": "2014-09-22T21:43:40.852586Z",
    "country": "au",
    "parent": null,
    "longitude": 115.75,
    "latitude": -31.7537002563477,
    "regions": [
      "115a"
    ]
  },
  {
    "code": "1fa97",
    "name": "Wongawallan",
    "updated_at": "2014-09-22T21:43:40.829979Z",
    "country": "au",
    "parent": null,
    "longitude": 153.240005493164,
    "latitude": -27.8782997131348,
    "regions": [
      "100d"
    ]
  },
  {
    "code": "1fa96",
    "name": "Guarene",
    "updated_at": "2014-09-22T21:43:40.803744Z",
    "country": "it",
    "parent": null,
    "longitude": 8.0341100692749,
    "latitude": 44.7406997680664,
    "regions": [
      "109b"
    ]
  },
  {
    "code": "1fa95",
    "name": "Milford",
    "updated_at": "2014-09-22T21:43:40.777601Z",
    "country": "ca",
    "parent": null,
    "longitude": -77.0908966064453,
    "latitude": 43.9351005554199,
    "regions": [
      "102b"
    ]
  },
  {
    "code": "1fa94",
    "name": "Lido Di Fondi",
    "updated_at": "2014-09-22T21:43:40.718884Z",
    "country": "it",
    "parent": null,
    "longitude": 13.3352003097534,
    "latitude": 41.2920989990234,
    "regions": [
      "1097"
    ]
  },
  {
    "code": "1fa93",
    "name": "Colfiorito",
    "updated_at": "2014-09-22T21:43:40.683347Z",
    "country": "it",
    "parent": null,
    "longitude": 12.8896999359131,
    "latitude": 43.0276985168457,
    "regions": [
      "10a1"
    ]
  },
  {
    "code": "1fa92",
    "name": "Brülisau",
    "updated_at": "2014-09-22T21:43:40.648217Z",
    "country": "ch",
    "parent": null,
    "longitude": 9.45506954193115,
    "latitude": 47.2969017028809,
    "regions": [
      "13f9",
      "1435"
    ]
  },
  {
    "code": "1fa91",
    "name": "Naramata",
    "updated_at": "2014-09-22T21:43:40.627744Z",
    "country": "ca",
    "parent": null,
    "longitude": -119.593002319336,
    "latitude": 49.5979995727539,
    "regions": [
      "102a"
    ]
  },
  {
    "code": "1fa90",
    "name": "Tamarindo",
    "updated_at": "2014-09-22T21:43:40.580653Z",
    "country": "cr",
    "parent": null,
    "longitude": -85.8397979736328,
    "latitude": 10.2975997924805,
    "regions": [
      "1102"
    ]
  },
  {
    "code": "1fa8f",
    "name": "Novaglie",
    "updated_at": "2014-09-22T21:43:40.563357Z",
    "country": "it",
    "parent": null,
    "longitude": 11.048999786377,
    "latitude": 45.4739990234375,
    "regions": [
      "10a3"
    ]
  },
  {
    "code": "1fa8e",
    "name": "Atallu",
    "updated_at": "2014-09-22T21:43:40.543500Z",
    "country": "es",
    "parent": null,
    "longitude": -1.98800003528595,
    "latitude": 43.0419998168945,
    "regions": [
      "1065"
    ]
  },
  {
    "code": "1fa8d",
    "name": "Port Said",
    "updated_at": "2014-09-22T21:43:40.523183Z",
    "country": "eg",
    "parent": null,
    "longitude": 32.3129997253418,
    "latitude": 31.2549991607666,
    "regions": []
  },
  {
    "code": "1fa8c",
    "name": "Castellar del Riu",
    "updated_at": "2014-09-22T21:43:40.501064Z",
    "country": "es",
    "parent": null,
    "longitude": 1.77265000343323,
    "latitude": 42.1226005554199,
    "regions": [
      "105c"
    ]
  },
  {
    "code": "1fa8b",
    "name": "Reno Di Leggiuno",
    "updated_at": "2014-09-22T21:43:40.475320Z",
    "country": "it",
    "parent": null,
    "longitude": 8.6014404296875,
    "latitude": 45.8818016052246,
    "regions": [
      "1099"
    ]
  },
  {
    "code": "1fa8a",
    "name": "Zhubei",
    "updated_at": "2014-09-22T21:43:40.449050Z",
    "country": "tw",
    "parent": null,
    "longitude": 121.01000213623,
    "latitude": 24.8351993560791,
    "regions": [
      "155d"
    ]
  },
  {
    "code": "1fa89",
    "name": "Villandro",
    "updated_at": "2014-09-22T21:43:40.414555Z",
    "country": "it",
    "parent": null,
    "longitude": 11.5392999649048,
    "latitude": 46.6313018798828,
    "regions": [
      "10a0"
    ]
  },