[
  {
    "code": "1159d",
    "name": "Croick",
    "updated_at": "2014-09-22T21:08:54.710538Z",
    "country": "gb",
    "parent": null,
    "longitude": -4.58333015441895,
    "latitude": 57.88330078125,
    "regions": []
  },
  {
    "code": "1159c",
    "name": "Cromer",
    "updated_at": "2014-09-22T21:08:54.675068Z",
    "country": "gb",
    "parent": null,
    "longitude": 1.29999995231628,
    "latitude": 52.9333000183105,
    "regions": [
      "1190"
    ]
  },
  {
    "code": "1159b",
    "name": "Cromford",
    "updated_at": "2014-09-22T21:08:54.653270Z",
    "country": "gb",
    "parent": null,
    "longitude": -1.56666994094849,
    "latitude": 53.0999984741211,
    "regions": [
      "11ac"
    ]
  },
  {
    "code": "1159a",
    "name": "Crooklands",
    "updated_at": "2014-09-22T21:08:54.545317Z",
    "country": "gb",
    "parent": null,
    "longitude": -2.71667003631592,
    "latitude": 54.2332992553711,
    "regions": [
      "10d7"
    ]
  },
  {
    "code": "11599",
    "name": "Crossburn",
    "updated_at": "2014-09-22T21:08:54.459295Z",
    "country": "gb",
    "parent": null,
    "longitude": -4.26667022705078,
    "latitude": 58.5167007446289,
    "regions": [
      "133f"
    ]
  },
  {
    "code": "11598",
    "name": "Crosskeys",
    "updated_at": "2014-09-22T21:08:54.424671Z",
    "country": "gb",
    "parent": null,
    "longitude": -3.11666989326477,
    "latitude": 51.61669921875,
    "regions": [
      "120f"
    ]
  },
  {
    "code": "11597",
    "name": "Crossmaglen",
    "updated_at": "2014-09-22T21:08:54.407834Z",
    "country": "gb",
    "parent": null,
    "longitude": -6.59999990463257,
    "latitude": 54.0833015441895,
    "regions": [
      "1219"
    ]
  },
  {
    "code": "11596",
    "name": "Crowhurst",
    "updated_at": "2014-09-22T21:08:54.307034Z",
    "country": "gb",
    "parent": null,
    "longitude": 0.5,
    "latitude": 50.86669921875,
    "regions": [
      "129e"
    ]
  },
  {
    "code": "11595",
    "name": "Crowthorne",
    "updated_at": "2014-09-22T21:08:54.275224Z",
    "country": "gb",
    "parent": null,
    "longitude": -0.816667020320892,
    "latitude": 51.36669921875,
    "regions": [
      "120b"
    ]
  },
  {
    "code": "11594",
    "name": "Croydon",
    "updated_at": "2014-09-22T21:08:54.226125Z",
    "country": "gb",
    "parent": null,
    "longitude": -0.100000001490116,
    "latitude": 51.38330078125,
    "regions": [
      "120c"
    ]
  },
  {
    "code": "11593",
    "name": "Crudwell",
    "updated_at": "2014-09-22T21:08:54.208170Z",
    "country": "gb",
    "parent": null,
    "longitude": -2.06666994094849,
    "latitude": 51.63330078125,
    "regions": [
      "120a"
    ]
  },
  {
    "code": "11592",
    "name": "Crumlin",
    "updated_at": "2014-09-22T21:08:54.190129Z",
    "country": "gb",
    "parent": null,
    "longitude": -6.23332977294922,
    "latitude": 54.61669921875,
    "regions": [
      "1218"
    ]
  },
  {
    "code": "11591",
    "name": "Cuckfield",
    "updated_at": "2014-09-22T21:08:54.091973Z",
    "country": "gb",
    "parent": null,
    "longitude": -0.133332997560501,
    "latitude": 51.0167007446289,
    "regions": [
      "1284",
      "129e"
    ]
  },
  {
    "code": "11590",
    "name": "Cuddington",
    "updated_at": "2014-09-22T21:08:54.064934Z",
    "country": "gb",
    "parent": null,
    "longitude": -2.59999990463257,
    "latitude": 53.2332992553711,
    "regions": [
      "11ae"
    ]
  },
  {
    "code": "1158f",
    "name": "Culgaith",
    "updated_at": "2014-09-22T21:08:54.002015Z",
    "country": "gb",
    "parent": null,
    "longitude": -2.59999990463257,
    "latitude": 54.6500015258789,
    "regions": [
      "10d7"
    ]
  },
  {
    "code": "1158e",
    "name": "Culham",
    "updated_at": "2014-09-22T21:08:53.969869Z",
    "country": "gb",
    "parent": null,
    "longitude": -1.28332996368408,
    "latitude": 51.6500015258789,
    "regions": [
      "10e0"
    ]
  },
  {
    "code": "1158d",
    "name": "Cullen",
    "updated_at": "2014-09-22T21:08:53.953341Z",
    "country": "gb",
    "parent": null,
    "longitude": -2.81666994094849,
    "latitude": 57.6833000183105,
    "regions": [
      "1215"
    ]
  },
  {
    "code": "1158c",
    "name": "Cullipool",
    "updated_at": "2014-09-22T21:08:53.919298Z",
    "country": "gb",
    "parent": null,
    "longitude": -5.65000009536743,
    "latitude": 56.25,
    "regions": [
      "1212",
      "133e"
    ]
  },
  {
    "code": "1158b",
    "name": "Cullompton",
    "updated_at": "2014-09-22T21:08:53.900348Z",
    "country": "gb",
    "parent": null,
    "longitude": -3.40000009536743,
    "latitude": 50.86669921875,
    "regions": [
      "118d"
    ]
  },
  {
    "code": "1158a",
    "name": "Cumbernauld",
    "updated_at": "2014-09-22T21:08:53.882537Z",
    "country": "gb",
    "parent": null,
    "longitude": -3.9833300113678,
    "latitude": 55.9500007629395,
    "regions": [
      "1212",
      "133d"
    ]
  },
  {
    "code": "11589",
    "name": "Cumnock",
    "updated_at": "2014-09-22T21:08:53.856681Z",
    "country": "gb",
    "parent": null,
    "longitude": -4.26667022705078,
    "latitude": 55.4500007629395,
    "regions": [
      "1212",
      "121e"
    ]
  },
  {
    "code": "11588",
    "name": "Cupar",
    "updated_at": "2014-09-22T21:08:53.803903Z",
    "country": "gb",
    "parent": null,
    "longitude": -3.0166699886322,
    "latitude": 56.3166999816895,
    "regions": [
      "1216"
    ]
  },
  {
    "code": "11587",
    "name": "Currie",
    "updated_at": "2014-09-22T21:08:53.738386Z",
    "country": "gb",
    "parent": null,
    "longitude": -3.29999995231628,
    "latitude": 55.9000015258789,
    "regions": [
      "10d9"
    ]
  },
  {
    "code": "11586",
    "name": "Cushendall",
    "updated_at": "2014-09-22T21:08:53.696178Z",
    "country": "gb",
    "parent": null,
    "longitude": -6.05000019073486,
    "latitude": 55.0833015441895,
    "regions": [
      "1218"
    ]
  },
  {
    "code": "11585",
    "name": "Cushendun",
    "updated_at": "2014-09-22T21:08:53.679847Z",
    "country": "gb",
    "parent": null,
    "longitude": -6.03332996368408,
    "latitude": 55.13330078125,
    "regions": [
      "1218"
    ]
  },
  {
    "code": "11584",
    "name": "Cymmer",
    "updated_at": "2014-09-22T21:08:53.608527Z",
    "country": "gb",
    "parent": null,
    "longitude": -3.65000009536743,
    "latitude": 51.6500015258789,
    "regions": [
      "10e2"
    ]
  },
  {
    "code": "11583",
    "name": "Cynghordy",
    "updated_at": "2014-09-22T21:08:53.587112Z",
    "country": "gb",
    "parent": null,
    "longitude": -3.75,
    "latitude": 52.0499992370605,
    "regions": [
      "1210"
    ]
  },
  {
    "code": "11582",
    "name": "Dagenham",
    "updated_at": "2014-09-22T21:08:53.527821Z",
    "country": "gb",
    "parent": null,
    "longitude": 0.166666999459267,
    "latitude": 51.5499992370605,
    "regions": [
      "120c"
    ]
  },
  {
    "code": "11581",
    "name": "Dalbeattie",
    "updated_at": "2014-09-22T21:08:53.494185Z",
    "country": "gb",
    "parent": null,
    "longitude": -3.83332991600037,
    "latitude": 54.9333000183105,
    "regions": [
      "1213"
    ]
  },
  {
    "code": "11580",
    "name": "Dalchreichart",
    "updated_at": "2014-09-22T21:08:53.461321Z",
    "country": "gb",
    "parent": null,
    "longitude": -4.80000019073486,
    "latitude": 57.2000007629395,
    "regions": [
      "133f"
    ]
  },
  {
    "code": "1157f",
    "name": "Dalkeith",
    "updated_at": "2014-09-22T21:08:53.428424Z",
    "country": "gb",
    "parent": null,
    "longitude": -3.06666994094849,
    "latitude": 55.86669921875,
    "regions": [
      "10d9"
    ]
  },
  {
    "code": "1157e",
    "name": "Dalton in Furness",
    "updated_at": "2014-09-22T21:08:53.304270Z",
    "country": "gb",
    "parent": null,
    "longitude": -3.16667008399963,
    "latitude": 54.1500015258789,
    "regions": [
      "10d7"
    ]
  },
  {
    "code": "1157d",
    "name": "Darlington",
    "updated_at": "2014-09-22T21:08:53.240962Z",
    "country": "gb",
    "parent": null,
    "longitude": -1.56666994094849,
    "latitude": 54.5332984924316,
    "regions": [
      "11fd"
    ]
  },
  {
    "code": "1157c",
    "name": "Darrington",
    "updated_at": "2014-09-22T21:08:53.208974Z",
    "country": "gb",
    "parent": null,
    "longitude": -1.25,
    "latitude": 53.6666984558105,
    "regions": [
      "132d"
    ]
  },
  {
    "code": "1157b",
    "name": "Darsham",
    "updated_at": "2014-09-22T21:08:53.192528Z",
    "country": "gb",
    "parent": null,
    "longitude": 1.53332996368408,
    "latitude": 52.2667007446289,
    "regions": [
      "1205"
    ]
  },
  {
    "code": "1157a",
    "name": "Dartford",
    "updated_at": "2014-09-22T21:08:53.176120Z",
    "country": "gb",
    "parent": null,
    "longitude": 0.216666996479034,
    "latitude": 51.4500007629395,
    "regions": [
      "10dd"
    ]
  },
  {
    "code": "11579",
    "name": "Dartmouth",
    "updated_at": "2014-09-22T21:08:53.159205Z",
    "country": "gb",
    "parent": null,
    "longitude": -3.58332991600037,
    "latitude": 50.3499984741211,
    "regions": [
      "118d"
    ]
  },
  {
    "code": "11578",
    "name": "Darwen",
    "updated_at": "2014-09-22T21:08:53.140412Z",
    "country": "gb",
    "parent": null,
    "longitude": -2.46667003631592,
    "latitude": 53.7000007629395,
    "regions": [
      "10de"
    ]
  },
  {
    "code": "11577",
    "name": "Datchet",
    "updated_at": "2014-09-22T21:08:53.123789Z",
    "country": "gb",
    "parent": null,
    "longitude": -0.566667020320892,
    "latitude": 51.4667015075684,
    "regions": [
      "120b"
    ]
  },
  {
    "code": "11576",
    "name": "Daventry",
    "updated_at": "2014-09-22T21:08:53.098401Z",
    "country": "gb",
    "parent": null,
    "longitude": -1.16666996479034,
    "latitude": 52.25,
    "regions": [
      "11ad"
    ]
  },
  {
    "code": "11575",
    "name": "Dawlish",
    "updated_at": "2014-09-22T21:08:53.043720Z",
    "country": "gb",
    "parent": null,
    "longitude": -3.46667003631592,
    "latitude": 50.5833015441895,
    "regions": [
      "118d"
    ]
  },
  {
    "code": "11574",
    "name": "Deal",
    "updated_at": "2014-09-22T21:08:53.009309Z",
    "country": "gb",
    "parent": null,
    "longitude": 1.39999997615814,
    "latitude": 51.2167015075684,
    "regions": [
      "10dd"
    ]
  },
  {
    "code": "11573",
    "name": "Deanshanger",
    "updated_at": "2014-09-22T21:08:52.977156Z",
    "country": "gb",
    "parent": null,
    "longitude": -0.890236020088196,
    "latitude": 52.0523986816406,
    "regions": [
      "11ad"
    ]
  },
  {
    "code": "11572",
    "name": "Deddington",
    "updated_at": "2014-09-22T21:08:52.916943Z",
    "country": "gb",
    "parent": null,
    "longitude": -1.31666994094849,
    "latitude": 51.9832992553711,
    "regions": [
      "10e0"
    ]
  },
  {
    "code": "11571",
    "name": "Delabole",
    "updated_at": "2014-09-22T21:08:52.863922Z",
    "country": "gb",
    "parent": null,
    "longitude": -4.73332977294922,
    "latitude": 50.61669921875,
    "regions": [
      "118b"
    ]
  },
  {
    "code": "11570",
    "name": "Denbigh",
    "updated_at": "2014-09-22T21:08:52.841377Z",
    "country": "gb",
    "parent": null,
    "longitude": -3.41667008399963,
    "latitude": 53.1833000183105,
    "regions": [
      "1211"
    ]
  },
  {
    "code": "1156f",
    "name": "Denham",
    "updated_at": "2014-09-22T21:08:52.786124Z",
    "country": "gb",
    "parent": null,
    "longitude": -0.5,
    "latitude": 51.5666999816895,
    "regions": [
      "1207"
    ]
  },
  {
    "code": "1156e",
    "name": "Denstone",
    "updated_at": "2014-09-22T21:08:52.693549Z",
    "country": "gb",
    "parent": null,
    "longitude": -1.85000002384186,
    "latitude": 52.9667015075684,
    "regions": [
      "1200"
    ]
  },
  {
    "code": "1156d",
    "name": "Derby",
    "updated_at": "2014-09-22T21:08:52.639682Z",
    "country": "gb",
    "parent": null,
    "longitude": -1.47423005104065,
    "latitude": 52.9221000671387,
    "regions": [
      "11ac"
    ]
  },
  {
    "code": "1156c",
    "name": "Derrylin",
    "updated_at": "2014-09-22T21:08:52.601134Z",
    "country": "gb",
    "parent": null,
    "longitude": -7.56666994094849,
    "latitude": 54.1833000183105,
    "regions": [
      "121b"
    ]
  },
  {
    "code": "1156b",
    "name": "Dersingham",
    "updated_at": "2014-09-22T21:08:52.575227Z",
    "country": "gb",
    "parent": null,
    "longitude": 0.5,
    "latitude": 52.8499984741211,
    "regions": [
      "1190"
    ]
  },
  {
    "code": "1156a",
    "name": "Desborough",
    "updated_at": "2014-09-22T21:08:52.521126Z",
    "country": "gb",
    "parent": null,
    "longitude": -0.816667020320892,
    "latitude": 52.4333000183105,
    "regions": [
      "11ad"
    ]
  },
  {
    "code": "11569",
    "name": "Desertmartin",
    "updated_at": "2014-09-22T21:08:52.487523Z",
    "country": "gb",
    "parent": null,
    "longitude": -6.68333005905151,
    "latitude": 54.7667007446289,
    "regions": [
      "121c"
    ]
  },
  {
    "code": "11568",
    "name": "Devils Bridge",
    "updated_at": "2014-09-22T21:08:52.420677Z",
    "country": "gb",
    "parent": null,
    "longitude": -3.84999990463257,
    "latitude": 52.3499984741211,
    "regions": [
      "1210"
    ]
  },
  {
    "code": "11567",
    "name": "Devizes",
    "updated_at": "2014-09-22T21:08:52.403845Z",
    "country": "gb",
    "parent": null,
    "longitude": -1.9833300113678,
    "latitude": 51.3499984741211,
    "regions": [
      "120a"
    ]
  },
  {
    "code": "11566",
    "name": "Devynock",
    "updated_at": "2014-09-22T21:08:52.386633Z",
    "country": "gb",
    "parent": null,
    "longitude": -3.56666994094849,
    "latitude": 51.9333000183105,
    "regions": [
      "120d"
    ]
  },
  {
    "code": "11565",
    "name": "Dewsbury",
    "updated_at": "2014-09-22T21:08:52.345958Z",
    "country": "gb",
    "parent": null,
    "longitude": -1.61667001247406,
    "latitude": 53.7000007629395,
    "regions": [
      "132f"
    ]
  },
  {
    "code": "11564",
    "name": "Didcot",
    "updated_at": "2014-09-22T21:08:52.258037Z",
    "country": "gb",
    "parent": null,
    "longitude": -1.25,
    "latitude": 51.5999984741211,
    "regions": [
      "10e0"
    ]
  },
  {
    "code": "11563",
    "name": "Didmarton",
    "updated_at": "2014-09-22T21:08:52.229874Z",
    "country": "gb",
    "parent": null,
    "longitude": -2.2666699886322,
    "latitude": 51.5999984741211,
    "regions": [
      "1208"
    ]
  },
  {
    "code": "11562",
    "name": "Diggle",
    "updated_at": "2014-09-22T21:08:52.197110Z",
    "country": "gb",
    "parent": null,
    "longitude": -1.9833300113678,
    "latitude": 53.5666999816895,
    "regions": [
      "121f"
    ]
  },
  {
    "code": "11561",
    "name": "Dinas Mawddwy",
    "updated_at": "2014-09-22T21:08:52.081887Z",
    "country": "gb",
    "parent": null,
    "longitude": -3.69261002540588,
    "latitude": 52.7188987731934,
    "regions": [
      "120e"
    ]
  },
  {
    "code": "11560",
    "name": "Dingwall",
    "updated_at": "2014-09-22T21:08:52.055811Z",
    "country": "gb",
    "parent": null,
    "longitude": -4.44999980926514,
    "latitude": 57.5999984741211,
    "regions": [
      "133f"
    ]
  },
  {
    "code": "1155f",
    "name": "Dinnet",
    "updated_at": "2014-09-22T21:08:52.027476Z",
    "country": "gb",
    "parent": null,
    "longitude": -2.90000009536743,
    "latitude": 57.0499992370605,
    "regions": [
      "1215"
    ]
  },
  {
    "code": "1155e",
    "name": "Diss",
    "updated_at": "2014-09-22T21:08:51.933020Z",
    "country": "gb",
    "parent": null,
    "longitude": 1.11667001247406,
    "latitude": 52.38330078125,
    "regions": [
      "1190"
    ]
  },
  {
    "code": "1155d",
    "name": "Ditchling",
    "updated_at": "2014-09-22T21:08:51.899114Z",
    "country": "gb",
    "parent": null,
    "longitude": -0.100000001490116,
    "latitude": 50.9166984558105,
    "regions": [
      "129e"
    ]
  },
  {
    "code": "1155c",
    "name": "Dockray",
    "updated_at": "2014-09-22T21:08:51.864712Z",
    "country": "gb",
    "parent": null,
    "longitude": -2.93333005905151,
    "latitude": 54.5666999816895,
    "regions": [
      "10d7"
    ]
  },
  {
    "code": "1155b",
    "name": "Dogdyke",
    "updated_at": "2014-09-22T21:08:48.959504Z",
    "country": "gb",
    "parent": null,
    "longitude": -0.200000002980232,
    "latitude": 53.0833015441895,
    "regions": [
      "11ab"
    ]
  },
  {
    "code": "1155a",
    "name": "Dolgellau",
    "updated_at": "2014-09-22T21:08:48.895754Z",
    "country": "gb",
    "parent": null,
    "longitude": -3.88333010673523,
    "latitude": 52.75,
    "regions": [
      "120e"
    ]
  },
  {
    "code": "11559",
    "name": "Dollar",
    "updated_at": "2014-09-22T21:08:48.833495Z",
    "country": "gb",
    "parent": null,
    "longitude": -3.66667008399963,
    "latitude": 56.1500015258789,
    "regions": [
      "1217"
    ]
  },
  {
    "code": "11558",
    "name": "Dolwyddelan",
    "updated_at": "2014-09-22T21:08:48.782871Z",
    "country": "gb",
    "parent": null,
    "longitude": -3.88333010673523,
    "latitude": 53.0499992370605,
    "regions": [
      "120e",
      "1211"
    ]
  },
  {
    "code": "11557",
    "name": "Doncaster",
    "updated_at": "2014-09-22T21:08:48.764581Z",
    "country": "gb",
    "parent": null,
    "longitude": -1.10892999172211,
    "latitude": 53.5307006835938,
    "regions": [
      "1330"
    ]
  },
  {
    "code": "11556",
    "name": "Dorchester",
    "updated_at": "2014-09-22T21:08:48.746173Z",
    "country": "gb",
    "parent": null,
    "longitude": -2.44068002700806,
    "latitude": 50.7097015380859,
    "regions": [
      "10d8"
    ]
  },
  {
    "code": "11555",
    "name": "Dorchester on thames",
    "updated_at": "2014-09-22T21:08:48.722280Z",
    "country": "gb",
    "parent": null,
    "longitude": -1.16420996189117,
    "latitude": 51.6430015563965,
    "regions": [
      "10e0"
    ]
  },
  {
    "code": "11554",
    "name": "Dores",
    "updated_at": "2014-09-22T21:08:48.695709Z",
    "country": "gb",
    "parent": null,
    "longitude": -4.33333015441895,
    "latitude": 57.36669921875,
    "regions": [
      "133f"
    ]
  },
  {
    "code": "11553",
    "name": "Dorking",
    "updated_at": "2014-09-22T21:08:48.667836Z",
    "country": "gb",
    "parent": null,
    "longitude": -0.333332985639572,
    "latitude": 51.2167015075684,
    "regions": [
      "10e1"
    ]
  },
  {
    "code": "11552",
    "name": "Dornoch",
    "updated_at": "2014-09-22T21:08:48.600158Z",
    "country": "gb",
    "parent": null,
    "longitude": -4.03332996368408,
    "latitude": 57.86669921875,
    "regions": [
      "133f"
    ]
  },
  {
    "code": "11551",
    "name": "Dorridge",
    "updated_at": "2014-09-22T21:08:48.576886Z",
    "country": "gb",
    "parent": null,
    "longitude": -1.75,
    "latitude": 52.36669921875,
    "regions": [
      "1242"
    ]
  },
  {
    "code": "11550",
    "name": "Dorstone",
    "updated_at": "2014-09-22T21:08:48.560671Z",
    "country": "gb",
    "parent": null,
    "longitude": -3.0,
    "latitude": 52.0666999816895,
    "regions": [
      "1209"
    ]
  },
  {
    "code": "1154f",
    "name": "Doune",
    "updated_at": "2014-09-22T21:08:48.527288Z",
    "country": "gb",
    "parent": null,
    "longitude": -4.08333015441895,
    "latitude": 56.2000007629395,
    "regions": [
      "1217",
      "15e5"
    ]
  },
  {
    "code": "1154e",
    "name": "Dover",
    "updated_at": "2014-09-22T21:08:48.493458Z",
    "country": "gb",
    "parent": null,
    "longitude": 1.29999995231628,
    "latitude": 51.13330078125,
    "regions": [
      "10dd"
    ]
  },
  {
    "code": "1154d",
    "name": "Downton",
    "updated_at": "2014-09-22T21:08:48.346578Z",
    "country": "gb",
    "parent": null,
    "longitude": -2.83332991600037,
    "latitude": 52.36669921875,
    "regions": [
      "1209"
    ]
  },
  {
    "code": "1154c",
    "name": "Drewsteignton",
    "updated_at": "2014-09-22T21:08:48.266217Z",
    "country": "gb",
    "parent": null,
    "longitude": -3.78332996368408,
    "latitude": 50.7000007629395,
    "regions": [
      "118d"
    ]
  },
  {
    "code": "1154b",
    "name": "Droitwich",
    "updated_at": "2014-09-22T21:08:48.245727Z",
    "country": "gb",
    "parent": null,
    "longitude": -2.15000009536743,
    "latitude": 52.2667007446289,
    "regions": [
      "10e4"
    ]
  },
  {
    "code": "1154a",
    "name": "Dronfield",
    "updated_at": "2014-09-22T21:08:48.225161Z",
    "country": "gb",
    "parent": null,
    "longitude": -1.46667003631592,
    "latitude": 53.2999992370605,
    "regions": [
      "11ac"
    ]
  },
  {
    "code": "11549",
    "name": "Drumnadrochit",
    "updated_at": "2014-09-22T21:08:48.144585Z",
    "country": "gb",
    "parent": null,
    "longitude": -4.48332977294922,
    "latitude": 57.3333015441895,
    "regions": [
      "133f"
    ]
  },
  {
    "code": "11548",
    "name": "Drymen",
    "updated_at": "2014-09-22T21:08:48.110844Z",
    "country": "gb",
    "parent": null,
    "longitude": -4.44997882843018,
    "latitude": 56.0655174255371,
    "regions": [
      "1217",
      "15e5"
    ]
  },
  {
    "code": "11547",
    "name": "Duddo",
    "updated_at": "2014-09-22T21:08:48.073434Z",
    "country": "gb",
    "parent": null,
    "longitude": -2.09999990463257,
    "latitude": 55.6666984558105,
    "regions": [
      "10df"
    ]
  },
  {
    "code": "11546",
    "name": "Dudley",
    "updated_at": "2014-09-22T21:08:48.053397Z",
    "country": "gb",
    "parent": null,
    "longitude": -2.08332991600037,
    "latitude": 52.5,
    "regions": [
      "1242"
    ]
  },
  {
    "code": "11545",
    "name": "Dufftown",
    "updated_at": "2014-09-22T21:08:48.036452Z",
    "country": "gb",
    "parent": null,
    "longitude": -3.13333010673523,
    "latitude": 57.4333000183105,
    "regions": [
      "1215"
    ]
  },
  {
    "code": "11544",
    "name": "Dukinfield",
    "updated_at": "2014-09-22T21:08:48.002893Z",
    "country": "gb",
    "parent": null,
    "longitude": -2.08332991600037,
    "latitude": 53.4832992553711,
    "regions": [
      "121f"
    ]
  },
  {
    "code": "11543",
    "name": "Dulverton",
    "updated_at": "2014-09-22T21:08:47.985870Z",
    "country": "gb",
    "parent": null,
    "longitude": -3.54999995231628,
    "latitude": 51.0332984924316,
    "regions": [
      "118f"
    ]
  },
  {
    "code": "11542",
    "name": "Dumbarton",
    "updated_at": "2014-09-22T21:08:47.963920Z",
    "country": "gb",
    "parent": null,
    "longitude": -4.56666994094849,
    "latitude": 55.9500007629395,
    "regions": [
      "1212"
    ]
  },
  {
    "code": "11541",
    "name": "Dumbleton",
    "updated_at": "2014-09-22T21:08:47.937311Z",
    "country": "gb",
    "parent": null,
    "longitude": -1.96667003631592,
    "latitude": 52.0167007446289,
    "regions": [
      "1208"
    ]
  },
  {
    "code": "11540",
    "name": "Dumfries",
    "updated_at": "2014-09-22T21:08:47.909813Z",
    "country": "gb",
    "parent": null,
    "longitude": -3.61209988594055,
    "latitude": 55.0699996948242,
    "regions": [
      "1213"
    ]
  },
  {
    "code": "1153f",
    "name": "Dunadry",
    "updated_at": "2014-09-22T21:08:47.877427Z",
    "country": "gb",
    "parent": null,
    "longitude": -6.13332986831665,
    "latitude": 54.6833000183105,
    "regions": [
      "1218"
    ]
  },
  {
    "code": "1153e",
    "name": "Dunbar",
    "updated_at": "2014-09-22T21:08:47.809518Z",
    "country": "gb",
    "parent": null,
    "longitude": -2.5166699886322,
    "latitude": 56.0,
    "regions": [
      "10d9"
    ]
  },
  {
    "code": "1153d",
    "name": "Dunblane",
    "updated_at": "2014-09-22T21:08:47.793923Z",
    "country": "gb",
    "parent": null,
    "longitude": -3.96667003631592,
    "latitude": 56.2000007629395,
    "regions": [
      "1217",
      "15e5"
    ]
  },
  {
    "code": "1153c",
    "name": "Dundee",
    "updated_at": "2014-09-22T21:08:47.776252Z",
    "country": "gb",
    "parent": null,
    "longitude": -2.98244476318359,
    "latitude": 56.4590759277344,
    "regions": [
      "1220"
    ]
  },
  {
    "code": "1153b",
    "name": "Dundreggan",
    "updated_at": "2014-09-22T21:08:47.758062Z",
    "country": "gb",
    "parent": null,
    "longitude": -4.76667022705078,
    "latitude": 57.2000007629395,
    "regions": [
      "133f"
    ]
  },
  {
    "code": "1153a",
    "name": "Dunfermline",
    "updated_at": "2014-09-22T21:08:47.721594Z",
    "country": "gb",
    "parent": null,
    "longitude": -3.452815,
    "latitude": 56.073191,
    "regions": [
      "1216"
    ]
  },
  {
    "code": "11539",
    "name": "Dungannon",
    "updated_at": "2014-09-22T21:08:47.699097Z",
    "country": "gb",
    "parent": null,
    "longitude": -6.76609325408936,
    "latitude": 54.5043411254883,
    "regions": [
      "121d"
    ]
  },
  {
    "code": "11538",
    "name": "Dungiven",
    "updated_at": "2014-09-22T21:08:47.672578Z",
    "country": "gb",
    "parent": null,
    "longitude": -6.91666984558105,
    "latitude": 54.9333000183105,
    "regions": [
      "121c"
    ]
  },
  {
    "code": "11537",
    "name": "Dunkeld",
    "updated_at": "2014-09-22T21:08:47.616751Z",
    "country": "gb",
    "parent": null,
    "longitude": -3.58332991600037,
    "latitude": 56.5666999816895,
    "regions": [
      "1220",
      "1349"
    ]
  },
  {
    "code": "11536",
    "name": "Dunkeswell",
    "updated_at": "2014-09-22T21:08:47.584021Z",
    "country": "gb",
    "parent": null,
    "longitude": -3.21667003631592,
    "latitude": 50.86669921875,
    "regions": [
      "118d"
    ]
  },
  {
    "code": "11535",
    "name": "Dunoon",
    "updated_at": "2014-09-22T21:08:47.549506Z",
    "country": "gb",
    "parent": null,
    "longitude": -4.94999980926514,
    "latitude": 55.9500007629395,
    "regions": [
      "1212",
      "133e"
    ]
  },
  {
    "code": "11534",
    "name": "Duns",
    "updated_at": "2014-09-22T21:08:47.530853Z",
    "country": "gb",
    "parent": null,
    "longitude": -2.34999990463257,
    "latitude": 55.7667007446289,
    "regions": [
      "1214"
    ]
  },
  {
    "code": "11533",
    "name": "Dunscore",
    "updated_at": "2014-09-22T21:08:47.514320Z",
    "country": "gb",
    "parent": null,
    "longitude": -3.78332996368408,
    "latitude": 55.13330078125,
    "regions": [
      "1213"
    ]
  },
  {
    "code": "11532",
    "name": "Dunstable",
    "updated_at": "2014-09-22T21:08:47.478818Z",
    "country": "gb",
    "parent": null,
    "longitude": -0.516667008399963,
    "latitude": 51.88330078125,
    "regions": [
      "1206"
    ]
  },
  {
    "code": "11531",
    "name": "Dunster",
    "updated_at": "2014-09-22T21:08:47.461810Z",
    "country": "gb",
    "parent": null,
    "longitude": -3.44626998901367,
    "latitude": 51.1824989318848,
    "regions": [
      "118f"
    ]
  },
  {
    "code": "11530",
    "name": "Dunvegan",
    "updated_at": "2014-09-22T21:08:47.359335Z",
    "country": "gb",
    "parent": null,
    "longitude": -6.58333015441895,
    "latitude": 57.4333000183105,
    "regions": [
      "126d",
      "133f"
    ]
  },
  {
    "code": "1152f",
    "name": "Dunwich",
    "updated_at": "2014-09-22T21:08:47.326537Z",
    "country": "gb",
    "parent": null,
    "longitude": 1.63332998752594,
    "latitude": 52.2667007446289,
    "regions": [
      "1205"
    ]
  },
  {
    "code": "1152e",
    "name": "Durham",
    "updated_at": "2014-09-22T21:08:47.291933Z",
    "country": "gb",
    "parent": null,
    "longitude": -1.57242000102997,
    "latitude": 54.7733001708984,
    "regions": [
      "11fd"
    ]
  },
  {
    "code": "1152d",
    "name": "Durness",
    "updated_at": "2014-09-22T21:08:47.273735Z",
    "country": "gb",
    "parent": null,
    "longitude": -4.75,
    "latitude": 58.5666999816895,
    "regions": [
      "133f"
    ]
  },
  {
    "code": "1152c",
    "name": "Duxford",
    "updated_at": "2014-09-22T21:08:47.238926Z",
    "country": "gb",
    "parent": null,
    "longitude": 0.150000005960464,
    "latitude": 52.0833015441895,
    "regions": [
      "1203"
    ]
  },
  {
    "code": "1152b",
    "name": "Dyce",
    "updated_at": "2014-09-22T21:08:47.221676Z",
    "country": "gb",
    "parent": null,
    "longitude": -2.18333005905151,
    "latitude": 57.2000007629395,
    "regions": [
      "1215"
    ]
  },
  {
    "code": "1152a",
    "name": "Dyffryn",
    "updated_at": "2014-09-22T21:08:47.204172Z",
    "country": "gb",
    "parent": null,
    "longitude": -4.09999990463257,
    "latitude": 52.7832984924316,
    "regions": [
      "120e"
    ]
  },
  {
    "code": "11529",
    "name": "Eaglesham",
    "updated_at": "2014-09-22T21:08:47.059479Z",
    "country": "gb",
    "parent": null,
    "longitude": -4.26667022705078,
    "latitude": 55.7332992553711,
    "regions": [
      "1212"
    ]
  },
  {
    "code": "11528",
    "name": "Earls Colne",
    "updated_at": "2014-09-22T21:08:46.996047Z",
    "country": "gb",
    "parent": null,
    "longitude": 0.699999988079071,
    "latitude": 51.9333000183105,
    "regions": [
      "10da"
    ]
  },
  {
    "code": "11527",
    "name": "Earlston",
    "updated_at": "2014-09-22T21:08:46.960659Z",
    "country": "gb",
    "parent": null,
    "longitude": -2.66667008399963,
    "latitude": 55.63330078125,
    "regions": [
      "1214"
    ]
  },
  {
    "code": "11526",
    "name": "Easingwold",
    "updated_at": "2014-09-22T21:08:46.916984Z",
    "country": "gb",
    "parent": null,
    "longitude": -1.20000004768372,
    "latitude": 54.11669921875,
    "regions": [
      "132d"
    ]
  },
  {
    "code": "11525",
    "name": "East Aberthaw",
    "updated_at": "2014-09-22T21:08:46.889712Z",
    "country": "gb",
    "parent": null,
    "longitude": -3.38333010673523,
    "latitude": 51.4000015258789,
    "regions": [
      "10e2"
    ]
  },
  {
    "code": "11524",
    "name": "Eastbourne",
    "updated_at": "2014-09-22T21:08:46.797698Z",
    "country": "gb",
    "parent": null,
    "longitude": 0.290456771850586,
    "latitude": 50.7681884765625,
    "regions": [
      "129e"
    ]
  },
  {
    "code": "11523",
    "name": "East Bridgford",
    "updated_at": "2014-09-22T21:08:46.771100Z",
    "country": "gb",
    "parent": null,
    "longitude": -0.949999988079071,
    "latitude": 52.9667015075684,
    "regions": [
      "118e"
    ]
  },
  {
    "code": "11522",
    "name": "East Butterwick",
    "updated_at": "2014-09-22T21:08:46.718553Z",
    "country": "gb",
    "parent": null,
    "longitude": -0.733332991600037,
    "latitude": 53.5499992370605,
    "regions": [
      "11ab"
    ]
  },
  {
    "code": "11521",
    "name": "Eastchurch",
    "updated_at": "2014-09-22T21:08:46.701440Z",
    "country": "gb",
    "parent": null,
    "longitude": 0.866666972637177,
    "latitude": 51.4000015258789,
    "regions": [
      "10dd"
    ]
  },
  {
    "code": "11520",
    "name": "East Cowes",
    "updated_at": "2014-09-22T21:08:46.684439Z",
    "country": "gb",
    "parent": null,
    "longitude": -1.29999995231628,
    "latitude": 50.75,
    "regions": [
      "10dc"
    ]
  },
  {
    "code": "1151f",
    "name": "East Dean",
    "updated_at": "2014-09-22T21:08:46.657488Z",
    "country": "gb",
    "parent": null,
    "longitude": -0.716666996479034,
    "latitude": 50.9000015258789,
    "regions": [
      "1284"
    ]
  },
  {
    "code": "1151e",
    "name": "East Dereham",
    "updated_at": "2014-09-22T21:08:46.630298Z",
    "country": "gb",
    "parent": null,
    "longitude": 0.933332979679108,
    "latitude": 52.6833000183105,
    "regions": [
      "1190"
    ]
  },
  {
    "code": "1151d",
    "name": "East Grinstead",
    "updated_at": "2014-09-22T21:08:46.542690Z",
    "country": "gb",
    "parent": null,
    "longitude": -0.0166666992008686,
    "latitude": 51.11669921875,
    "regions": [
      "1284",
      "129e"
    ]
  },
  {
    "code": "1151c",
    "name": "East Halton",
    "updated_at": "2014-09-22T21:08:46.512895Z",
    "country": "gb",
    "parent": null,
    "longitude": -0.283333003520966,
    "latitude": 53.6666984558105,
    "regions": [
      "11ab"
    ]
  },
  {
    "code": "1151b",
    "name": "East Ham",
    "updated_at": "2014-09-22T21:08:46.496563Z",
    "country": "gb",
    "parent": null,
    "longitude": 0.0500000007450581,
    "latitude": 51.5332984924316,
    "regions": [
      "120c"
    ]
  },
  {
    "code": "1151a",
    "name": "East Harling",
    "updated_at": "2014-09-22T21:08:46.480039Z",
    "country": "gb",
    "parent": null,
    "longitude": 0.933332979679108,
    "latitude": 52.4333000183105,
    "regions": [
      "1190"
    ]
  },
  {
    "code": "11519",
    "name": "East Horsley",
    "updated_at": "2014-09-22T21:08:46.426878Z",
    "country": "gb",
    "parent": null,
    "longitude": -0.43333300948143,
    "latitude": 51.25,
    "regions": [
      "10e1"
    ]
  },
  {
    "code": "11518",
    "name": "East Ilsley",
    "updated_at": "2014-09-22T21:08:46.399607Z",
    "country": "gb",
    "parent": null,
    "longitude": -1.28332996368408,
    "latitude": 51.5332984924316,
    "regions": [
      "120b"
    ]
  },
  {
    "code": "11517",
    "name": "East Kilbride",
    "updated_at": "2014-09-22T21:08:46.373863Z",
    "country": "gb",
    "parent": null,
    "longitude": -4.16666984558105,
    "latitude": 55.7667007446289,
    "regions": [
      "1212",
      "133d"
    ]
  },
  {
    "code": "11516",
    "name": "Eastleigh",
    "updated_at": "2014-09-22T21:08:46.312044Z",
    "country": "gb",
    "parent": null,
    "longitude": -1.35000002384186,
    "latitude": 50.9667015075684,
    "regions": [
      "10db"
    ]
  },
  {
    "code": "11515",
    "name": "East Looe",
    "updated_at": "2014-09-22T21:08:46.255662Z",
    "country": "gb",
    "parent": null,
    "longitude": -4.43333005905151,
    "latitude": 50.4000015258789,
    "regions": [
      "118b"
    ]
  },
  {
    "code": "11514",
    "name": "Eastoft",
    "updated_at": "2014-09-22T21:08:46.201706Z",
    "country": "gb",
    "parent": null,
    "longitude": -0.783333003520966,
    "latitude": 53.61669921875,
    "regions": [
      "11ab"
    ]
  },
  {
    "code": "11513",
    "name": "Portland",
    "updated_at": "2014-09-22T21:08:46.184716Z",
    "country": "gb",
    "parent": null,
    "longitude": -2.43724989891052,
    "latitude": 50.5441017150879,
    "regions": [
      "10d8"
    ]
  },
  {
    "code": "11512",
    "name": "Easton on the Hill",
    "updated_at": "2014-09-22T21:08:46.164440Z",
    "country": "gb",
    "parent": null,
    "longitude": -0.50236701965332,
    "latitude": 52.6263999938965,
    "regions": [
      "11ad"
    ]
  },
  {
    "code": "11511",
    "name": "East Pennard",
    "updated_at": "2014-09-22T21:08:46.112274Z",
    "country": "gb",
    "parent": null,
    "longitude": -2.58332991600037,
    "latitude": 51.13330078125,
    "regions": [
      "118f"
    ]
  },
  {
    "code": "11510",
    "name": "East Retford",
    "updated_at": "2014-09-22T21:08:46.014156Z",
    "country": "gb",
    "parent": null,
    "longitude": -0.933332979679108,
    "latitude": 53.3166999816895,
    "regions": [
      "118e"
    ]
  },
  {
    "code": "1150f",
    "name": "East Rudham",
    "updated_at": "2014-09-22T21:08:45.996935Z",
    "country": "gb",
    "parent": null,
    "longitude": 0.716666996479034,
    "latitude": 52.8166999816895,
    "regions": [
      "1190"
    ]
  },
  {
    "code": "1150e",
    "name": "Eastwood",
    "updated_at": "2014-09-22T21:08:45.928705Z",
    "country": "gb",
    "parent": null,
    "longitude": -1.29999995231628,
    "latitude": 53.0,
    "regions": [
      "118e"
    ]
  },
  {
    "code": "1150d",
    "name": "Ettington",
    "updated_at": "2014-09-22T21:08:45.879426Z",
    "country": "gb",
    "parent": null,
    "longitude": -1.60000002384186,
    "latitude": 52.13330078125,
    "regions": [
      "10e3"
    ]
  },
  {
    "code": "1150c",
    "name": "Ebbw Vale",
    "updated_at": "2014-09-22T21:08:45.820413Z",
    "country": "gb",
    "parent": null,
    "longitude": -3.20000004768372,
    "latitude": 51.7832984924316,
    "regions": [
      "120f"
    ]
  },
  {
    "code": "1150b",
    "name": "Ecclefechan",
    "updated_at": "2014-09-22T21:08:45.737206Z",
    "country": "gb",
    "parent": null,
    "longitude": -3.2666699886322,
    "latitude": 55.0499992370605,
    "regions": [
      "1213"
    ]
  },
  {
    "code": "1150a",
    "name": "Ecton",
    "updated_at": "2014-09-22T21:08:45.686942Z",
    "country": "gb",
    "parent": null,
    "longitude": -0.783333003520966,
    "latitude": 52.25,
    "regions": [
      "11ad"
    ]
  },
  {
    "code": "11509",
    "name": "Edale",
    "updated_at": "2014-09-22T21:08:45.668612Z",
    "country": "gb",
    "parent": null,
    "longitude": -1.81666994094849,
    "latitude": 53.36669921875,
    "regions": [
      "11ac"
    ]
  },
  {
    "code": "11508",
    "name": "Eddleston",
    "updated_at": "2014-09-22T21:08:45.618159Z",
    "country": "gb",
    "parent": null,
    "longitude": -3.21667003631592,
    "latitude": 55.7167015075684,
    "regions": [
      "1214"
    ]
  },
  {
    "code": "11507",
    "name": "Edenbridge",
    "updated_at": "2014-09-22T21:08:45.591203Z",
    "country": "gb",
    "parent": null,
    "longitude": 0.0666666999459267,
    "latitude": 51.1833000183105,
    "regions": [
      "10dd"
    ]
  },
  {
    "code": "11506",
    "name": "Ederny",
    "updated_at": "2014-09-22T21:08:45.560865Z",
    "country": "gb",
    "parent": null,
    "longitude": -7.66666984558105,
    "latitude": 54.5499992370605,
    "regions": [
      "121b"
    ]
  },
  {
    "code": "11505",
    "name": "Edgware",
    "updated_at": "2014-09-22T21:08:45.527306Z",
    "country": "gb",
    "parent": null,
    "longitude": -0.274143010377884,
    "latitude": 51.6118011474609,
    "regions": [
      "120c"
    ]
  },
  {
    "code": "11504",
    "name": "Edinburgh",
    "updated_at": "2014-09-22T21:08:45.495908Z",
    "country": "gb",
    "parent": null,
    "longitude": -3.20000004768372,
    "latitude": 55.9500007629395,
    "regions": [
      "10d9"
    ]
  },
  {
    "code": "11503",
    "name": "Edington",
    "updated_at": "2014-09-22T21:08:45.446356Z",
    "country": "gb",
    "parent": null,
    "longitude": -2.09999990463257,
    "latitude": 51.2667007446289,
    "regions": [
      "120a"
    ]
  },
  {
    "code": "11502",
    "name": "Edwinstowe",
    "updated_at": "2014-09-22T21:08:45.429212Z",
    "country": "gb",
    "parent": null,
    "longitude": -1.06666994094849,
    "latitude": 53.1833000183105,
    "regions": [
      "118e"
    ]
  },
  {
    "code": "11501",
    "name": "Edzell",
    "updated_at": "2014-09-22T21:08:45.411926Z",
    "country": "gb",
    "parent": null,
    "longitude": -2.65000009536743,
    "latitude": 56.7999992370605,
    "regions": [
      "1215"
    ]
  },
  {
    "code": "11500",
    "name": "Effingham",
    "updated_at": "2014-09-22T21:08:45.390037Z",
    "country": "gb",
    "parent": null,
    "longitude": -0.400000005960464,
    "latitude": 51.25,
    "regions": [
      "10e1"
    ]
  },
  {
    "code": "114ff",
    "name": "Egerton",
    "updated_at": "2014-09-22T21:08:45.365522Z",
    "country": "gb",
    "parent": null,
    "longitude": 0.733332991600037,
    "latitude": 51.1833000183105,
    "regions": [
      "10dd"
    ]
  },
  {
    "code": "114fe",
    "name": "Egham",
    "updated_at": "2014-09-22T21:08:45.302881Z",
    "country": "gb",
    "parent": null,
    "longitude": -0.566667020320892,
    "latitude": 51.4166984558105,
    "regions": [
      "10e1"
    ]
  },
  {
    "code": "114fd",
    "name": "Eglingham",
    "updated_at": "2014-09-22T21:08:45.267896Z",
    "country": "gb",
    "parent": null,
    "longitude": -1.81666994094849,
    "latitude": 55.4500007629395,
    "regions": [
      "10df"
    ]
  },
  {
    "code": "114fc",
    "name": "Eglwys-fach",
    "updated_at": "2014-09-22T21:08:45.206425Z",
    "country": "gb",
    "parent": null,
    "longitude": -3.93333005905151,
    "latitude": 52.5332984924316,
    "regions": [
      "1210"
    ]
  },
  {
    "code": "114fb",
    "name": "Egton",
    "updated_at": "2014-09-22T21:08:45.171695Z",
    "country": "gb",
    "parent": null,
    "longitude": -0.75,
    "latitude": 54.4333000183105,
    "regions": [
      "132d"
    ]
  },
  {
    "code": "114fa",
    "name": "Elgin",
    "updated_at": "2014-09-22T21:08:45.154583Z",
    "country": "gb",
    "parent": null,
    "longitude": -3.33332991600037,
    "latitude": 57.6500015258789,
    "regions": [
      "1215"
    ]
  },
  {
    "code": "114f9",
    "name": "Elham",
    "updated_at": "2014-09-22T21:08:45.100745Z",
    "country": "gb",
    "parent": null,
    "longitude": 1.11667001247406,
    "latitude": 51.1500015258789,
    "regions": [
      "10dd"
    ]
  },
  {
    "code": "114f8",
    "name": "Ellemford",
    "updated_at": "2014-09-22T21:08:45.005924Z",
    "country": "gb",
    "parent": null,
    "longitude": -2.43333005905151,
    "latitude": 55.8333015441895,
    "regions": [
      "1214"
    ]
  },
  {
    "code": "114f7",
    "name": "Ellesmere",
    "updated_at": "2014-09-22T21:08:44.959852Z",
    "country": "gb",
    "parent": null,
    "longitude": -2.88333010673523,
    "latitude": 52.9166984558105,
    "regions": [
      "11ff"
    ]
  },
  {
    "code": "114f6",
    "name": "Ellesmere Port",
    "updated_at": "2014-09-22T21:08:44.942110Z",
    "country": "gb",
    "parent": null,
    "longitude": -2.90000009536743,
    "latitude": 53.2832984924316,
    "regions": [
      "11ae"
    ]
  },
  {
    "code": "114f5",
    "name": "Ellon",
    "updated_at": "2014-09-22T21:08:44.887230Z",
    "country": "gb",
    "parent": null,
    "longitude": -2.08332991600037,
    "latitude": 57.3499984741211,
    "regions": [
      "1215"
    ]
  },
  {
    "code": "114f4",
    "name": "Elsenham",
    "updated_at": "2014-09-22T21:08:44.737539Z",
    "country": "gb",
    "parent": null,
    "longitude": 0.233333006501198,
    "latitude": 51.9166984558105,
    "regions": [
      "10da"
    ]
  },
  {
    "code": "114f3",
    "name": "Elstree",
    "updated_at": "2014-09-22T21:08:44.696941Z",
    "country": "gb",
    "parent": null,
    "longitude": -0.299291998147964,
    "latitude": 51.6436004638672,
    "regions": [
      "11af"
    ]
  },
  {
    "code": "114f2",
    "name": "Elterwater",
    "updated_at": "2014-09-22T21:08:44.680520Z",
    "country": "gb",
    "parent": null,
    "longitude": -3.03764796257019,
    "latitude": 54.4342079162598,
    "regions": [
      "10d7"
    ]
  },
  {
    "code": "114f1",
    "name": "Elton",
    "updated_at": "2014-09-22T21:08:44.663529Z",
    "country": "gb",
    "parent": null,
    "longitude": -2.81666994094849,
    "latitude": 53.2667007446289,
    "regions": [
      "11ae"
    ]
  },
  {
    "code": "114f0",
    "name": "Ely",
    "updated_at": "2014-09-22T21:08:44.646196Z",
    "country": "gb",
    "parent": null,
    "longitude": 0.266667008399963,
    "latitude": 52.4000015258789,
    "regions": [
      "1203"
    ]
  },
  {
    "code": "114ef",
    "name": "Emsworth",
    "updated_at": "2014-09-22T21:08:44.597029Z",
    "country": "gb",
    "parent": null,
    "longitude": -0.933332979679108,
    "latitude": 50.8499984741211,
    "regions": [
      "10db",
      "1284"
    ]
  },
  {
    "code": "114ee",
    "name": "Enfield",
    "updated_at": "2014-09-22T21:08:44.508709Z",
    "country": "gb",
    "parent": null,
    "longitude": -0.0666666999459267,
    "latitude": 51.6666984558105,
    "regions": [
      "120c"
    ]
  },
  {
    "code": "114ed",
    "name": "Englefield Green",
    "updated_at": "2014-09-22T21:08:44.474368Z",
    "country": "gb",
    "parent": null,
    "longitude": -0.583333015441895,
    "latitude": 51.4333000183105,
    "regions": [
      "10e1"
    ]
  },
  {
    "code": "114ec",
    "name": "Enniskillen",
    "updated_at": "2014-09-22T21:08:44.452699Z",
    "country": "gb",
    "parent": null,
    "longitude": -7.6346697807312,
    "latitude": 54.347900390625,
    "regions": [
      "121b"
    ]
  },
  {
    "code": "114eb",
    "name": "Epping",
    "updated_at": "2014-09-22T21:08:44.434533Z",
    "country": "gb",
    "parent": null,
    "longitude": 0.116667002439499,
    "latitude": 51.7000007629395,
    "regions": [
      "10da"
    ]
  },
  {
    "code": "114ea",
    "name": "Epsom",
    "updated_at": "2014-09-22T21:08:44.416442Z",
    "country": "gb",
    "parent": null,
    "longitude": -0.266667008399963,
    "latitude": 51.3166999816895,
    "regions": [
      "10e1"
    ]
  },
  {
    "code": "114e9",
    "name": "Epworth",
    "updated_at": "2014-09-22T21:08:44.398198Z",
    "country": "gb",
    "parent": null,
    "longitude": -0.816667020320892,
    "latitude": 53.5167007446289,
    "regions": [
      "11ab"
    ]
  },
  {
    "code": "114e8",
    "name": "Ersary",
    "updated_at": "2014-09-22T21:08:44.306743Z",
    "country": "gb",
    "parent": null,
    "longitude": -7.44999980926514,
    "latitude": 56.9667015075684,
    "regions": []
  },
  {
    "code": "114e7",
    "name": "Escrick",
    "updated_at": "2014-09-22T21:08:44.272489Z",
    "country": "gb",
    "parent": null,
    "longitude": -1.04999995231628,
    "latitude": 53.88330078125,
    "regions": [
      "132d"
    ]
  },
  {
    "code": "114e6",
    "name": "Esher",
    "updated_at": "2014-09-22T21:08:44.241505Z",
    "country": "gb",
    "parent": null,
    "longitude": -0.366667002439499,
    "latitude": 51.3499984741211,
    "regions": [
      "10e1"
    ]
  },
  {
    "code": "114e5",
    "name": "Etchingham",
    "updated_at": "2014-09-22T21:08:44.207787Z",
    "country": "gb",
    "parent": null,
    "longitude": 0.43333300948143,
    "latitude": 51.0,
    "regions": [
      "129e"
    ]
  },
  {
    "code": "114e4",
    "name": "Etwall",
    "updated_at": "2014-09-22T21:08:44.191342Z",
    "country": "gb",
    "parent": null,
    "longitude": -1.60000002384186,
    "latitude": 52.86669921875,
    "regions": [
      "11ac"
    ]
  },
  {
    "code": "114e3",
    "name": "Evanton",
    "updated_at": "2014-09-22T21:08:44.174790Z",
    "country": "gb",
    "parent": null,
    "longitude": -4.33333015441895,
    "latitude": 57.6666984558105,
    "regions": [
      "133f"
    ]
  },
  {
    "code": "114e2",
    "name": "Evershot",
    "updated_at": "2014-09-22T21:08:44.100772Z",
    "country": "gb",
    "parent": null,
    "longitude": -2.59999990463257,
    "latitude": 50.8333015441895,
    "regions": [
      "10d8"
    ]
  },
  {
    "code": "114e1",
    "name": "Evesham",
    "updated_at": "2014-09-22T21:08:44.074806Z",
    "country": "gb",
    "parent": null,
    "longitude": -1.93333005905151,
    "latitude": 52.0833015441895,
    "regions": [
      "10e4"
    ]
  },
  {
    "code": "114e0",
    "name": "Exeter",
    "updated_at": "2014-09-22T21:08:43.984931Z",
    "country": "gb",
    "parent": null,
    "longitude": -3.5339469909668,
    "latitude": 50.7178039550781,
    "regions": [
      "118d"
    ]
  },
  {
    "code": "114df",
    "name": "Exford",
    "updated_at": "2014-09-22T21:08:43.950784Z",
    "country": "gb",
    "parent": null,
    "longitude": -3.63333010673523,
    "latitude": 51.13330078125,
    "regions": [
      "118f"
    ]
  },
  {
    "code": "114de",
    "name": "Exminster",
    "updated_at": "2014-09-22T21:08:43.934017Z",
    "country": "gb",
    "parent": null,
    "longitude": -3.4833300113678,
    "latitude": 50.6833000183105,
    "regions": []
  },
  {
    "code": "114dd",
    "name": "Exmouth",
    "updated_at": "2014-09-22T21:08:43.917658Z",
    "country": "gb",
    "parent": null,
    "longitude": -3.40473008155823,
    "latitude": 50.619701385498,
    "regions": [
      "118d"
    ]
  },
  {
    "code": "114dc",
    "name": "Eyam",
    "updated_at": "2014-09-22T21:08:43.883238Z",
    "country": "gb",
    "parent": null,
    "longitude": -1.66666996479034,
    "latitude": 53.2832984924316,
    "regions": [
      "11ac"
    ]
  },
  {
    "code": "114db",
    "name": "Eye",
    "updated_at": "2014-09-22T21:08:43.865935Z",
    "country": "gb",
    "parent": null,
    "longitude": 1.14999997615814,
    "latitude": 52.3166999816895,
    "regions": [
      "1205"
    ]
  },
  {
    "code": "114da",
    "name": "Eyemouth",
    "updated_at": "2014-09-22T21:08:43.838998Z",
    "country": "gb",
    "parent": null,
    "longitude": -2.09999990463257,
    "latitude": 55.86669921875,
    "regions": [
      "1214"
    ]
  },
  {
    "code": "114d9",
    "name": "Eynsford",
    "updated_at": "2014-09-22T21:08:43.816736Z",
    "country": "gb",
    "parent": null,
    "longitude": 0.216666996479034,
    "latitude": 51.3499984741211,
    "regions": [
      "10dd"
    ]
  },
  {
    "code": "114d8",
    "name": "Fakenham",
    "updated_at": "2014-09-22T21:08:43.694450Z",
    "country": "gb",
    "parent": null,
    "longitude": 0.833333015441895,
    "latitude": 52.8333015441895,
    "regions": [
      "1190"
    ]
  },
  {
    "code": "114d7",
    "name": "Falfield",
    "updated_at": "2014-09-22T21:08:43.675931Z",
    "country": "gb",
    "parent": null,
    "longitude": -2.45000004768372,
    "latitude": 51.63330078125,
    "regions": [
      "1208"
    ]
  },
  {
    "code": "114d6",
    "name": "Falkirk",
    "updated_at": "2014-09-22T21:08:43.640915Z",
    "country": "gb",
    "parent": null,
    "longitude": -3.7666699886322,
    "latitude": 56.0,
    "regions": [
      "1217",
      "15e5"
    ]
  },
  {
    "code": "114d5",
    "name": "Falkland",
    "updated_at": "2014-09-22T21:08:43.623554Z",
    "country": "gb",
    "parent": null,
    "longitude": -3.20000004768372,
    "latitude": 56.25,
    "regions": [
      "1216"
    ]
  },
  {
    "code": "114d4",
    "name": "Falmouth",
    "updated_at": "2014-09-22T21:08:43.596468Z",
    "country": "gb",
    "parent": null,
    "longitude": -5.06649684906006,
    "latitude": 50.1513977050781,
    "regions": [
      "118b"
    ]
  },
  {
    "code": "114d3",
    "name": "Falstone",
    "updated_at": "2014-09-22T21:08:43.569262Z",
    "country": "gb",
    "parent": null,
    "longitude": -2.43333005905151,
    "latitude": 55.1666984558105,
    "regions": [
      "10df"
    ]
  },
  {
    "code": "114d2",
    "name": "Fangfoss",
    "updated_at": "2014-09-22T21:08:43.540739Z",
    "country": "gb",
    "parent": null,
    "longitude": -0.833333015441895,
    "latitude": 53.9667015075684,
    "regions": [
      "132e"
    ]
  },
  {
    "code": "114d1",
    "name": "Fareham",
    "updated_at": "2014-09-22T21:08:43.506315Z",
    "country": "gb",
    "parent": null,
    "longitude": -1.18333005905151,
    "latitude": 50.8499984741211,
    "regions": [
      "10db"
    ]
  },
  {
    "code": "114d0",
    "name": "Faringdon",
    "updated_at": "2014-09-22T21:08:43.471581Z",
    "country": "gb",
    "parent": null,
    "longitude": -1.58333003520966,
    "latitude": 51.6500015258789,
    "regions": [
      "10e0"
    ]
  },
  {
    "code": "114cf",
    "name": "Farnborough",
    "updated_at": "2014-09-22T21:08:43.396739Z",
    "country": "gb",
    "parent": null,
    "longitude": -0.772132873535156,
    "latitude": 51.2880477905273,
    "regions": [
      "10db"
    ]
  },
  {
    "code": "114ce",
    "name": "Farndon",
    "updated_at": "2014-09-22T21:08:43.379220Z",
    "country": "gb",
    "parent": null,
    "longitude": -2.88333010673523,
    "latitude": 53.0833015441895,
    "regions": [
      "1211"
    ]
  },
  {
    "code": "114cd",
    "name": "Farnham",
    "updated_at": "2014-09-22T21:08:43.357357Z",
    "country": "gb",
    "parent": null,
    "longitude": -2.06666994094849,
    "latitude": 50.9333000183105,
    "regions": [
      "10d8"
    ]
  },
  {
    "code": "114cc",
    "name": "Farnham",
    "updated_at": "2014-09-22T21:08:43.334717Z",
    "country": "gb",
    "parent": null,
    "longitude": -0.800000011920929,
    "latitude": 51.2000007629395,
    "regions": [
      "10e1"
    ]
  },
  {
    "code": "114cb",
    "name": "Farningham",
    "updated_at": "2014-09-22T21:08:43.309820Z",
    "country": "gb",
    "parent": null,
    "longitude": 0.216666996479034,
    "latitude": 51.36669921875,
    "regions": [
      "10dd"
    ]
  },
  {
    "code": "114ca",
    "name": "Farr",
    "updated_at": "2014-09-22T21:08:43.278775Z",
    "country": "gb",
    "parent": null,
    "longitude": -4.19999980926514,
    "latitude": 57.3499984741211,
    "regions": [
      "133f"
    ]
  },
  {
    "code": "114c9",
    "name": "Farrington Gurney",
    "updated_at": "2014-09-22T21:08:43.244985Z",
    "country": "gb",
    "parent": null,
    "longitude": -2.53332996368408,
    "latitude": 51.2832984924316,
    "regions": [
      "118f"
    ]
  },
  {
    "code": "114c8",
    "name": "Farthinghoe",
    "updated_at": "2014-09-22T21:08:43.210229Z",
    "country": "gb",
    "parent": null,
    "longitude": -1.21667003631592,
    "latitude": 52.0499992370605,
    "regions": [
      "11ad"
    ]
  },
  {
    "code": "114c7",
    "name": "Farthingstone",
    "updated_at": "2014-09-22T21:08:43.189009Z",
    "country": "gb",
    "parent": null,
    "longitude": -1.10000002384186,
    "latitude": 52.1833000183105,
    "regions": [
      "11ad"
    ]
  },
  {
    "code": "114c6",
    "name": "Fassfern",
    "updated_at": "2014-09-22T21:08:43.170790Z",
    "country": "gb",
    "parent": null,
    "longitude": -5.26667022705078,
    "latitude": 56.86669921875,
    "regions": [
      "133f"
    ]
  },
  {
    "code": "114c5",
    "name": "Faversham",
    "updated_at": "2014-09-22T21:08:43.152713Z",
    "country": "gb",
    "parent": null,
    "longitude": 0.899999976158142,
    "latitude": 51.3166999816895,
    "regions": [
      "10dd"
    ]
  },
  {
    "code": "114c4",
    "name": "Fawley",
    "updated_at": "2014-09-22T21:08:43.134119Z",
    "country": "gb",
    "parent": null,
    "longitude": -1.35000002384186,
    "latitude": 50.8166999816895,
    "regions": [
      "10db"
    ]
  },
  {
    "code": "114c3",
    "name": "Feetham",
    "updated_at": "2014-09-22T21:08:43.068312Z",
    "country": "gb",
    "parent": null,
    "longitude": -2.0166699886322,
    "latitude": 54.36669921875,
    "regions": [
      "132d"
    ]
  },
  {
    "code": "114c2",
    "name": "Felbridge",
    "updated_at": "2014-09-22T21:08:43.041543Z",
    "country": "gb",
    "parent": null,
    "longitude": -0.0333333015441895,
    "latitude": 51.11669921875,
    "regions": [
      "1284",
      "129e"
    ]
  },
  {
    "code": "114c1",
    "name": "Felixstowe",
    "updated_at": "2014-09-22T21:08:42.972135Z",
    "country": "gb",
    "parent": null,
    "longitude": 1.35000002384186,
    "latitude": 51.9667015075684,
    "regions": [
      "1205"
    ]
  },
  {
    "code": "114c0",
    "name": "Fen Stanton",
    "updated_at": "2014-09-22T21:08:42.905948Z",
    "country": "gb",
    "parent": null,
    "longitude": -0.0666666999459267,
    "latitude": 52.2999992370605,
    "regions": [
      "1203"
    ]
  },
  {
    "code": "114bf",
    "name": "Ferndown",
    "updated_at": "2014-09-22T21:08:42.889535Z",
    "country": "gb",
    "parent": null,
    "longitude": -1.86667001247406,
    "latitude": 50.7999992370605,
    "regions": [
      "10d8"
    ]
  },
  {
    "code": "114be",
    "name": "Ferryside",
    "updated_at": "2014-09-22T21:08:42.829211Z",
    "country": "gb",
    "parent": null,
    "longitude": -4.36667013168335,
    "latitude": 51.7667007446289,
    "regions": [
      "1210"
    ]
  },
  {
    "code": "114bd",
    "name": "Fersfield",
    "updated_at": "2014-09-22T21:08:42.802462Z",
    "country": "gb",
    "parent": null,
    "longitude": 1.03332996368408,
    "latitude": 52.4000015258789,
    "regions": [
      "1190"
    ]
  },
  {
    "code": "114bc",
    "name": "Fettercairn",
    "updated_at": "2014-09-22T21:08:42.776878Z",
    "country": "gb",
    "parent": null,
    "longitude": -2.56666994094849,
    "latitude": 56.8499984741211,
    "regions": [
      "1215"
    ]
  },
  {
    "code": "114bb",
    "name": "Ffestiniog",
    "updated_at": "2014-09-22T21:08:42.742395Z",
    "country": "gb",
    "parent": null,
    "longitude": -3.93333005905151,
    "latitude": 52.9500007629395,
    "regions": [
      "120e"
    ]
  },
  {
    "code": "114ba",
    "name": "Fifield",
    "updated_at": "2014-09-22T21:08:42.678854Z",
    "country": "gb",
    "parent": null,
    "longitude": -1.64999997615814,
    "latitude": 51.8499984741211,
    "regions": [
      "10e0"
    ]
  },
  {
    "code": "114b9",
    "name": "Filey",
    "updated_at": "2014-09-22T21:08:42.646059Z",
    "country": "gb",
    "parent": null,
    "longitude": -0.289166986942291,
    "latitude": 54.2099990844727,
    "regions": []
  },
  {
    "code": "114b8",
    "name": "Fintry",
    "updated_at": "2014-09-22T21:08:42.573480Z",
    "country": "gb",
    "parent": null,
    "longitude": -4.19999980926514,
    "latitude": 56.0499992370605,
    "regions": [
      "1217",
      "15e5"
    ]
  },
  {
    "code": "114b7",
    "name": "Fishguard",
    "updated_at": "2014-09-22T21:08:42.507127Z",
    "country": "gb",
    "parent": null,
    "longitude": -4.93333005905151,
    "latitude": 52.0,
    "regions": [
      "1210"
    ]
  },
  {
    "code": "114b6",
    "name": "Fishtoft",
    "updated_at": "2014-09-22T21:08:42.478054Z",
    "country": "gb",
    "parent": null,
    "longitude": 0.025577500462532,
    "latitude": 52.9622993469238,
    "regions": [
      "11ab"
    ]
  },
  {
    "code": "114b5",
    "name": "Fittleworth",
    "updated_at": "2014-09-22T21:08:42.421169Z",
    "country": "gb",
    "parent": null,
    "longitude": -0.566667020320892,
    "latitude": 50.9500007629395,
    "regions": []
  },
  {
    "code": "114b4",
    "name": "Fitzhead",
    "updated_at": "2014-09-22T21:08:42.405836Z",
    "country": "gb",
    "parent": null,
    "longitude": -3.25,
    "latitude": 51.0499992370605,
    "regions": [
      "118f"
    ]
  },
  {
    "code": "114b3",
    "name": "Fivemiletown",
    "updated_at": "2014-09-22T21:08:42.374916Z",
    "country": "gb",
    "parent": null,
    "longitude": -7.30000019073486,
    "latitude": 54.38330078125,
    "regions": [
      "121d"
    ]
  },
  {
    "code": "114b2",
    "name": "Flaxton",
    "updated_at": "2014-09-22T21:08:42.313983Z",
    "country": "gb",
    "parent": null,
    "longitude": -0.949999988079071,
    "latitude": 54.0332984924316,
    "regions": [
      "132d"
    ]
  },
  {
    "code": "114b1",
    "name": "Fleet",
    "updated_at": "2014-09-22T21:08:42.296427Z",
    "country": "gb",
    "parent": null,
    "longitude": -0.833333015441895,
    "latitude": 51.2832984924316,
    "regions": [
      "10db"
    ]
  },
  {
    "code": "114b0",
    "name": "Fleetwood",
    "updated_at": "2014-09-22T21:08:42.275260Z",
    "country": "gb",
    "parent": null,
    "longitude": -3.01163005828857,
    "latitude": 53.9249000549316,
    "regions": [
      "10de"
    ]
  },
  {
    "code": "114af",
    "name": "Flint",
    "updated_at": "2014-09-22T21:08:42.233562Z",
    "country": "gb",
    "parent": null,
    "longitude": -3.16667008399963,
    "latitude": 53.2667007446289,
    "regions": [
      "1211"
    ]
  },
  {
    "code": "114ae",
    "name": "Flitwick",
    "updated_at": "2014-09-22T21:08:42.209111Z",
    "country": "gb",
    "parent": null,
    "longitude": -0.483332991600037,
    "latitude": 52.0,
    "regions": [
      "1206"
    ]
  },
  {
    "code": "114ad",
    "name": "Fochabers",
    "updated_at": "2014-09-22T21:08:42.162178Z",
    "country": "gb",
    "parent": null,
    "longitude": -3.08332991600037,
    "latitude": 57.61669921875,
    "regions": [
      "1215"
    ]
  },
  {
    "code": "114ac",
    "name": "Folkestone",
    "updated_at": "2014-09-22T21:08:42.121092Z",
    "country": "gb",
    "parent": null,
    "longitude": 1.18333005905151,
    "latitude": 51.0833015441895,
    "regions": [
      "10dd"
    ]
  },
  {
    "code": "114ab",
    "name": "Fordingbridge",
    "updated_at": "2014-09-22T21:08:42.046762Z",
    "country": "gb",
    "parent": null,
    "longitude": -1.79999995231628,
    "latitude": 50.9333000183105,
    "regions": [
      "10db"
    ]
  },
  {
    "code": "114aa",
    "name": "Forest Row",
    "updated_at": "2014-09-22T21:08:42.002261Z",
    "country": "gb",
    "parent": null,
    "longitude": -0.0333333015441895,
    "latitude": 51.0833015441895,
    "regions": [
      "129e"
    ]
  },
  {
    "code": "114a9",
    "name": "Forfar",
    "updated_at": "2014-09-22T21:08:41.985005Z",
    "country": "gb",
    "parent": null,
    "longitude": -2.88333010673523,
    "latitude": 56.6500015258789,
    "regions": [
      "1220",
      "134a"
    ]
  },
  {
    "code": "114a8",
    "name": "Formby",
    "updated_at": "2014-09-22T21:08:41.945456Z",
    "country": "gb",
    "parent": null,
    "longitude": -3.04999995231628,
    "latitude": 53.5499992370605,
    "regions": [
      "1331"
    ]
  },
  {
    "code": "114a7",
    "name": "Forres",
    "updated_at": "2014-09-22T21:08:41.924494Z",
    "country": "gb",
    "parent": null,
    "longitude": -3.61666989326477,
    "latitude": 57.5999984741211,
    "regions": [
      "1215"
    ]
  },
  {
    "code": "114a6",
    "name": "Fort Augustus",
    "updated_at": "2014-09-22T21:08:41.895249Z",
    "country": "gb",
    "parent": null,
    "longitude": -4.68063688278198,
    "latitude": 57.1449661254883,
    "regions": [
      "133f"
    ]
  },
  {
    "code": "114a5",
    "name": "Fortrose",
    "updated_at": "2014-09-22T21:08:41.868598Z",
    "country": "gb",
    "parent": null,
    "longitude": -4.13332986831665,
    "latitude": 57.5833015441895,
    "regions": [
      "133f"
    ]
  },
  {
    "code": "114a4",
    "name": "Fort William",
    "updated_at": "2014-09-22T21:08:41.842245Z",
    "country": "gb",
    "parent": null,
    "longitude": -5.11667013168335,
    "latitude": 56.8166999816895,
    "regions": [
      "133f"
    ]
  },
  {
    "code": "114a3",
    "name": "Foulden",
    "updated_at": "2014-09-22T21:08:41.819859Z",
    "country": "gb",
    "parent": null,
    "longitude": 0.600000023841858,
    "latitude": 52.5499992370605,
    "regions": [
      "1190"
    ]
  },
  {
    "code": "114a2",
    "name": "Fourstones",
    "updated_at": "2014-09-22T21:08:41.759776Z",
    "country": "gb",
    "parent": null,
    "longitude": -2.16667008399963,
    "latitude": 55.0,
    "regions": [
      "10df"
    ]
  },
  {
    "code": "114a1",
    "name": "Fowey",
    "updated_at": "2014-09-22T21:08:41.745062Z",
    "country": "gb",
    "parent": null,
    "longitude": -4.63332986831665,
    "latitude": 50.3333015441895,
    "regions": [
      "118b"
    ]
  },
  {
    "code": "114a0",
    "name": "Fownhope",
    "updated_at": "2014-09-22T21:08:41.714312Z",
    "country": "gb",
    "parent": null,
    "longitude": -2.61456990242004,
    "latitude": 52.007999420166,
    "regions": [
      "1209"
    ]
  },
  {
    "code": "1149f",
    "name": "Foyers",
    "updated_at": "2014-09-22T21:08:41.679712Z",
    "country": "gb",
    "parent": null,
    "longitude": -4.48332977294922,
    "latitude": 57.2332992553711,
    "regions": [
      "133f"
    ]
  },
  {
    "code": "1149e",
    "name": "Framfield",
    "updated_at": "2014-09-22T21:08:41.643482Z",
    "country": "gb",
    "parent": null,
    "longitude": 0.133332997560501,
    "latitude": 50.9500007629395,
    "regions": [
      "129e"
    ]
  },
  {
    "code": "1149d",
    "name": "Framilode",
    "updated_at": "2014-09-22T21:08:41.623895Z",
    "country": "gb",
    "parent": null,
    "longitude": -2.36666989326477,
    "latitude": 51.7999992370605,
    "regions": [
      "1208"
    ]
  },
  {
    "code": "1149c",
    "name": "Framlingham",
    "updated_at": "2014-09-22T21:08:41.601913Z",
    "country": "gb",
    "parent": null,
    "longitude": 1.33333003520966,
    "latitude": 52.2167015075684,
    "regions": [
      "1205"
    ]
  },
  {
    "code": "1149b",
    "name": "Fraserburgh",
    "updated_at": "2014-09-22T21:08:41.556029Z",
    "country": "gb",
    "parent": null,
    "longitude": -2.0166699886322,
    "latitude": 57.6833000183105,
    "regions": [
      "1215"
    ]
  },
  {
    "code": "1149a",
    "name": "Freckenham",
    "updated_at": "2014-09-22T21:08:41.526765Z",
    "country": "gb",
    "parent": null,
    "longitude": 0.43333300948143,
    "latitude": 52.3166999816895,
    "regions": [
      "1205"
    ]
  },
  {
    "code": "11499",
    "name": "Frensham",
    "updated_at": "2014-09-22T21:08:41.493514Z",
    "country": "gb",
    "parent": null,
    "longitude": -0.795822024345398,
    "latitude": 51.165599822998,
    "regions": []
  },
  {
    "code": "11498",
    "name": "Freshwater",
    "updated_at": "2014-09-22T21:08:41.463265Z",
    "country": "gb",
    "parent": null,
    "longitude": -1.51440000534058,
    "latitude": 50.6754989624023,
    "regions": [
      "10dc"
    ]
  },
  {
    "code": "11497",
    "name": "Frimley",
    "updated_at": "2014-09-22T21:08:41.417157Z",
    "country": "gb",
    "parent": null,
    "longitude": -0.733332991600037,
    "latitude": 51.2999992370605,
    "regions": [
      "10e1"
    ]
  },
  {
    "code": "11496",
    "name": "Frinton-on-Sea",
    "updated_at": "2014-09-22T21:08:41.401575Z",
    "country": "gb",
    "parent": null,
    "longitude": 1.25,
    "latitude": 51.8333015441895,
    "regions": [
      "10da"
    ]
  },
  {
    "code": "11495",
    "name": "Fritton",
    "updated_at": "2016-02-09T09:32:27.350676Z",
    "country": "gb",
    "parent": null,
    "longitude": 1.63332998752594,
    "latitude": 52.5332984924316,
    "regions": [
      "1190",
      "1205"
    ]
  },
  {
    "code": "11494",
    "name": "Frodsham",
    "updated_at": "2014-09-22T21:08:41.347074Z",
    "country": "gb",
    "parent": null,
    "longitude": -2.7333300113678,
    "latitude": 53.2999992370605,
    "regions": [
      "11ae"
    ]
  },
  {
    "code": "11493",
    "name": "Froggatt",
    "updated_at": "2014-09-22T21:08:41.326020Z",
    "country": "gb",
    "parent": null,
    "longitude": -1.63332998752594,
    "latitude": 53.2832984924316,
    "regions": [
      "11ac"
    ]
  },
  {
    "code": "11492",
    "name": "Frome",
    "updated_at": "2014-09-22T21:08:41.302003Z",
    "country": "gb",
    "parent": null,
    "longitude": -2.31666994094849,
    "latitude": 51.2167015075684,
    "regions": [
      "118f"
    ]
  },
  {
    "code": "11491",
    "name": "Frome Saint Quinton",
    "updated_at": "2014-09-22T21:08:41.280342Z",
    "country": "gb",
    "parent": null,
    "longitude": -2.56666994094849,
    "latitude": 50.8166999816895,
    "regions": [
      "10d8"
    ]
  },
  {
    "code": "11490",
    "name": "Fulbourn",
    "updated_at": "2014-09-22T21:08:41.191062Z",
    "country": "gb",
    "parent": null,
    "longitude": 0.216666996479034,
    "latitude": 52.1833000183105,
    "regions": [
      "1203"
    ]
  },
  {
    "code": "1148f",
    "name": "Fulmer",
    "updated_at": "2014-09-22T21:08:41.176562Z",
    "country": "gb",
    "parent": null,
    "longitude": -0.550000011920929,
    "latitude": 51.5499992370605,
    "regions": [
      "1207"
    ]
  },
  {
    "code": "1148e",
    "name": "Furnace",
    "updated_at": "2014-09-22T21:08:41.133001Z",
    "country": "gb",
    "parent": null,
    "longitude": -5.16666984558105,
    "latitude": 56.1500015258789,
    "regions": [
      "1212",
      "133e"
    ]
  },
  {
    "code": "1148d",
    "name": "Fylingthorpe",
    "updated_at": "2014-09-22T21:08:41.085001Z",
    "country": "gb",
    "parent": null,
    "longitude": -0.533333003520966,
    "latitude": 54.4166984558105,
    "regions": [
      "132d"
    ]
  },
  {
    "code": "1148c",
    "name": "Gainsborough",
    "updated_at": "2014-09-22T21:08:41.051596Z",
    "country": "gb",
    "parent": null,
    "longitude": -0.766667008399963,
    "latitude": 53.38330078125,
    "regions": [
      "11ab"
    ]
  },
  {
    "code": "1148b",
    "name": "Gairloch",
    "updated_at": "2014-09-22T21:08:41.032150Z",
    "country": "gb",
    "parent": null,
    "longitude": -5.66666984558105,
    "latitude": 57.7000007629395,
    "regions": [
      "133f"
    ]
  },
  {
    "code": "1148a",
    "name": "Galashiels",
    "updated_at": "2014-09-22T21:08:40.992775Z",
    "country": "gb",
    "parent": null,
    "longitude": -2.81666994094849,
    "latitude": 55.5999984741211,
    "regions": [
      "1214"
    ]
  },
  {
    "code": "11489",
    "name": "Ganton",
    "updated_at": "2014-09-22T21:08:40.921855Z",
    "country": "gb",
    "parent": null,
    "longitude": -0.483332991600037,
    "latitude": 54.1833000183105,
    "regions": [
      "132d"
    ]
  },
  {
    "code": "11488",
    "name": "Garforth",
    "updated_at": "2014-09-22T21:08:40.820267Z",
    "country": "gb",
    "parent": null,
    "longitude": -1.38332998752594,
    "latitude": 53.7832984924316,
    "regions": [
      "132f"
    ]
  },
  {
    "code": "11487",
    "name": "Gargrave",
    "updated_at": "2014-09-22T21:08:40.801133Z",
    "country": "gb",
    "parent": null,
    "longitude": -2.09999990463257,
    "latitude": 53.9832992553711,
    "regions": [
      "132d"
    ]
  },
  {
    "code": "11486",
    "name": "Garstang",
    "updated_at": "2014-09-22T21:08:40.725233Z",
    "country": "gb",
    "parent": null,
    "longitude": -2.7666699886322,
    "latitude": 53.9000015258789,
    "regions": [
      "10de"
    ]
  },
  {
    "code": "11485",
    "name": "Garston",
    "updated_at": "2014-09-22T21:08:40.705445Z",
    "country": "gb",
    "parent": null,
    "longitude": -2.90000009536743,
    "latitude": 53.3333015441895,
    "regions": []
  },
  {
    "code": "11484",
    "name": "Garve",
    "updated_at": "2014-09-22T21:08:40.656679Z",
    "country": "gb",
    "parent": null,
    "longitude": -4.69999980926514,
    "latitude": 57.61669921875,
    "regions": [
      "133f"
    ]
  },
  {
    "code": "11483",
    "name": "Gatehouse of Fleet",
    "updated_at": "2014-09-22T21:08:40.641797Z",
    "country": "gb",
    "parent": null,
    "longitude": -4.18333005905151,
    "latitude": 54.88330078125,
    "regions": [
      "1213"
    ]
  },
  {
    "code": "11482",
    "name": "Gateshead-on-Tyne",
    "updated_at": "2014-09-22T21:08:40.627101Z",
    "country": "gb",
    "parent": null,
    "longitude": -1.60538005828857,
    "latitude": 54.9600982666016,
    "regions": []
  },
  {
    "code": "11481",
    "name": "Gatwick",
    "updated_at": "2014-09-22T21:08:40.612111Z",
    "country": "gb",
    "parent": null,
    "longitude": -0.183332994580269,
    "latitude": 51.1666984558105,
    "regions": [
      "10e1"
    ]
  },
  {
    "code": "11480",
    "name": "Gayton",
    "updated_at": "2014-09-22T21:08:40.596696Z",
    "country": "gb",
    "parent": null,
    "longitude": 0.550000011920929,
    "latitude": 52.7332992553711,
    "regions": [
      "1190"
    ]
  },
  {
    "code": "1147f",
    "name": "Gestingthorpe",
    "updated_at": "2014-09-22T21:08:40.519407Z",
    "country": "gb",
    "parent": null,
    "longitude": 0.649999976158142,
    "latitude": 52.0167007446289,
    "regions": [
      "10da"
    ]
  },
  {
    "code": "1147e",
    "name": "Giffnock",
    "updated_at": "2014-09-22T21:08:40.499113Z",
    "country": "gb",
    "parent": null,
    "longitude": -4.28332996368408,
    "latitude": 55.7999992370605,
    "regions": [
      "1212"
    ]
  },
  {
    "code": "1147d",
    "name": "Gifford",
    "updated_at": "2014-09-22T21:08:40.480433Z",
    "country": "gb",
    "parent": null,
    "longitude": -2.7333300113678,
    "latitude": 55.9000015258789,
    "regions": [
      "10d9"
    ]
  },
  {
    "code": "1147c",
    "name": "Gilling East",
    "updated_at": "2014-09-22T21:08:40.451119Z",
    "country": "gb",
    "parent": null,
    "longitude": -1.06666994094849,
    "latitude": 54.1833000183105,
    "regions": [
      "132d"
    ]
  },
  {
    "code": "1147b",
    "name": "Gillingham",
    "updated_at": "2014-09-22T21:08:40.421601Z",
    "country": "gb",
    "parent": null,
    "longitude": 0.553435981273651,
    "latitude": 51.3879013061523,
    "regions": [
      "10dd"
    ]
  },
  {
    "code": "1147a",
    "name": "Gilsland",
    "updated_at": "2014-09-22T21:08:40.406917Z",
    "country": "gb",
    "parent": null,
    "longitude": -2.56666994094849,
    "latitude": 54.9832992553711,
    "regions": [
      "10df"
    ]
  },
  {
    "code": "11479",
    "name": "Girvan",
    "updated_at": "2014-09-22T21:08:40.377488Z",
    "country": "gb",
    "parent": null,
    "longitude": -4.85354995727539,
    "latitude": 55.2386016845703,
    "regions": [
      "1212",
      "121e"
    ]
  },
  {
    "code": "11478",
    "name": "Gisburn",
    "updated_at": "2014-09-22T21:08:40.362625Z",
    "country": "gb",
    "parent": null,
    "longitude": -2.2666699886322,
    "latitude": 53.9333000183105,
    "regions": [
      "10de"
    ]
  },
  {
    "code": "11477",
    "name": "Gittisham",
    "updated_at": "2014-09-22T21:08:40.347714Z",
    "country": "gb",
    "parent": null,
    "longitude": -3.2333300113678,
    "latitude": 50.7832984924316,
    "regions": []
  },
  {
    "code": "11476",
    "name": "Glasbury",
    "updated_at": "2014-09-22T21:08:40.282290Z",
    "country": "gb",
    "parent": null,
    "longitude": -3.20000004768372,
    "latitude": 52.0332984924316,
    "regions": [
      "120d"
    ]
  },
  {
    "code": "11475",
    "name": "Glasgow",
    "updated_at": "2014-09-22T21:08:40.266415Z",
    "country": "gb",
    "parent": null,
    "longitude": -4.25710010528564,
    "latitude": 55.8655014038086,
    "regions": [
      "1212"
    ]
  },
  {
    "code": "11474",
    "name": "Glastonbury",
    "updated_at": "2014-09-22T21:08:40.248808Z",
    "country": "gb",
    "parent": null,
    "longitude": -2.71667003631592,
    "latitude": 51.13330078125,
    "regions": [
      "118f"
    ]
  },
  {
    "code": "11473",
    "name": "Glazebrook",
    "updated_at": "2014-09-22T21:08:40.231590Z",
    "country": "gb",
    "parent": null,
    "longitude": -2.46667003631592,
    "latitude": 53.4333000183105,
    "regions": [
      "11ae"
    ]
  },
  {
    "code": "11472",
    "name": "Glemsford",
    "updated_at": "2014-09-22T21:08:40.211358Z",
    "country": "gb",
    "parent": null,
    "longitude": 0.666666984558105,
    "latitude": 52.0999984741211,
    "regions": [
      "1205"
    ]
  },
  {
    "code": "11471",
    "name": "Glencarse",
    "updated_at": "2014-09-22T21:08:40.190619Z",
    "country": "gb",
    "parent": null,
    "longitude": -3.29999995231628,
    "latitude": 56.36669921875,
    "regions": [
      "1220",
      "1349"
    ]
  },
  {
    "code": "11470",
    "name": "Glendevon",
    "updated_at": "2014-09-22T21:08:40.170460Z",
    "country": "gb",
    "parent": null,
    "longitude": -3.61666989326477,
    "latitude": 56.2167015075684,
    "regions": [
      "1220",
      "1349"
    ]
  },
  {
    "code": "1146f",
    "name": "Glenfarg",
    "updated_at": "2014-09-22T21:08:40.128869Z",
    "country": "gb",
    "parent": null,
    "longitude": -3.40000009536743,
    "latitude": 56.2667007446289,
    "regions": [
      "1220",
      "1349"
    ]
  },
  {
    "code": "1146e",
    "name": "Glenfinnan",
    "updated_at": "2014-09-22T21:08:40.111121Z",
    "country": "gb",
    "parent": null,
    "longitude": -5.44999980926514,
    "latitude": 56.86669921875,
    "regions": [
      "133f"
    ]
  },
  {
    "code": "1146d",
    "name": "Glenridding",
    "updated_at": "2014-09-22T21:08:40.081006Z",
    "country": "gb",
    "parent": null,
    "longitude": -2.95000004768372,
    "latitude": 54.5332984924316,
    "regions": [
      "10d7"
    ]
  },
  {
    "code": "1146c",
    "name": "Glenrothes",
    "updated_at": "2014-09-22T21:08:40.065757Z",
    "country": "gb",
    "parent": null,
    "longitude": -3.18333005905151,
    "latitude": 56.2000007629395,
    "regions": [
      "1216"
    ]
  },
  {
    "code": "1146b",
    "name": "Glossop",
    "updated_at": "2014-09-22T21:08:40.050934Z",
    "country": "gb",
    "parent": null,
    "longitude": -1.89999997615814,
    "latitude": 53.4166984558105,
    "regions": [
      "11ac"
    ]
  },
  {
    "code": "1146a",
    "name": "Gloucester",
    "updated_at": "2014-09-22T21:08:40.036172Z",
    "country": "gb",
    "parent": null,
    "longitude": -2.23915004730225,
    "latitude": 51.8616981506348,
    "regions": [
      "1208"
    ]
  },
  {
    "code": "11469",
    "name": "Glyn-Dyfrdwy",
    "updated_at": "2014-09-22T21:08:40.021148Z",
    "country": "gb",
    "parent": null,
    "longitude": -3.2666699886322,
    "latitude": 52.9667015075684,
    "regions": [
      "1211"
    ]
  },
  {
    "code": "11468",
    "name": "Goathland",
    "updated_at": "2014-09-22T21:08:40.006205Z",
    "country": "gb",
    "parent": null,
    "longitude": -0.716666996479034,
    "latitude": 54.38330078125,
    "regions": [
      "132d"
    ]
  },
  {
    "code": "11467",
    "name": "Godalming",
    "updated_at": "2014-09-22T21:08:39.991347Z",
    "country": "gb",
    "parent": null,
    "longitude": -0.600000023841858,
    "latitude": 51.1833000183105,
    "regions": [
      "10e1"
    ]
  },
  {
    "code": "11466",
    "name": "Godmanstone",
    "updated_at": "2014-09-22T21:08:39.976319Z",
    "country": "gb",
    "parent": null,
    "longitude": -2.46667003631592,
    "latitude": 50.7667007446289,
    "regions": [
      "10d8"
    ]
  },
  {
    "code": "11465",
    "name": "Godshill",
    "updated_at": "2014-09-22T21:08:39.944488Z",
    "country": "gb",
    "parent": null,
    "longitude": -1.75,
    "latitude": 50.9166984558105,
    "regions": [
      "10db"
    ]
  },
  {
    "code": "11464",
    "name": "Gogar",
    "updated_at": "2014-09-22T21:08:39.909189Z",
    "country": "gb",
    "parent": null,
    "longitude": -3.33332991600037,
    "latitude": 55.9166984558105,
    "regions": [
      "10d9"
    ]
  },
  {
    "code": "11463",
    "name": "Goole",
    "updated_at": "2014-09-22T21:08:39.792249Z",
    "country": "gb",
    "parent": null,
    "longitude": -0.866666972637177,
    "latitude": 53.7167015075684,
    "regions": [
      "132e"
    ]
  },
  {
    "code": "11462",
    "name": "Goring",
    "updated_at": "2014-09-22T21:08:39.742425Z",
    "country": "gb",
    "parent": null,
    "longitude": -1.13332998752594,
    "latitude": 51.5167007446289,
    "regions": [
      "10e0"
    ]
  },
  {
    "code": "11461",
    "name": "Gorleston-on-Sea",
    "updated_at": "2014-09-22T21:08:39.727092Z",
    "country": "gb",
    "parent": null,
    "longitude": 1.71667003631592,
    "latitude": 52.5833015441895,
    "regions": [
      "1190"
    ]
  },
  {
    "code": "11460",
    "name": "Gosforth",
    "updated_at": "2014-09-22T21:08:39.670107Z",
    "country": "gb",
    "parent": null,
    "longitude": -3.43333005905151,
    "latitude": 54.4000015258789,
    "regions": [
      "10d7"
    ]
  },
  {
    "code": "1145f",
    "name": "Gosport",
    "updated_at": "2014-09-22T21:08:39.652837Z",
    "country": "gb",
    "parent": null,
    "longitude": -1.13332998752594,
    "latitude": 50.7999992370605,
    "regions": [
      "10db"
    ]
  },
  {
    "code": "1145e",
    "name": "Goudhurst",
    "updated_at": "2014-09-22T21:08:39.626303Z",
    "country": "gb",
    "parent": null,
    "longitude": 0.466666996479034,
    "latitude": 51.0999984741211,
    "regions": [
      "10dd"
    ]
  },
  {
    "code": "1145d",
    "name": "Gowerton",
    "updated_at": "2014-09-22T21:08:39.571302Z",
    "country": "gb",
    "parent": null,
    "longitude": -4.05000019073486,
    "latitude": 51.63330078125,
    "regions": [
      "10e2"
    ]
  },
  {
    "code": "1145c",
    "name": "Gracehill",
    "updated_at": "2014-09-22T21:08:39.537390Z",
    "country": "gb",
    "parent": null,
    "longitude": -6.38332986831665,
    "latitude": 55.13330078125,
    "regions": [
      "1218"
    ]
  },
  {
    "code": "1145b",
    "name": "Grangemouth",
    "updated_at": "2014-09-22T21:08:39.474040Z",
    "country": "gb",
    "parent": null,
    "longitude": -3.7333300113678,
    "latitude": 56.0167007446289,
    "regions": [
      "1217",
      "15e5"
    ]
  },
  {
    "code": "1145a",
    "name": "Grantham",
    "updated_at": "2014-09-22T21:08:39.441293Z",
    "country": "gb",
    "parent": null,
    "longitude": -0.633333027362823,
    "latitude": 52.9000015258789,
    "regions": [
      "11ab"
    ]
  },
  {
    "code": "11459",
    "name": "Grantown on Spey",
    "updated_at": "2014-09-22T21:08:39.407471Z",
    "country": "gb",
    "parent": null,
    "longitude": -3.61666989326477,
    "latitude": 57.3166999816895,
    "regions": [
      "133f"
    ]
  },
  {
    "code": "11458",
    "name": "Grasmere",
    "updated_at": "2014-09-22T21:08:39.364628Z",
    "country": "gb",
    "parent": null,
    "longitude": -3.0166699886322,
    "latitude": 54.4500007629395,
    "regions": [
      "10d7"
    ]
  },
  {
    "code": "11457",
    "name": "Grassington",
    "updated_at": "2014-09-22T21:08:39.340530Z",
    "country": "gb",
    "parent": null,
    "longitude": -1.99844002723694,
    "latitude": 54.0714988708496,
    "regions": [
      "132d"
    ]
  },
  {
    "code": "11456",
    "name": "Gravesend",
    "updated_at": "2014-09-22T21:08:39.310122Z",
    "country": "gb",
    "parent": null,
    "longitude": 0.366667002439499,
    "latitude": 51.4333000183105,
    "regions": [
      "10dd"
    ]
  },
  {
    "code": "11455",
    "name": "Grays Thurrock",
    "updated_at": "2014-09-22T21:08:39.245430Z",
    "country": "gb",
    "parent": null,
    "longitude": 0.333332985639572,
    "latitude": 51.4832992553711,
    "regions": [
      "10da"
    ]
  },
  {
    "code": "11454",
    "name": "Great Bircham",
    "updated_at": "2014-09-22T21:08:39.170431Z",
    "country": "gb",
    "parent": null,
    "longitude": 0.633333027362823,
    "latitude": 52.8499984741211,
    "regions": [
      "1190"
    ]
  },
  {
    "code": "11453",
    "name": "Great Chesterford",
    "updated_at": "2014-09-22T21:08:39.153487Z",
    "country": "gb",
    "parent": null,
    "longitude": 0.200000002980232,
    "latitude": 52.0666999816895,
    "regions": [
      "10da"
    ]
  },
  {
    "code": "11452",
    "name": "Great Chishall",
    "updated_at": "2014-09-22T21:08:39.133273Z",
    "country": "gb",
    "parent": null,
    "longitude": 0.0666666999459267,
    "latitude": 52.0332984924316,
    "regions": [
      "1203"
    ]
  },
  {
    "code": "11451",
    "name": "Great Creaton",
    "updated_at": "2014-09-22T21:08:39.106526Z",
    "country": "gb",
    "parent": null,
    "longitude": -0.949999988079071,
    "latitude": 52.3333015441895,
    "regions": [
      "11ad"
    ]
  },
  {
    "code": "11450",
    "name": "Great Cressingham",
    "updated_at": "2014-09-22T21:08:39.079182Z",
    "country": "gb",
    "parent": null,
    "longitude": 0.733332991600037,
    "latitude": 52.5833015441895,
    "regions": [
      "1190"
    ]
  },
  {
    "code": "1144f",
    "name": "Great Driffield",
    "updated_at": "2014-09-22T21:08:39.049760Z",
    "country": "gb",
    "parent": null,
    "longitude": -0.43333300948143,
    "latitude": 54.0,
    "regions": [
      "132e"
    ]
  },
  {
    "code": "1144e",
    "name": "Great Dunmow",
    "updated_at": "2014-09-22T21:08:39.014961Z",
    "country": "gb",
    "parent": null,
    "longitude": 0.366667002439499,
    "latitude": 51.88330078125,
    "regions": [
      "10da"
    ]
  },
  {
    "code": "1144d",
    "name": "Great Eccleston",
    "updated_at": "2014-09-22T21:08:38.958578Z",
    "country": "gb",
    "parent": null,
    "longitude": -2.86666989326477,
    "latitude": 53.8499984741211,
    "regions": [
      "10de"
    ]
  },
  {
    "code": "1144c",
    "name": "Great Fransham",
    "updated_at": "2014-09-22T21:08:38.905455Z",
    "country": "gb",
    "parent": null,
    "longitude": 0.783333003520966,
    "latitude": 52.6833000183105,
    "regions": [
      "1190"
    ]
  },
  {
    "code": "1144b",
    "name": "Great Glen",
    "updated_at": "2014-09-22T21:08:38.888516Z",
    "country": "gb",
    "parent": null,
    "longitude": -1.03332996368408,
    "latitude": 52.5666999816895,
    "regions": [
      "1191"
    ]
  },
  {
    "code": "1144a",
    "name": "Great Hallingbury",
    "updated_at": "2014-09-22T21:08:38.864822Z",
    "country": "gb",
    "parent": null,
    "longitude": 0.183332994580269,
    "latitude": 51.8333015441895,
    "regions": [
      "10da"
    ]
  },
  {
    "code": "11449",
    "name": "Great Malvern",
    "updated_at": "2014-09-22T21:08:38.837935Z",
    "country": "gb",
    "parent": null,
    "longitude": -2.31666994094849,
    "latitude": 52.11669921875,
    "regions": [
      "10e4"
    ]
  },
  {
    "code": "11448",
    "name": "Great Missenden",
    "updated_at": "2014-09-22T21:08:38.781547Z",
    "country": "gb",
    "parent": null,
    "longitude": -0.699999988079071,
    "latitude": 51.7000007629395,
    "regions": [
      "1207"
    ]
  },
  {
    "code": "11447",
    "name": "Great Mongeham",
    "updated_at": "2014-09-22T21:08:38.747528Z",
    "country": "gb",
    "parent": null,
    "longitude": 1.36667001247406,
    "latitude": 51.2000007629395,
    "regions": [
      "10dd"
    ]
  },
  {
    "code": "11446",
    "name": "Great Stukeley",
    "updated_at": "2014-09-22T21:08:38.627079Z",
    "country": "gb",
    "parent": null,
    "longitude": -0.200000002980232,
    "latitude": 52.3499984741211,
    "regions": [
      "1203"
    ]
  },
  {
    "code": "11445",
    "name": "Great Totham",
    "updated_at": "2014-09-22T21:08:38.576405Z",
    "country": "gb",
    "parent": null,
    "longitude": 0.699999988079071,
    "latitude": 51.7999992370605,
    "regions": [
      "10da"
    ]
  },
  {
    "code": "11444",
    "name": "Great Wigborough",
    "updated_at": "2014-09-22T21:08:38.549444Z",
    "country": "gb",
    "parent": null,
    "longitude": 0.850000023841858,
    "latitude": 51.7999992370605,
    "regions": [
      "10da"
    ]
  },
  {
    "code": "11443",
    "name": "Great Witley",
    "updated_at": "2014-09-22T21:08:38.484730Z",
    "country": "gb",
    "parent": null,
    "longitude": -2.34999990463257,
    "latitude": 52.2832984924316,
    "regions": []
  },
  {
    "code": "11442",
    "name": "Great Yarmouth",
    "updated_at": "2014-09-22T21:08:38.452873Z",
    "country": "gb",
    "parent": null,
    "longitude": 1.72812080383301,
    "latitude": 52.5981674194336,
    "regions": [
      "1190"
    ]
  },
  {
    "code": "11441",
    "name": "Great Yeldham",
    "updated_at": "2014-09-22T21:08:38.436581Z",
    "country": "gb",
    "parent": null,
    "longitude": 0.566667020320892,
    "latitude": 52.0167007446289,
    "regions": [
      "10da"
    ]
  },
  {
    "code": "11440",
    "name": "Greencastle",
    "updated_at": "2014-09-22T21:08:38.420249Z",
    "country": "gb",
    "parent": null,
    "longitude": -7.06666994094849,
    "latitude": 54.6833000183105,
    "regions": [
      "121d"
    ]
  },
  {
    "code": "1143f",
    "name": "Greenford",
    "updated_at": "2014-09-22T21:08:38.403178Z",
    "country": "gb",
    "parent": null,
    "longitude": -0.333332985639572,
    "latitude": 51.5167007446289,
    "regions": [
      "120c"
    ]
  },
  {
    "code": "1143e",
    "name": "Green Hammerton",
    "updated_at": "2014-09-22T21:08:38.386177Z",
    "country": "gb",
    "parent": null,
    "longitude": -1.29999995231628,
    "latitude": 54.0,
    "regions": [
      "132d"
    ]
  },
  {
    "code": "1143d",
    "name": "Greenhaugh",
    "updated_at": "2014-09-22T21:08:38.368917Z",
    "country": "gb",
    "parent": null,
    "longitude": -2.31666994094849,
    "latitude": 55.1666984558105,
    "regions": [
      "10df"
    ]
  },
  {
    "code": "1143c",
    "name": "Greenock",
    "updated_at": "2014-09-22T21:08:38.343517Z",
    "country": "gb",
    "parent": null,
    "longitude": -4.75,
    "latitude": 55.9333000183105,
    "regions": [
      "1212"
    ]
  },
  {
    "code": "1143b",
    "name": "Greetham",
    "updated_at": "2014-09-22T21:08:38.321465Z",
    "country": "gb",
    "parent": null,
    "longitude": -0.616666972637177,
    "latitude": 52.7000007629395,
    "regions": [
      "1201"
    ]
  },
  {
    "code": "1143a",
    "name": "Greshornish",
    "updated_at": "2014-09-22T21:08:38.293632Z",
    "country": "gb",
    "parent": null,
    "longitude": -6.43333005905151,
    "latitude": 57.5167007446289,
    "regions": [
      "126d",
      "133f"
    ]
  },
  {
    "code": "11439",
    "name": "Gretna",
    "updated_at": "2014-09-22T21:08:38.259274Z",
    "country": "gb",
    "parent": null,
    "longitude": -3.06529998779297,
    "latitude": 54.9924011230469,
    "regions": [
      "1213"
    ]
  },
  {
    "code": "11438",
    "name": "Gretna Green",
    "updated_at": "2014-09-22T21:08:38.224132Z",
    "country": "gb",
    "parent": null,
    "longitude": -3.06467008590698,
    "latitude": 54.9910011291504,
    "regions": [
      "1213"
    ]
  },
  {
    "code": "11437",
    "name": "Greystoke",
    "updated_at": "2014-09-22T21:08:38.181229Z",
    "country": "gb",
    "parent": null,
    "longitude": -2.86666989326477,
    "latitude": 54.6500015258789,
    "regions": [
      "10d7"
    ]
  },
  {
    "code": "11436",
    "name": "Grimsby",
    "updated_at": "2014-09-22T21:08:38.164884Z",
    "country": "gb",
    "parent": null,
    "longitude": -0.0500000007450581,
    "latitude": 53.5332984924316,
    "regions": [
      "11ab"
    ]
  },
  {
    "code": "11435",
    "name": "Grimston",
    "updated_at": "2014-09-22T21:08:38.147597Z",
    "country": "gb",
    "parent": null,
    "longitude": 0.550000011920929,
    "latitude": 52.7667007446289,
    "regions": [
      "1190"
    ]
  },
  {
    "code": "11434",
    "name": "Grindleford Bridge",
    "updated_at": "2014-09-22T21:08:38.130465Z",
    "country": "gb",
    "parent": null,
    "longitude": -1.63332998752594,
    "latitude": 53.2832984924316,
    "regions": [
      "11ac"
    ]
  },
  {
    "code": "11433",
    "name": "Grittleton",
    "updated_at": "2014-09-22T21:08:38.057550Z",
    "country": "gb",
    "parent": null,
    "longitude": -2.20000004768372,
    "latitude": 51.5167007446289,
    "regions": [
      "120a"
    ]
  },
  {
    "code": "11432",
    "name": "Guildford",
    "updated_at": "2014-09-22T21:08:34.769208Z",
    "country": "gb",
    "parent": null,
    "longitude": -0.566667020320892,
    "latitude": 51.2167015075684,
    "regions": [
      "10e1"
    ]
  },
  {
    "code": "11431",
    "name": "Guisborough",
    "updated_at": "2014-09-22T21:08:34.705359Z",
    "country": "gb",
    "parent": null,
    "longitude": -1.06052005290985,
    "latitude": 54.5306015014648,
    "regions": [
      "132d"
    ]
  },
  {
    "code": "11430",
    "name": "Gullane",
    "updated_at": "2014-09-22T21:08:34.646505Z",
    "country": "gb",
    "parent": null,
    "longitude": -2.81666994094849,
    "latitude": 56.0332984924316,
    "regions": [
      "10d9"
    ]
  },
  {
    "code": "1142f",
    "name": "Gunnislake",
    "updated_at": "2014-09-22T21:08:34.596337Z",
    "country": "gb",
    "parent": null,
    "longitude": -4.21667003631592,
    "latitude": 50.5332984924316,
    "regions": []
  },
  {
    "code": "1142e",
    "name": "Gwytherin",
    "updated_at": "2014-09-22T21:08:34.403130Z",
    "country": "gb",
    "parent": null,
    "longitude": -3.68333005905151,
    "latitude": 53.13330078125,
    "regions": [
      "120e",
      "1211"
    ]
  },
  {
    "code": "1142d",
    "name": "Hackleton",
    "updated_at": "2014-09-22T21:08:34.383708Z",
    "country": "gb",
    "parent": null,
    "longitude": -0.816667020320892,
    "latitude": 52.1833000183105,
    "regions": [
      "11ad"
    ]
  },
  {
    "code": "1142c",
    "name": "Hackness",
    "updated_at": "2014-09-22T21:08:34.365735Z",
    "country": "gb",
    "parent": null,
    "longitude": -0.5,
    "latitude": 54.2832984924316,
    "regions": [
      "132d"
    ]
  },
  {
    "code": "1142b",
    "name": "Haddington",
    "updated_at": "2014-09-22T21:08:34.347580Z",
    "country": "gb",
    "parent": null,
    "longitude": -2.7666699886322,
    "latitude": 55.9333000183105,
    "regions": [
      "10d9"
    ]
  },
  {
    "code": "1142a",
    "name": "Hadfield",
    "updated_at": "2014-09-22T21:08:34.329056Z",
    "country": "gb",
    "parent": null,
    "longitude": -1.96667003631592,
    "latitude": 53.4667015075684,
    "regions": [
      "11ac"
    ]
  },
  {
    "code": "11429",
    "name": "Hadlow",
    "updated_at": "2014-09-22T21:08:34.310585Z",
    "country": "gb",
    "parent": null,
    "longitude": 0.333332985639572,
    "latitude": 51.2167015075684,
    "regions": [
      "10dd"
    ]
  },
  {
    "code": "11428",
    "name": "Hagley",
    "updated_at": "2014-09-22T21:08:34.285709Z",
    "country": "gb",
    "parent": null,
    "longitude": -2.11666989326477,
    "latitude": 52.4333000183105,
    "regions": [
      "1242"
    ]
  },
  {
    "code": "11427",
    "name": "Hailey",
    "updated_at": "2014-09-22T21:08:34.232746Z",
    "country": "gb",
    "parent": null,
    "longitude": -1.4833300113678,
    "latitude": 51.7999992370605,
    "regions": [
      "10e0"
    ]
  },
  {
    "code": "11426",
    "name": "Hailsham",
    "updated_at": "2014-09-22T21:08:34.201927Z",
    "country": "gb",
    "parent": null,
    "longitude": 0.266667008399963,
    "latitude": 50.86669921875,
    "regions": [
      "129e"
    ]
  },
  {
    "code": "11425",
    "name": "Hainford",
    "updated_at": "2014-09-22T21:08:34.166569Z",
    "country": "gb",
    "parent": null,
    "longitude": 1.29999995231628,
    "latitude": 52.7167015075684,
    "regions": [
      "1190"
    ]
  },
  {
    "code": "11424",
    "name": "Hale",
    "updated_at": "2014-09-22T21:08:34.094066Z",
    "country": "gb",
    "parent": null,
    "longitude": -2.79999995231628,
    "latitude": 53.3333015441895,
    "regions": [
      "1331"
    ]
  },
  {
    "code": "11423",
    "name": "Halewood",
    "updated_at": "2014-09-22T21:08:34.059124Z",
    "country": "gb",
    "parent": null,
    "longitude": -2.81666994094849,
    "latitude": 53.36669921875,
    "regions": [
      "1331"
    ]
  },
  {
    "code": "11422",
    "name": "Halford",
    "updated_at": "2014-09-22T21:08:34.040507Z",
    "country": "gb",
    "parent": null,
    "longitude": -1.61667001247406,
    "latitude": 52.0999984741211,
    "regions": [
      "10e3"
    ]
  },
  {
    "code": "11421",
    "name": "Halifax",
    "updated_at": "2014-09-22T21:08:33.993332Z",
    "country": "gb",
    "parent": null,
    "longitude": -1.85000002384186,
    "latitude": 53.7167015075684,
    "regions": [
      "132f"
    ]
  },
  {
    "code": "11420",
    "name": "Halkirk",
    "updated_at": "2014-09-22T21:08:33.968068Z",
    "country": "gb",
    "parent": null,
    "longitude": -3.5,
    "latitude": 58.5,
    "regions": [
      "133f"
    ]
  },
  {
    "code": "1141f",
    "name": "Halkyn",
    "updated_at": "2014-09-22T21:08:33.937499Z",
    "country": "gb",
    "parent": null,
    "longitude": -3.18333005905151,
    "latitude": 53.2167015075684,
    "regions": [
      "1211"
    ]
  },
  {
    "code": "1141e",
    "name": "Halstead",
    "updated_at": "2014-09-22T21:08:33.848458Z",
    "country": "gb",
    "parent": null,
    "longitude": 0.133332997560501,
    "latitude": 51.3166999816895,
    "regions": [
      "10dd"
    ]
  },
  {
    "code": "1141d",
    "name": "Halstead",
    "updated_at": "2014-09-22T21:08:33.832010Z",
    "country": "gb",
    "parent": null,
    "longitude": 0.633333027362823,
    "latitude": 51.9500007629395,
    "regions": [
      "10da"
    ]
  },
  {
    "code": "1141c",
    "name": "Halstock",
    "updated_at": "2014-09-22T21:08:33.815233Z",
    "country": "gb",
    "parent": null,
    "longitude": -2.65000009536743,
    "latitude": 50.86669921875,
    "regions": [
      "10d8"
    ]
  },
  {
    "code": "1141b",
    "name": "Haltwhistle",
    "updated_at": "2014-09-22T21:08:33.796652Z",
    "country": "gb",
    "parent": null,
    "longitude": -2.43333005905151,
    "latitude": 54.9832992553711,
    "regions": [
      "10df"
    ]
  },
  {
    "code": "1141a",
    "name": "Halvergate",
    "updated_at": "2014-09-22T21:08:33.778064Z",
    "country": "gb",
    "parent": null,
    "longitude": 1.56666994094849,
    "latitude": 52.5999984741211,
    "regions": [
      "1190"
    ]
  },
  {
    "code": "11419",
    "name": "Hamilton",
    "updated_at": "2014-09-22T21:08:33.672516Z",
    "country": "gb",
    "parent": null,
    "longitude": -4.03332996368408,
    "latitude": 55.7667007446289,
    "regions": [
      "1212",
      "133d"
    ]
  },
  {
    "code": "11418",
    "name": "Hampton in Arden",
    "updated_at": "2014-09-22T21:08:33.637268Z",
    "country": "gb",
    "parent": null,
    "longitude": -1.70000004768372,
    "latitude": 52.4166984558105,
    "regions": [
      "1242"
    ]
  },
  {
    "code": "11417",
    "name": "Hanbury",
    "updated_at": "2014-09-22T21:08:33.578995Z",
    "country": "gb",
    "parent": null,
    "longitude": -1.7333300113678,
    "latitude": 52.8333015441895,
    "regions": [
      "1200"
    ]
  },
  {
    "code": "11416",
    "name": "Handforth",
    "updated_at": "2014-09-22T21:08:33.561466Z",
    "country": "gb",
    "parent": null,
    "longitude": -2.21667003631592,
    "latitude": 53.3499984741211,
    "regions": [
      "11ae"
    ]
  },
  {
    "code": "11415",
    "name": "Hanmer",
    "updated_at": "2014-09-22T21:08:33.498854Z",
    "country": "gb",
    "parent": null,
    "longitude": -2.83332991600037,
    "latitude": 52.9500007629395,
    "regions": [
      "1211"
    ]
  },
  {
    "code": "11414",
    "name": "Hannington",
    "updated_at": "2014-09-22T21:08:33.472759Z",
    "country": "gb",
    "parent": null,
    "longitude": -1.75,
    "latitude": 51.63330078125,
    "regions": [
      "120a"
    ]
  },
  {
    "code": "11413",
    "name": "Harberton",
    "updated_at": "2014-09-22T21:08:33.406328Z",
    "country": "gb",
    "parent": null,
    "longitude": -3.71667003631592,
    "latitude": 50.4166984558105,
    "regions": [
      "118d"
    ]
  },
  {
    "code": "11412",
    "name": "Hardstoft",
    "updated_at": "2014-09-22T21:08:33.350476Z",
    "country": "gb",
    "parent": null,
    "longitude": -1.35000002384186,
    "latitude": 53.13330078125,
    "regions": [
      "11ac"
    ]
  },
  {
    "code": "11411",
    "name": "Harefield",
    "updated_at": "2014-09-22T21:08:33.334241Z",
    "country": "gb",
    "parent": null,
    "longitude": -0.483332991600037,
    "latitude": 51.5999984741211,
    "regions": [
      "120c"
    ]
  },
  {
    "code": "11410",
    "name": "Harlech",
    "updated_at": "2014-09-22T21:08:33.282211Z",
    "country": "gb",
    "parent": null,
    "longitude": -4.09999990463257,
    "latitude": 52.86669921875,
    "regions": [
      "120e"
    ]
  },
  {
    "code": "1140f",
    "name": "Harleston",
    "updated_at": "2014-09-22T21:08:33.261822Z",
    "country": "gb",
    "parent": null,
    "longitude": 1.29999995231628,
    "latitude": 52.4000015258789,
    "regions": [
      "1190"
    ]
  },
  {
    "code": "1140e",
    "name": "Harlow",
    "updated_at": "2014-09-22T21:08:33.212901Z",
    "country": "gb",
    "parent": null,
    "longitude": 0.086984,
    "latitude": 51.770894,
    "regions": [
      "10da"
    ]
  },