[
  {
    "code": "20f9e",
    "name": "Gorbunki",
    "updated_at": "2014-09-22T21:06:14.189330Z",
    "country": "ru",
    "parent": null,
    "longitude": 29.9666996002197,
    "latitude": 59.8333015441895,
    "regions": []
  },
  {
    "code": "20f9d",
    "name": "Gorelovo",
    "updated_at": "2014-09-22T21:06:14.163463Z",
    "country": "ru",
    "parent": null,
    "longitude": 38.11669921875,
    "latitude": 58.25,
    "regions": []
  },
  {
    "code": "20f9c",
    "name": "Gorelovo",
    "updated_at": "2014-09-22T21:06:14.137033Z",
    "country": "ru",
    "parent": null,
    "longitude": 30.11669921875,
    "latitude": 59.7832984924316,
    "regions": []
  },
  {
    "code": "20f9b",
    "name": "Gorodishche",
    "updated_at": "2014-09-22T21:06:13.900765Z",
    "country": "ru",
    "parent": null,
    "longitude": 44.5133018493652,
    "latitude": 48.8069000244141,
    "regions": []
  },
  {
    "code": "20f9a",
    "name": "Gribovka",
    "updated_at": "2014-09-22T21:06:13.708523Z",
    "country": "ru",
    "parent": null,
    "longitude": 36.8478012084961,
    "latitude": 54.9385986328125,
    "regions": []
  },
  {
    "code": "20f99",
    "name": "Gubkin",
    "updated_at": "2014-09-22T21:06:13.571141Z",
    "country": "ru",
    "parent": null,
    "longitude": 37.5457992553711,
    "latitude": 51.2817001342773,
    "regions": []
  },
  {
    "code": "20f98",
    "name": "Gumrak",
    "updated_at": "2014-09-22T21:06:13.547096Z",
    "country": "ru",
    "parent": null,
    "longitude": 44.37841,
    "latitude": 48.78895,
    "regions": []
  },
  {
    "code": "20f97",
    "name": "Gustomesovo",
    "updated_at": "2014-09-22T21:06:13.497926Z",
    "country": "ru",
    "parent": null,
    "longitude": 41.11669921875,
    "latitude": 57.5167007446289,
    "regions": []
  },
  {
    "code": "20f96",
    "name": "Il'ich",
    "updated_at": "2014-09-22T21:06:13.365116Z",
    "country": "ru",
    "parent": null,
    "longitude": 36.7705993652344,
    "latitude": 45.4207992553711,
    "regions": []
  },
  {
    "code": "20f95",
    "name": "Ilimsk",
    "updated_at": "2014-09-22T21:06:13.281838Z",
    "country": "ru",
    "parent": null,
    "longitude": 103.866996765137,
    "latitude": 56.7667007446289,
    "regions": []
  },
  {
    "code": "20f94",
    "name": "Il'inskiy",
    "updated_at": "2014-09-22T21:06:13.226577Z",
    "country": "ru",
    "parent": null,
    "longitude": 32.6636009216309,
    "latitude": 61.0141983032227,
    "regions": []
  },
  {
    "code": "20f93",
    "name": "Ilovlya",
    "updated_at": "2014-09-22T21:06:13.201961Z",
    "country": "ru",
    "parent": null,
    "longitude": 43.9838981628418,
    "latitude": 49.3027992248535,
    "regions": []
  },
  {
    "code": "20f92",
    "name": "Imeni Yermana",
    "updated_at": "2014-09-22T21:06:13.174824Z",
    "country": "ru",
    "parent": null,
    "longitude": 44.4166984558105,
    "latitude": 48.5833015441895,
    "regions": []
  },
  {
    "code": "20f91",
    "name": "Ivangorod",
    "updated_at": "2014-09-22T21:06:12.846845Z",
    "country": "ru",
    "parent": null,
    "longitude": 28.2166996002197,
    "latitude": 59.36669921875,
    "regions": []
  },
  {
    "code": "20f90",
    "name": "Ivanino",
    "updated_at": "2014-09-22T21:06:12.820436Z",
    "country": "ru",
    "parent": null,
    "longitude": 35.5811004638672,
    "latitude": 51.6310997009277,
    "regions": []
  },
  {
    "code": "20f8f",
    "name": "Ivanteevka",
    "updated_at": "2014-09-22T21:06:12.758835Z",
    "country": "ru",
    "parent": null,
    "longitude": 37.9207992553711,
    "latitude": 55.9710998535156,
    "regions": []
  },
  {
    "code": "20f8e",
    "name": "Ivashkovo",
    "updated_at": "2014-09-22T21:06:12.724480Z",
    "country": "ru",
    "parent": null,
    "longitude": 38.0666999816895,
    "latitude": 56.38330078125,
    "regions": []
  },
  {
    "code": "20f8d",
    "name": "Izobil'nyy",
    "updated_at": "2014-09-22T21:06:12.606614Z",
    "country": "ru",
    "parent": null,
    "longitude": 41.7106018066406,
    "latitude": 45.3689002990723,
    "regions": []
  },
  {
    "code": "20f8c",
    "name": "Kabansk",
    "updated_at": "2014-09-22T21:06:12.577069Z",
    "country": "ru",
    "parent": null,
    "longitude": 106.65299987793,
    "latitude": 52.0485992431641,
    "regions": []
  },
  {
    "code": "20f8b",
    "name": "Kalinovka",
    "updated_at": "2014-09-22T21:06:12.354886Z",
    "country": "ru",
    "parent": null,
    "longitude": 37.7206001281738,
    "latitude": 55.5141983032227,
    "regions": []
  },
  {
    "code": "20f8a",
    "name": "Kalyazin",
    "updated_at": "2014-09-22T21:06:12.275060Z",
    "country": "ru",
    "parent": null,
    "longitude": 37.8432998657227,
    "latitude": 57.2402992248535,
    "regions": []
  },
  {
    "code": "20f89",
    "name": "Kamenka",
    "updated_at": "2014-09-22T21:06:12.220687Z",
    "country": "ru",
    "parent": null,
    "longitude": 33.8499984741211,
    "latitude": 64.0667037963867,
    "regions": []
  },
  {
    "code": "20f88",
    "name": "Kamensk-Ural'skiy",
    "updated_at": "2014-09-22T21:06:12.144666Z",
    "country": "ru",
    "parent": null,
    "longitude": 61.9277992248535,
    "latitude": 56.4056015014648,
    "regions": []
  },
  {
    "code": "20f87",
    "name": "Kargopol'",
    "updated_at": "2014-09-22T21:06:08.585641Z",
    "country": "ru",
    "parent": null,
    "longitude": 38.9667015075684,
    "latitude": 61.5,
    "regions": []
  },
  {
    "code": "20f86",
    "name": "Kartino",
    "updated_at": "2014-09-22T21:06:08.536538Z",
    "country": "ru",
    "parent": null,
    "longitude": 37.7868995666504,
    "latitude": 55.5861015319824,
    "regions": []
  },
  {
    "code": "20f85",
    "name": "Kashalambi",
    "updated_at": "2014-09-22T21:06:08.474102Z",
    "country": "ru",
    "parent": null,
    "longitude": 32.8333015441895,
    "latitude": 61.9667015075684,
    "regions": []
  },
  {
    "code": "20f84",
    "name": "Khamyshki",
    "updated_at": "2014-09-22T21:06:08.272428Z",
    "country": "ru",
    "parent": null,
    "longitude": 40.1338996887207,
    "latitude": 44.0946998596191,
    "regions": []
  },
  {
    "code": "20f83",
    "name": "Kharabali",
    "updated_at": "2014-09-22T21:06:08.221992Z",
    "country": "ru",
    "parent": null,
    "longitude": 47.2555999755859,
    "latitude": 47.4049987792969,
    "regions": []
  },
  {
    "code": "20f82",
    "name": "Khidikus",
    "updated_at": "2014-09-22T21:06:08.196123Z",
    "country": "ru",
    "parent": null,
    "longitude": 44.2831001281738,
    "latitude": 42.8171997070312,
    "regions": []
  },
  {
    "code": "20f81",
    "name": "Khokhlovo",
    "updated_at": "2014-09-22T21:06:08.033577Z",
    "country": "ru",
    "parent": null,
    "longitude": 37.4000015258789,
    "latitude": 59.1500015258789,
    "regions": []
  },
  {
    "code": "20f80",
    "name": "Khokhryaki",
    "updated_at": "2014-09-22T21:06:07.995165Z",
    "country": "ru",
    "parent": null,
    "longitude": 53.3241996765137,
    "latitude": 56.9171981811523,
    "regions": []
  },
  {
    "code": "20f7f",
    "name": "Khotkovo",
    "updated_at": "2014-09-22T21:06:07.923073Z",
    "country": "ru",
    "parent": null,
    "longitude": 37.997074,
    "latitude": 56.258151,
    "regions": []
  },
  {
    "code": "20f7e",
    "name": "Khrabrovo",
    "updated_at": "2014-09-22T21:06:07.872777Z",
    "country": "ru",
    "parent": null,
    "longitude": 37.25,
    "latitude": 56.2332992553711,
    "regions": []
  },
  {
    "code": "20f7d",
    "name": "Klin",
    "updated_at": "2014-09-22T21:06:07.340990Z",
    "country": "ru",
    "parent": null,
    "longitude": 36.7332992553711,
    "latitude": 56.3333015441895,
    "regions": []
  },
  {
    "code": "20f7c",
    "name": "Kobona",
    "updated_at": "2014-09-22T21:06:07.263811Z",
    "country": "ru",
    "parent": null,
    "longitude": 31.5499992370605,
    "latitude": 60.0167007446289,
    "regions": []
  },
  {
    "code": "20f7b",
    "name": "Kolpino",
    "updated_at": "2014-09-22T21:06:07.128087Z",
    "country": "ru",
    "parent": null,
    "longitude": 30.6000003814697,
    "latitude": 59.75,
    "regions": []
  },
  {
    "code": "20f7a",
    "name": "Komlevo",
    "updated_at": "2014-09-22T21:06:07.029054Z",
    "country": "ru",
    "parent": null,
    "longitude": 39.0666999816895,
    "latitude": 55.1500015258789,
    "regions": []
  },
  {
    "code": "20f79",
    "name": "Kondoka",
    "updated_at": "2014-09-22T21:06:06.890358Z",
    "country": "ru",
    "parent": null,
    "longitude": 30.6000003814697,
    "latitude": 64.5832977294922,
    "regions": []
  },
  {
    "code": "20f78",
    "name": "Kondrovo",
    "updated_at": "2014-09-22T21:06:06.839890Z",
    "country": "ru",
    "parent": null,
    "longitude": 35.9277992248535,
    "latitude": 54.8064002990723,
    "regions": []
  },
  {
    "code": "20f77",
    "name": "Stantsiya Konnyy",
    "updated_at": "2014-09-22T21:06:06.815332Z",
    "country": "ru",
    "parent": null,
    "longitude": 44.3471984863281,
    "latitude": 48.853099822998,
    "regions": []
  },
  {
    "code": "20f76",
    "name": "Konstantinovskiy",
    "updated_at": "2014-09-22T21:06:06.751864Z",
    "country": "ru",
    "parent": null,
    "longitude": 39.6032981872559,
    "latitude": 57.8185997009277,
    "regions": []
  },
  {
    "code": "20f75",
    "name": "Korkino",
    "updated_at": "2014-09-22T21:06:06.686176Z",
    "country": "ru",
    "parent": null,
    "longitude": 61.38330078125,
    "latitude": 54.9000015258789,
    "regions": []
  },
  {
    "code": "20f74",
    "name": "Korobitsyno",
    "updated_at": "2014-09-22T21:06:06.613511Z",
    "country": "ru",
    "parent": null,
    "longitude": 29.7332992553711,
    "latitude": 60.5167007446289,
    "regions": []
  },
  {
    "code": "20f73",
    "name": "Korobsel'ki",
    "updated_at": "2014-09-22T21:06:06.563772Z",
    "country": "ru",
    "parent": null,
    "longitude": 30.4167003631592,
    "latitude": 60.0999984741211,
    "regions": []
  },
  {
    "code": "20f72",
    "name": "Korotovo",
    "updated_at": "2014-09-22T21:06:06.512239Z",
    "country": "ru",
    "parent": null,
    "longitude": 37.4667015075684,
    "latitude": 58.9500007629395,
    "regions": []
  },
  {
    "code": "20f71",
    "name": "Koryazhma",
    "updated_at": "2014-09-22T21:06:06.462404Z",
    "country": "ru",
    "parent": null,
    "longitude": 47.1286010742188,
    "latitude": 61.3133010864258,
    "regions": []
  },
  {
    "code": "20f70",
    "name": "Kosh-Agach",
    "updated_at": "2014-09-22T21:06:06.431537Z",
    "country": "ru",
    "parent": null,
    "longitude": 88.6667022705078,
    "latitude": 50.0,
    "regions": []
  },
  {
    "code": "20f6f",
    "name": "Koshkino",
    "updated_at": "2014-09-22T21:06:06.400437Z",
    "country": "ru",
    "parent": null,
    "longitude": 28.4832992553711,
    "latitude": 59.7332992553711,
    "regions": []
  },
  {
    "code": "20f6e",
    "name": "Koskolovo",
    "updated_at": "2014-09-22T21:06:06.364013Z",
    "country": "ru",
    "parent": null,
    "longitude": 28.4500007629395,
    "latitude": 59.6666984558105,
    "regions": []
  },
  {
    "code": "20f6d",
    "name": "Kostomuksha",
    "updated_at": "2014-09-22T21:06:06.323133Z",
    "country": "ru",
    "parent": null,
    "longitude": 30.8166999816895,
    "latitude": 64.6832962036133,
    "regions": []
  },
  {
    "code": "20f6c",
    "name": "Kostrovo",
    "updated_at": "2014-09-22T21:06:06.250437Z",
    "country": "ru",
    "parent": null,
    "longitude": 36.6875,
    "latitude": 55.9035987854004,
    "regions": []
  },
  {
    "code": "20f6b",
    "name": "Kotel'niki",
    "updated_at": "2014-09-22T21:06:06.201862Z",
    "country": "ru",
    "parent": null,
    "longitude": 37.8572006225586,
    "latitude": 55.6481018066406,
    "regions": []
  },
  {
    "code": "20f6a",
    "name": "Kotly",
    "updated_at": "2014-09-22T21:06:06.178212Z",
    "country": "ru",
    "parent": null,
    "longitude": 28.75,
    "latitude": 59.5999984741211,
    "regions": []
  },
  {
    "code": "20f69",
    "name": "Krasnaya Gorbatka",
    "updated_at": "2014-09-22T21:06:06.077512Z",
    "country": "ru",
    "parent": null,
    "longitude": 41.7564010620117,
    "latitude": 55.8793983459473,
    "regions": []
  },
  {
    "code": "20f68",
    "name": "Krasnoye Selo",
    "updated_at": "2014-09-22T21:06:05.835828Z",
    "country": "ru",
    "parent": null,
    "longitude": 30.0832996368408,
    "latitude": 59.7332992553711,
    "regions": []
  },
  {
    "code": "20f67",
    "name": "Krasnyy Pakhar'",
    "updated_at": "2014-09-22T21:06:05.741436Z",
    "country": "ru",
    "parent": null,
    "longitude": 43.0999984741211,
    "latitude": 44.2000007629395,
    "regions": []
  },
  {
    "code": "20f66",
    "name": "Krinitsa",
    "updated_at": "2014-09-22T21:06:05.650155Z",
    "country": "ru",
    "parent": null,
    "longitude": 38.3474998474121,
    "latitude": 44.3816986083984,
    "regions": []
  },
  {
    "code": "20f65",
    "name": "Staryye Krupeli",
    "updated_at": "2014-09-22T21:06:05.545617Z",
    "country": "ru",
    "parent": null,
    "longitude": 29.948299407959,
    "latitude": 58.8055992126465,
    "regions": []
  },
  {
    "code": "20f64",
    "name": "Krutovo",
    "updated_at": "2014-09-22T21:06:05.485574Z",
    "country": "ru",
    "parent": null,
    "longitude": 39.4166984558105,
    "latitude": 55.9000015258789,
    "regions": []
  },
  {
    "code": "20f63",
    "name": "Kstovo",
    "updated_at": "2014-09-22T21:06:05.421214Z",
    "country": "ru",
    "parent": null,
    "longitude": 44.1925010681152,
    "latitude": 56.1425018310547,
    "regions": []
  },
  {
    "code": "20f62",
    "name": "Kubenskoye",
    "updated_at": "2014-09-22T21:06:05.393164Z",
    "country": "ru",
    "parent": null,
    "longitude": 39.6666984558105,
    "latitude": 59.4333000183105,
    "regions": []
  },
  {
    "code": "20f61",
    "name": "Kudepsta",
    "updated_at": "2014-09-22T21:06:05.368872Z",
    "country": "ru",
    "parent": null,
    "longitude": 39.8950004577637,
    "latitude": 43.494701385498,
    "regions": []
  },
  {
    "code": "20f60",
    "name": "Kupriyanovka",
    "updated_at": "2014-09-22T21:06:05.254759Z",
    "country": "ru",
    "parent": null,
    "longitude": 30.1667003631592,
    "latitude": 59.6666984558105,
    "regions": []
  },
  {
    "code": "20f5f",
    "name": "Kurumoch",
    "updated_at": "2014-09-22T21:06:05.083015Z",
    "country": "ru",
    "parent": null,
    "longitude": 50.0332984924316,
    "latitude": 53.5,
    "regions": []
  },
  {
    "code": "20f5e",
    "name": "Kuvshinovo",
    "updated_at": "2014-09-22T21:06:05.049243Z",
    "country": "ru",
    "parent": null,
    "longitude": 34.1725006103516,
    "latitude": 57.0293998718262,
    "regions": []
  },
  {
    "code": "20f5d",
    "name": "Kuyeda",
    "updated_at": "2014-09-22T21:06:05.013963Z",
    "country": "ru",
    "parent": null,
    "longitude": 55.5833015441895,
    "latitude": 56.4333000183105,
    "regions": []
  },
  {
    "code": "20f5c",
    "name": "Kuznetsy",
    "updated_at": "2014-09-22T21:06:04.902527Z",
    "country": "ru",
    "parent": null,
    "longitude": 38.6594009399414,
    "latitude": 55.8511009216309,
    "regions": []
  },
  {
    "code": "20f5b",
    "name": "Leninskiy",
    "updated_at": "2014-09-22T21:06:04.731355Z",
    "country": "ru",
    "parent": null,
    "longitude": 43.1530990600586,
    "latitude": 44.1913986206055,
    "regions": []
  },
  {
    "code": "20f5a",
    "name": "Lezhnevo",
    "updated_at": "2014-09-22T21:06:04.462914Z",
    "country": "ru",
    "parent": null,
    "longitude": 40.8927993774414,
    "latitude": 56.7750015258789,
    "regions": []
  },
  {
    "code": "20f59",
    "name": "Lobanovo",
    "updated_at": "2014-09-22T21:06:04.284535Z",
    "country": "ru",
    "parent": null,
    "longitude": 37.11669921875,
    "latitude": 55.8166999816895,
    "regions": []
  },
  {
    "code": "20f58",
    "name": "Lodeynoye Pole",
    "updated_at": "2016-02-09T09:32:31.158809Z",
    "country": "ru",
    "parent": null,
    "longitude": 33.5581016540527,
    "latitude": 60.7303009033203,
    "regions": []
  },
  {
    "code": "20f57",
    "name": "Lopotovo",
    "updated_at": "2014-09-22T21:06:04.095032Z",
    "country": "ru",
    "parent": null,
    "longitude": 36.8166999816895,
    "latitude": 56.0666999816895,
    "regions": []
  },
  {
    "code": "20f56",
    "name": "Losino-Petrovskiy",
    "updated_at": "2014-09-22T21:06:04.047158Z",
    "country": "ru",
    "parent": null,
    "longitude": 38.2016983032227,
    "latitude": 55.8744010925293,
    "regions": []
  },
  {
    "code": "20f55",
    "name": "Lovozero",
    "updated_at": "2014-09-22T21:06:04.023422Z",
    "country": "ru",
    "parent": null,
    "longitude": 35.0116996765137,
    "latitude": 68.004997253418,
    "regions": []
  },
  {
    "code": "20f54",
    "name": "Lubyany",
    "updated_at": "2014-09-22T21:06:03.999577Z",
    "country": "ru",
    "parent": null,
    "longitude": 43.1800003051758,
    "latitude": 57.4719009399414,
    "regions": []
  },
  {
    "code": "20f53",
    "name": "Luga",
    "updated_at": "2014-09-22T21:06:03.975423Z",
    "country": "ru",
    "parent": null,
    "longitude": 29.848478,
    "latitude": 58.734719,
    "regions": []
  },
  {
    "code": "20f52",
    "name": "Lukhovitsy",
    "updated_at": "2016-02-09T09:32:30.393495Z",
    "country": "ru",
    "parent": null,
    "longitude": 39.0167007446289,
    "latitude": 54.9361000061035,
    "regions": []
  },
  {
    "code": "20f51",
    "name": "Lyudinovo",
    "updated_at": "2014-09-22T21:06:03.712094Z",
    "country": "ru",
    "parent": null,
    "longitude": 34.4474983215332,
    "latitude": 53.8650016784668,
    "regions": []
  },
  {
    "code": "20f50",
    "name": "Maloye Chusovo",
    "updated_at": "2014-09-22T21:06:03.538720Z",
    "country": "ru",
    "parent": null,
    "longitude": 65.4000015258789,
    "latitude": 55.4500007629395,
    "regions": []
  },
  {
    "code": "20f4f",
    "name": "Molvavom",
    "updated_at": "2014-09-22T21:06:03.445496Z",
    "country": "ru",
    "parent": null,
    "longitude": 59.36669921875,
    "latitude": 66.75,
    "regions": []
  },
  {
    "code": "20f4e",
    "name": "Mamony",
    "updated_at": "2014-09-22T21:06:03.343480Z",
    "country": "ru",
    "parent": null,
    "longitude": 104.179000854492,
    "latitude": 52.3088989257812,
    "regions": []
  },
  {
    "code": "20f4d",
    "name": "Marushkino",
    "updated_at": "2016-02-09T09:32:31.167266Z",
    "country": "ru",
    "parent": null,
    "longitude": 37.2000007629395,
    "latitude": 55.5999984741211,
    "regions": []
  },
  {
    "code": "20f4c",
    "name": "Matkalampi",
    "updated_at": "2014-09-22T21:06:03.155328Z",
    "country": "ru",
    "parent": null,
    "longitude": 32.36669921875,
    "latitude": 62.4832992553711,
    "regions": []
  },
  {
    "code": "20f4b",
    "name": "Mayatalo",
    "updated_at": "2014-09-22T21:06:03.098842Z",
    "country": "ru",
    "parent": null,
    "longitude": 29.25,
    "latitude": 69.13330078125,
    "regions": []
  },
  {
    "code": "20f4a",
    "name": "Mesyagutovo",
    "updated_at": "2014-09-22T21:06:02.760360Z",
    "country": "ru",
    "parent": null,
    "longitude": 58.2481002807617,
    "latitude": 55.5307998657227,
    "regions": []
  },
  {
    "code": "20f49",
    "name": "Mesyegutovo",
    "updated_at": "2014-09-22T21:06:02.731085Z",
    "country": "ru",
    "parent": null,
    "longitude": 55.36669921875,
    "latitude": 56.0833015441895,
    "regions": []
  },
  {
    "code": "20f48",
    "name": "Mezhdurechensk",
    "updated_at": "2014-09-22T21:06:02.672530Z",
    "country": "ru",
    "parent": null,
    "longitude": 88.060302734375,
    "latitude": 53.6941986083984,
    "regions": []
  },
  {
    "code": "20f47",
    "name": "Mezhdurechenskiy",
    "updated_at": "2014-09-22T21:06:02.639484Z",
    "country": "ru",
    "parent": null,
    "longitude": 65.9332962036133,
    "latitude": 59.5999984741211,
    "regions": []
  },
  {
    "code": "20f46",
    "name": "Mezmay",
    "updated_at": "2014-09-22T21:06:02.602485Z",
    "country": "ru",
    "parent": null,
    "longitude": 39.9611015319824,
    "latitude": 44.1996994018555,
    "regions": []
  },
  {
    "code": "20f45",
    "name": "Miass",
    "updated_at": "2014-09-22T21:06:02.568301Z",
    "country": "ru",
    "parent": null,
    "longitude": 60.0858001708984,
    "latitude": 55.0074996948242,
    "regions": []
  },
  {
    "code": "20f44",
    "name": "Mil'kovo",
    "updated_at": "2014-09-22T21:06:02.440259Z",
    "country": "ru",
    "parent": null,
    "longitude": 37.7975006103516,
    "latitude": 55.6039009094238,
    "regions": []
  },
  {
    "code": "20f43",
    "name": "Mityanino",
    "updated_at": "2014-09-22T21:06:02.347926Z",
    "country": "ru",
    "parent": null,
    "longitude": 38.1833000183105,
    "latitude": 55.9000015258789,
    "regions": []
  },
  {
    "code": "20f42",
    "name": "Mizinovo",
    "updated_at": "2014-09-22T21:06:02.320904Z",
    "country": "ru",
    "parent": null,
    "longitude": 48.5463981628418,
    "latitude": 55.7550010681152,
    "regions": []
  },
  {
    "code": "20f41",
    "name": "Mogiltsy",
    "updated_at": "2014-09-22T21:06:02.289027Z",
    "country": "ru",
    "parent": null,
    "longitude": 37.984579,
    "latitude": 56.109169,
    "regions": []
  },
  {
    "code": "20f40",
    "name": "Molchanovka",
    "updated_at": "2014-09-22T21:06:02.259953Z",
    "country": "ru",
    "parent": null,
    "longitude": 38.6206016540527,
    "latitude": 46.8636016845703,
    "regions": []
  },
  {
    "code": "20f3f",
    "name": "Monastyr'",
    "updated_at": "2014-09-22T21:06:02.171857Z",
    "country": "ru",
    "parent": null,
    "longitude": 40.0074996948242,
    "latitude": 43.584400177002,
    "regions": []
  },
  {
    "code": "20f3e",
    "name": "Moshkovo",
    "updated_at": "2014-09-22T21:06:02.036584Z",
    "country": "ru",
    "parent": null,
    "longitude": 83.6093978881836,
    "latitude": 55.3039016723633,
    "regions": []
  },
  {
    "code": "20f3d",
    "name": "Murino",
    "updated_at": "2016-02-09T09:32:28.552229Z",
    "country": "ru",
    "parent": null,
    "longitude": 30.4575004577637,
    "latitude": 60.0452995300293,
    "regions": []
  },
  {
    "code": "20f3c",
    "name": "Murygino",
    "updated_at": "2014-09-22T21:06:01.848325Z",
    "country": "ru",
    "parent": null,
    "longitude": 49.456901550293,
    "latitude": 58.7374992370605,
    "regions": []
  },
  {
    "code": "20f3b",
    "name": "Naberezhnyye Morkvashi",
    "updated_at": "2014-09-22T21:06:01.679993Z",
    "country": "ru",
    "parent": null,
    "longitude": 48.8488998413086,
    "latitude": 55.7655982971191,
    "regions": []
  },
  {
    "code": "20f3a",
    "name": "Neftekamsk",
    "updated_at": "2014-09-22T21:06:01.511198Z",
    "country": "ru",
    "parent": null,
    "longitude": 54.2667007446289,
    "latitude": 56.0833015441895,
    "regions": []
  },
  {
    "code": "20f39",
    "name": "Nepolod'",
    "updated_at": "2014-09-22T21:06:01.418151Z",
    "country": "ru",
    "parent": null,
    "longitude": 36.0718994140625,
    "latitude": 53.0727996826172,
    "regions": []
  },
  {
    "code": "20f38",
    "name": "Nesterovo",
    "updated_at": "2014-09-22T21:06:01.341108Z",
    "country": "ru",
    "parent": null,
    "longitude": 36.3356018066406,
    "latitude": 55.6258010864258,
    "regions": []
  },
  {
    "code": "20f37",
    "name": "Nezhinka",
    "updated_at": "2014-09-22T21:06:01.315064Z",
    "country": "ru",
    "parent": null,
    "longitude": 55.3713989257812,
    "latitude": 51.769401550293,
    "regions": []
  },
  {
    "code": "20f36",
    "name": "Nikolayevka",
    "updated_at": "2014-09-22T21:06:01.169830Z",
    "country": "ru",
    "parent": null,
    "longitude": 38.8377990722656,
    "latitude": 47.3069000244141,
    "regions": []
  },
  {
    "code": "20f35",
    "name": "Nikolo-Berëzovka",
    "updated_at": "2014-09-22T21:06:01.145660Z",
    "country": "ru",
    "parent": null,
    "longitude": 54.1500015258789,
    "latitude": 56.13330078125,
    "regions": []
  },
  {
    "code": "20f34",
    "name": "Nizhnekamsk",
    "updated_at": "2014-09-22T21:06:01.076584Z",
    "country": "ru",
    "parent": null,
    "longitude": 51.8168983459473,
    "latitude": 55.6383018493652,
    "regions": []
  },
  {
    "code": "20f33",
    "name": "Novoalekseyevskoye",
    "updated_at": "2014-09-22T21:06:00.643245Z",
    "country": "ru",
    "parent": null,
    "longitude": 60.13330078125,
    "latitude": 56.8499984741211,
    "regions": []
  },
  {
    "code": "20f32",
    "name": "Novokuybyshevsk",
    "updated_at": "2014-09-22T21:06:00.566774Z",
    "country": "ru",
    "parent": null,
    "longitude": 49.9253005981445,
    "latitude": 53.1072006225586,
    "regions": []
  },
  {
    "code": "20f31",
    "name": "Novolikeyevo",
    "updated_at": "2014-09-22T21:06:00.305076Z",
    "country": "ru",
    "parent": null,
    "longitude": 44.2266998291016,
    "latitude": 56.1178016662598,
    "regions": []
  },
  {
    "code": "20f30",
    "name": "Novozybkov",
    "updated_at": "2014-09-22T21:06:00.258116Z",
    "country": "ru",
    "parent": null,
    "longitude": 31.9333000183105,
    "latitude": 52.5363998413086,
    "regions": []
  },
  {
    "code": "20f2f",
    "name": "Novyye Bateki",
    "updated_at": "2014-09-22T21:06:00.233493Z",
    "country": "ru",
    "parent": null,
    "longitude": 31.8500003814697,
    "latitude": 54.7832984924316,
    "regions": []
  },
  {
    "code": "20f2e",
    "name": "Oktyabr'skiy",
    "updated_at": "2014-09-22T21:05:59.867106Z",
    "country": "ru",
    "parent": null,
    "longitude": 44.1893997192383,
    "latitude": 56.2957992553711,
    "regions": []
  },
  {
    "code": "20f2d",
    "name": "Oktyabr'skoye",
    "updated_at": "2014-09-22T21:05:59.839388Z",
    "country": "ru",
    "parent": null,
    "longitude": 34.2146987915039,
    "latitude": 53.2207984924316,
    "regions": []
  },
  {
    "code": "20f2c",
    "name": "Ol'khovka",
    "updated_at": "2014-09-22T21:05:59.740054Z",
    "country": "ru",
    "parent": null,
    "longitude": 37.3400001525879,
    "latitude": 44.9794006347656,
    "regions": []
  },
  {
    "code": "20f2b",
    "name": "Orlovo",
    "updated_at": "2014-09-22T21:05:59.477071Z",
    "country": "ru",
    "parent": null,
    "longitude": 38.0999984741211,
    "latitude": 56.0332984924316,
    "regions": []
  },
  {
    "code": "20f2a",
    "name": "Osinovaya Gorka",
    "updated_at": "2014-09-22T21:05:59.371924Z",
    "country": "ru",
    "parent": null,
    "longitude": 34.5332984924316,
    "latitude": 53.1833000183105,
    "regions": []
  },
  {
    "code": "20f29",
    "name": "Ostrov",
    "updated_at": "2014-09-22T21:05:59.303079Z",
    "country": "ru",
    "parent": null,
    "longitude": 28.36669921875,
    "latitude": 57.3333015441895,
    "regions": []
  },
  {
    "code": "20f28",
    "name": "Ovsyanka",
    "updated_at": "2014-09-22T21:05:59.230626Z",
    "country": "ru",
    "parent": null,
    "longitude": 92.5519027709961,
    "latitude": 55.9575004577637,
    "regions": []
  },
  {
    "code": "20f27",
    "name": "Ozerki",
    "updated_at": "2014-09-22T21:05:59.206055Z",
    "country": "ru",
    "parent": null,
    "longitude": 29.0167007446289,
    "latitude": 60.2000007629395,
    "regions": []
  },
  {
    "code": "20f26",
    "name": "Shira",
    "updated_at": "2014-09-22T21:05:59.181677Z",
    "country": "ru",
    "parent": null,
    "longitude": 90.1667022705078,
    "latitude": 54.5,
    "regions": []
  },
  {
    "code": "20f25",
    "name": "Pallasovka",
    "updated_at": "2014-09-22T21:05:59.062728Z",
    "country": "ru",
    "parent": null,
    "longitude": 46.88330078125,
    "latitude": 50.0499992370605,
    "regions": []
  },
  {
    "code": "20f24",
    "name": "Pavlovka",
    "updated_at": "2014-09-22T21:05:58.826715Z",
    "country": "ru",
    "parent": null,
    "longitude": 56.5499992370605,
    "latitude": 55.4171981811523,
    "regions": []
  },
  {
    "code": "20f23",
    "name": "Pervomayskiy",
    "updated_at": "2014-09-22T21:05:58.434866Z",
    "country": "ru",
    "parent": null,
    "longitude": 33.4500007629395,
    "latitude": 52.9333000183105,
    "regions": []
  },
  {
    "code": "20f22",
    "name": "Petrovskoye",
    "updated_at": "2014-09-22T21:05:58.064326Z",
    "country": "ru",
    "parent": null,
    "longitude": 30.1667003631592,
    "latitude": 60.6500015258789,
    "regions": []
  },
  {
    "code": "20f21",
    "name": "Petryayevo",
    "updated_at": "2014-09-22T21:05:57.981981Z",
    "country": "ru",
    "parent": null,
    "longitude": 38.1833000183105,
    "latitude": 57.7667007446289,
    "regions": []
  },
  {
    "code": "20f20",
    "name": "Pilichki",
    "updated_at": "2014-09-22T21:05:57.949607Z",
    "country": "ru",
    "parent": null,
    "longitude": 31.5832996368408,
    "latitude": 54.9500007629395,
    "regions": []
  },
  {
    "code": "20f1f",
    "name": "Pitkyaranta",
    "updated_at": "2014-09-22T21:05:57.826331Z",
    "country": "ru",
    "parent": null,
    "longitude": 31.4832992553711,
    "latitude": 61.5666999816895,
    "regions": []
  },
  {
    "code": "20f1e",
    "name": "Plastunskoye",
    "updated_at": "2014-09-22T21:05:57.791650Z",
    "country": "ru",
    "parent": null,
    "longitude": 39.7633018493652,
    "latitude": 43.6692008972168,
    "regions": []
  },
  {
    "code": "20f1d",
    "name": "Platovskiy Kordon",
    "updated_at": "2014-09-22T21:05:57.762498Z",
    "country": "ru",
    "parent": null,
    "longitude": 39.3894004821777,
    "latitude": 51.8602981567383,
    "regions": []
  },
  {
    "code": "20f1c",
    "name": "Pochëp",
    "updated_at": "2014-09-22T21:05:57.649901Z",
    "country": "ru",
    "parent": null,
    "longitude": 33.4606018066406,
    "latitude": 52.934398651123,
    "regions": []
  },
  {
    "code": "20f1b",
    "name": "Rabochiy Posëlok Podgornaya",
    "updated_at": "2014-09-22T21:05:57.592774Z",
    "country": "ru",
    "parent": null,
    "longitude": 38.9667015075684,
    "latitude": 55.7999992370605,
    "regions": []
  },
  {
    "code": "20f1a",
    "name": "Porkhov",
    "updated_at": "2014-09-22T21:05:57.313124Z",
    "country": "ru",
    "parent": null,
    "longitude": 29.5333003997803,
    "latitude": 57.7667007446289,
    "regions": []
  },
  {
    "code": "20f19",
    "name": "Sikuka",
    "updated_at": "2014-09-22T21:05:57.280349Z",
    "country": "ru",
    "parent": null,
    "longitude": 143.117004394531,
    "latitude": 49.2167015075684,
    "regions": []
  },
  {
    "code": "20f18",
    "name": "Priozërsk",
    "updated_at": "2014-09-22T21:05:57.131938Z",
    "country": "ru",
    "parent": null,
    "longitude": 30.11669921875,
    "latitude": 61.0332984924316,
    "regions": []
  },
  {
    "code": "20f17",
    "name": "Pristannoye",
    "updated_at": "2014-09-22T21:05:57.068348Z",
    "country": "ru",
    "parent": null,
    "longitude": 46.2000007629395,
    "latitude": 51.5999984741211,
    "regions": []
  },
  {
    "code": "20f16",
    "name": "Protasovo",
    "updated_at": "2014-09-22T21:05:56.982441Z",
    "country": "ru",
    "parent": null,
    "longitude": 37.5999984741211,
    "latitude": 56.13330078125,
    "regions": []
  },
  {
    "code": "20f15",
    "name": "Pudozh",
    "updated_at": "2014-09-22T21:05:56.895511Z",
    "country": "ru",
    "parent": null,
    "longitude": 36.5332984924316,
    "latitude": 61.7999992370605,
    "regions": []
  },
  {
    "code": "20f14",
    "name": "Pushkarëvo",
    "updated_at": "2014-09-22T21:05:56.847115Z",
    "country": "ru",
    "parent": null,
    "longitude": 21.3658008575439,
    "latitude": 54.6255989074707,
    "regions": []
  },
  {
    "code": "20f13",
    "name": "Pyra",
    "updated_at": "2014-09-22T21:05:56.629683Z",
    "country": "ru",
    "parent": null,
    "longitude": 43.3622016906738,
    "latitude": 56.3142013549805,
    "regions": []
  },
  {
    "code": "20f12",
    "name": "Razdol'ye",
    "updated_at": "2014-09-22T21:05:56.498463Z",
    "country": "ru",
    "parent": null,
    "longitude": 30.1667003631592,
    "latitude": 60.5666999816895,
    "regions": []
  },
  {
    "code": "20f11",
    "name": "Razmitelevo",
    "updated_at": "2014-09-22T21:05:56.472060Z",
    "country": "ru",
    "parent": null,
    "longitude": 30.6833000183105,
    "latitude": 59.9000015258789,
    "regions": []
  },
  {
    "code": "20f10",
    "name": "Remyannitsa",
    "updated_at": "2014-09-22T21:05:56.409981Z",
    "country": "ru",
    "parent": null,
    "longitude": 36.2653007507324,
    "latitude": 55.7825012207031,
    "regions": []
  },
  {
    "code": "20f0f",
    "name": "Russkiy",
    "updated_at": "2014-09-22T21:05:55.773712Z",
    "country": "ru",
    "parent": null,
    "longitude": 131.867004394531,
    "latitude": 43.0,
    "regions": []
  },
  {
    "code": "20f0e",
    "name": "Rynok",
    "updated_at": "2014-09-22T21:05:55.587329Z",
    "country": "ru",
    "parent": null,
    "longitude": 44.6500015258789,
    "latitude": 48.8166999816895,
    "regions": []
  },
  {
    "code": "20f0d",
    "name": "Sareptskiy Perekat",
    "updated_at": "2014-09-22T21:05:55.328924Z",
    "country": "ru",
    "parent": null,
    "longitude": 44.5999984741211,
    "latitude": 48.5666999816895,
    "regions": []
  },
  {
    "code": "20f0c",
    "name": "Satis",
    "updated_at": "2014-09-22T21:05:55.233424Z",
    "country": "ru",
    "parent": null,
    "longitude": 43.817798614502,
    "latitude": 55.0196990966797,
    "regions": []
  },
  {
    "code": "20f0b",
    "name": "Savino",
    "updated_at": "2014-09-22T21:05:55.185211Z",
    "country": "ru",
    "parent": null,
    "longitude": 32.1500015258789,
    "latitude": 54.9333000183105,
    "regions": []
  },
  {
    "code": "20f0a",
    "name": "Saygatka",
    "updated_at": "2014-09-22T21:05:55.107291Z",
    "country": "ru",
    "parent": null,
    "longitude": 54.0833015441895,
    "latitude": 56.7667007446289,
    "regions": []
  },
  {
    "code": "20f09",
    "name": "Sebezh",
    "updated_at": "2014-09-22T21:05:55.072507Z",
    "country": "ru",
    "parent": null,
    "longitude": 28.4832992553711,
    "latitude": 56.2832984924316,
    "regions": []
  },
  {
    "code": "20f08",
    "name": "Semigorie",
    "updated_at": "2014-09-22T21:05:54.915670Z",
    "country": "ru",
    "parent": null,
    "longitude": 41.8227996826172,
    "latitude": 57.388599395752,
    "regions": []
  },
  {
    "code": "20f07",
    "name": "Sereda-Stratonitskaya",
    "updated_at": "2014-09-22T21:05:54.819106Z",
    "country": "ru",
    "parent": null,
    "longitude": 35.5119018554688,
    "latitude": 55.8946990966797,
    "regions": []
  },
  {
    "code": "20f06",
    "name": "Sergeyevka",
    "updated_at": "2014-09-22T21:05:54.794344Z",
    "country": "ru",
    "parent": null,
    "longitude": 140.667007446289,
    "latitude": 53.1500015258789,
    "regions": []
  },
  {
    "code": "20f05",
    "name": "Severobaykalsk",
    "updated_at": "2014-09-22T21:05:54.578175Z",
    "country": "ru",
    "parent": null,
    "longitude": 109.317001342773,
    "latitude": 55.6500015258789,
    "regions": []
  },
  {
    "code": "20f04",
    "name": "Shapki",
    "updated_at": "2014-09-22T21:05:54.473601Z",
    "country": "ru",
    "parent": null,
    "longitude": 31.2000007629395,
    "latitude": 59.5999984741211,
    "regions": []
  },
  {
    "code": "20f03",
    "name": "Shapsugskaya",
    "updated_at": "2014-09-22T21:05:54.447764Z",
    "country": "ru",
    "parent": null,
    "longitude": 38.0807991027832,
    "latitude": 44.7518997192383,
    "regions": []
  },
  {
    "code": "20f02",
    "name": "Shcherbinino",
    "updated_at": "2014-09-22T21:05:51.246502Z",
    "country": "ru",
    "parent": null,
    "longitude": 38.88330078125,
    "latitude": 55.7832984924316,
    "regions": []
  },
  {
    "code": "20f01",
    "name": "Shcherbinino",
    "updated_at": "2014-09-22T21:05:51.220613Z",
    "country": "ru",
    "parent": null,
    "longitude": 36.0332984924316,
    "latitude": 56.7332992553711,
    "regions": []
  },
  {
    "code": "20f00",
    "name": "Shcherbinka",
    "updated_at": "2014-09-22T21:05:51.194954Z",
    "country": "ru",
    "parent": null,
    "longitude": 37.559700012207,
    "latitude": 55.499698638916,
    "regions": []
  },
  {
    "code": "20eff",
    "name": "Shoksha",
    "updated_at": "2014-09-22T21:05:51.027996Z",
    "country": "ru",
    "parent": null,
    "longitude": 35.0499992370605,
    "latitude": 61.5,
    "regions": []
  },
  {
    "code": "20efe",
    "name": "Shonguy",
    "updated_at": "2014-09-22T21:05:50.989843Z",
    "country": "ru",
    "parent": null,
    "longitude": 33.13330078125,
    "latitude": 68.7833023071289,
    "regions": []
  },
  {
    "code": "20efd",
    "name": "Sikopokh'ya",
    "updated_at": "2014-09-22T21:05:50.825646Z",
    "country": "ru",
    "parent": null,
    "longitude": 30.0167007446289,
    "latitude": 61.6500015258789,
    "regions": []
  },
  {
    "code": "20efc",
    "name": "Simagino",
    "updated_at": "2014-09-22T21:05:50.799643Z",
    "country": "ru",
    "parent": null,
    "longitude": 29.8166999816895,
    "latitude": 60.2667007446289,
    "regions": []
  },
  {
    "code": "20efb",
    "name": "Sinyovo",
    "updated_at": "2014-09-22T21:05:50.773723Z",
    "country": "ru",
    "parent": null,
    "longitude": 30.11669921875,
    "latitude": 60.9500007629395,
    "regions": []
  },
  {
    "code": "20efa",
    "name": "Skhodnya",
    "updated_at": "2014-09-22T21:05:50.745150Z",
    "country": "ru",
    "parent": null,
    "longitude": 37.2977981567383,
    "latitude": 55.9481010437012,
    "regions": []
  },
  {
    "code": "20ef9",
    "name": "Slantsy",
    "updated_at": "2014-09-22T21:05:50.713869Z",
    "country": "ru",
    "parent": null,
    "longitude": 28.0666999816895,
    "latitude": 59.0999984741211,
    "regions": []
  },
  {
    "code": "20ef8",
    "name": "Smyshlyayevka",
    "updated_at": "2014-09-22T21:05:50.516451Z",
    "country": "ru",
    "parent": null,
    "longitude": 50.4000015258789,
    "latitude": 53.25,
    "regions": []
  },
  {
    "code": "20ef7",
    "name": "Snigirëvo",
    "updated_at": "2014-09-22T21:05:50.490645Z",
    "country": "ru",
    "parent": null,
    "longitude": 56.8005981445312,
    "latitude": 57.5569000244141,
    "regions": []
  },
  {
    "code": "20ef6",
    "name": "Snegiri",
    "updated_at": "2014-09-22T21:05:50.464605Z",
    "country": "ru",
    "parent": null,
    "longitude": 37.0278015136719,
    "latitude": 55.8838996887207,
    "regions": []
  },
  {
    "code": "20ef5",
    "name": "Sofrino",
    "updated_at": "2014-09-22T21:05:50.407801Z",
    "country": "ru",
    "parent": null,
    "longitude": 37.9333000183105,
    "latitude": 56.1500015258789,
    "regions": []
  },
  {
    "code": "20ef4",
    "name": "Sol'-Iletsk",
    "updated_at": "2014-09-22T21:05:50.224572Z",
    "country": "ru",
    "parent": null,
    "longitude": 54.9953002929688,
    "latitude": 51.1568984985352,
    "regions": []
  },
  {
    "code": "20ef3",
    "name": "Solnechnoye",
    "updated_at": "2014-09-22T21:05:50.176225Z",
    "country": "ru",
    "parent": null,
    "longitude": 29.9416999816895,
    "latitude": 60.1458015441895,
    "regions": []
  },
  {
    "code": "20ef2",
    "name": "Solokhaul",
    "updated_at": "2014-09-22T21:05:50.151547Z",
    "country": "ru",
    "parent": null,
    "longitude": 39.6781005859375,
    "latitude": 43.7994003295898,
    "regions": []
  },
  {
    "code": "20ef1",
    "name": "Solotcha",
    "updated_at": "2014-09-22T21:05:50.126804Z",
    "country": "ru",
    "parent": null,
    "longitude": 39.8442001342773,
    "latitude": 54.7916984558105,
    "regions": []
  },
  {
    "code": "20ef0",
    "name": "Somovka",
    "updated_at": "2014-09-22T21:05:50.101798Z",
    "country": "ru",
    "parent": null,
    "longitude": 45.7158012390137,
    "latitude": 56.1293983459473,
    "regions": []
  },
  {
    "code": "20eef",
    "name": "Sorochinsk",
    "updated_at": "2014-09-22T21:05:50.042719Z",
    "country": "ru",
    "parent": null,
    "longitude": 53.1666984558105,
    "latitude": 52.4333000183105,
    "regions": []
  },
  {
    "code": "20eee",
    "name": "Sosnovyy Bor",
    "updated_at": "2014-09-22T21:05:49.819162Z",
    "country": "ru",
    "parent": null,
    "longitude": 29.11669921875,
    "latitude": 59.9000015258789,
    "regions": []
  },
  {
    "code": "20eed",
    "name": "Sovetskiy",
    "updated_at": "2014-09-22T21:05:49.765554Z",
    "country": "ru",
    "parent": null,
    "longitude": 28.6833000183105,
    "latitude": 60.5332984924316,
    "regions": []
  },
  {
    "code": "20eec",
    "name": "Sovetskoye",
    "updated_at": "2014-09-22T21:05:49.734544Z",
    "country": "ru",
    "parent": null,
    "longitude": 43.7625007629395,
    "latitude": 43.7566986083984,
    "regions": []
  },
  {
    "code": "20eeb",
    "name": "Petrovo",
    "updated_at": "2014-09-22T21:05:49.703479Z",
    "country": "ru",
    "parent": null,
    "longitude": 36.432201385498,
    "latitude": 55.228099822998,
    "regions": []
  },
  {
    "code": "20eea",
    "name": "Spaso-Bardinskoye",
    "updated_at": "2014-09-22T21:05:49.666931Z",
    "country": "ru",
    "parent": null,
    "longitude": 57.3582992553711,
    "latitude": 57.3669013977051,
    "regions": []
  },
  {
    "code": "20ee9",
    "name": "Staraya Ladoga",
    "updated_at": "2014-09-22T21:05:49.584075Z",
    "country": "ru",
    "parent": null,
    "longitude": 32.3018989562988,
    "latitude": 59.9953002929688,
    "regions": []
  },
  {
    "code": "20ee8",
    "name": "Staroye",
    "updated_at": "2014-09-22T21:05:49.477619Z",
    "country": "ru",
    "parent": null,
    "longitude": 36.2999992370605,
    "latitude": 55.8142013549805,
    "regions": []
  },
  {
    "code": "20ee7",
    "name": "Stryelna",
    "updated_at": "2014-09-22T21:05:49.250437Z",
    "country": "ru",
    "parent": null,
    "longitude": 30.0482997894287,
    "latitude": 59.8560981750488,
    "regions": []
  },
  {
    "code": "20ee6",
    "name": "Sudislavl'",
    "updated_at": "2014-09-22T21:05:49.140482Z",
    "country": "ru",
    "parent": null,
    "longitude": 41.7022018432617,
    "latitude": 57.8805999755859,
    "regions": []
  },
  {
    "code": "20ee5",
    "name": "Sukhaya",
    "updated_at": "2014-09-22T21:05:49.114508Z",
    "country": "ru",
    "parent": null,
    "longitude": 107.109001159668,
    "latitude": 52.5443992614746,
    "regions": []
  },
  {
    "code": "20ee4",
    "name": "Sukreml'",
    "updated_at": "2014-09-22T21:05:49.023661Z",
    "country": "ru",
    "parent": null,
    "longitude": 34.4035987854004,
    "latitude": 53.8244018554688,
    "regions": []
  },
  {
    "code": "20ee3",
    "name": "Suponevo",
    "updated_at": "2014-09-22T21:05:48.947638Z",
    "country": "ru",
    "parent": null,
    "longitude": 34.3032989501953,
    "latitude": 53.2024993896484,
    "regions": []
  },
  {
    "code": "20ee2",
    "name": "Sutoki",
    "updated_at": "2014-09-22T21:05:48.845644Z",
    "country": "ru",
    "parent": null,
    "longitude": 29.11669921875,
    "latitude": 56.25,
    "regions": []
  },
  {
    "code": "20ee1",
    "name": "Staraya Sloboda",
    "updated_at": "2014-09-22T21:05:48.568919Z",
    "country": "ru",
    "parent": null,
    "longitude": 33.3196983337402,
    "latitude": 60.7764015197754,
    "regions": []
  },
  {
    "code": "20ee0",
    "name": "Syzran'",
    "updated_at": "2014-09-22T21:05:48.410684Z",
    "country": "ru",
    "parent": null,
    "longitude": 48.4743995666504,
    "latitude": 53.1730995178223,
    "regions": []
  },
  {
    "code": "20edf",
    "name": "Tarko-Sale",
    "updated_at": "2014-09-22T21:05:48.286079Z",
    "country": "ru",
    "parent": null,
    "longitude": 77.7850036621094,
    "latitude": 64.9225006103516,
    "regions": []
  },
  {
    "code": "20ede",
    "name": "Tatanovo",
    "updated_at": "2014-09-22T21:05:48.207016Z",
    "country": "ru",
    "parent": null,
    "longitude": 41.4810981750488,
    "latitude": 52.8507995605469,
    "regions": []
  },
  {
    "code": "20edd",
    "name": "Tavrovo",
    "updated_at": "2014-09-22T21:05:48.161775Z",
    "country": "ru",
    "parent": null,
    "longitude": 36.5718994140625,
    "latitude": 50.502498626709,
    "regions": []
  },
  {
    "code": "20edc",
    "name": "Ternovka",
    "updated_at": "2014-09-22T21:05:48.093912Z",
    "country": "ru",
    "parent": null,
    "longitude": 45.9627990722656,
    "latitude": 51.3031005859375,
    "regions": []
  },
  {
    "code": "20edb",
    "name": "Tiurula",
    "updated_at": "2014-09-22T21:05:47.861344Z",
    "country": "ru",
    "parent": null,
    "longitude": 29.8332996368408,
    "latitude": 61.2167015075684,
    "regions": []
  },
  {
    "code": "20eda",
    "name": "Tosno",
    "updated_at": "2014-09-22T21:05:47.589147Z",
    "country": "ru",
    "parent": null,
    "longitude": 30.88330078125,
    "latitude": 59.5499992370605,
    "regions": []
  },
  {
    "code": "20ed9",
    "name": "Trubnikov Bor",
    "updated_at": "2014-09-22T21:05:47.434904Z",
    "country": "ru",
    "parent": null,
    "longitude": 31.3999996185303,
    "latitude": 59.2667007446289,
    "regions": []
  },
  {
    "code": "20ed8",
    "name": "Trudovoye",
    "updated_at": "2014-09-22T21:05:47.360927Z",
    "country": "ru",
    "parent": null,
    "longitude": 132.082000732422,
    "latitude": 43.3058013916016,
    "regions": []
  },
  {
    "code": "20ed7",
    "name": "Tsemdolina",
    "updated_at": "2014-09-22T21:05:47.270583Z",
    "country": "ru",
    "parent": null,
    "longitude": 37.7139015197754,
    "latitude": 44.749698638916,
    "regions": []
  },
  {
    "code": "20ed6",
    "name": "Tsvelodubovo",
    "updated_at": "2014-09-22T21:05:47.240440Z",
    "country": "ru",
    "parent": null,
    "longitude": 29.5666999816895,
    "latitude": 60.4000015258789,
    "regions": []
  },
  {
    "code": "20ed5",
    "name": "Tyuguryuk",
    "updated_at": "2014-09-22T21:05:46.981951Z",
    "country": "ru",
    "parent": null,
    "longitude": 85.4000015258789,
    "latitude": 50.2999992370605,
    "regions": []
  },
  {
    "code": "20ed4",
    "name": "Tyulyuk",
    "updated_at": "2014-09-22T21:05:46.953667Z",
    "country": "ru",
    "parent": null,
    "longitude": 58.7705993652344,
    "latitude": 54.6100006103516,
    "regions": []
  },
  {
    "code": "20ed3",
    "name": "Ulitkino",
    "updated_at": "2014-09-22T21:05:46.758076Z",
    "country": "ru",
    "parent": null,
    "longitude": 38.13330078125,
    "latitude": 55.9333000183105,
    "regions": []
  },
  {
    "code": "20ed2",
    "name": "Urengoy",
    "updated_at": "2014-09-22T21:05:46.676632Z",
    "country": "ru",
    "parent": null,
    "longitude": 78.36669921875,
    "latitude": 65.9666976928711,
    "regions": []
  },
  {
    "code": "20ed1",
    "name": "Anos",
    "updated_at": "2014-09-22T21:05:46.538877Z",
    "country": "ru",
    "parent": null,
    "longitude": 85.9400024414062,
    "latitude": 51.5013999938965,
    "regions": []
  },
  {
    "code": "20ed0",
    "name": "Ust'-Dolyssy",
    "updated_at": "2014-09-22T21:05:46.508451Z",
    "country": "ru",
    "parent": null,
    "longitude": 29.6499996185303,
    "latitude": 56.1500015258789,
    "regions": []
  },
  {
    "code": "20ecf",
    "name": "Ustinovskiy",
    "updated_at": "2014-09-22T21:05:46.444989Z",
    "country": "ru",
    "parent": null,
    "longitude": 41.2868995666504,
    "latitude": 45.9693984985352,
    "regions": []
  },
  {
    "code": "20ece",
    "name": "Ust'ye",
    "updated_at": "2014-09-22T21:05:46.217498Z",
    "country": "ru",
    "parent": null,
    "longitude": 39.7167015075684,
    "latitude": 59.63330078125,
    "regions": []
  },
  {
    "code": "20ecd",
    "name": "Uznezya",
    "updated_at": "2014-09-22T21:05:46.131957Z",
    "country": "ru",
    "parent": null,
    "longitude": 85.9377975463867,
    "latitude": 51.5261001586914,
    "regions": []
  },
  {
    "code": "20ecc",
    "name": "Vaskelovo",
    "updated_at": "2014-09-22T21:05:46.028792Z",
    "country": "ru",
    "parent": null,
    "longitude": 30.3731002807617,
    "latitude": 60.4007987976074,
    "regions": []
  },
  {
    "code": "20ecb",
    "name": "Vekhkusel'ga",
    "updated_at": "2014-09-22T21:05:45.989943Z",
    "country": "ru",
    "parent": null,
    "longitude": 32.9166984558105,
    "latitude": 61.9500007629395,
    "regions": []
  },
  {
    "code": "20eca",
    "name": "Velikaya Guba",
    "updated_at": "2014-09-22T21:05:45.944288Z",
    "country": "ru",
    "parent": null,
    "longitude": 35.074883,
    "latitude": 62.248842,
    "regions": []
  },
  {
    "code": "20ec9",
    "name": "Vetchi",
    "updated_at": "2014-09-22T21:05:45.353029Z",
    "country": "ru",
    "parent": null,
    "longitude": 39.0,
    "latitude": 55.9500007629395,
    "regions": []
  },
  {
    "code": "20ec8",
    "name": "Vetlyanka",
    "updated_at": "2014-09-22T21:05:45.322219Z",
    "country": "ru",
    "parent": null,
    "longitude": 46.6321983337402,
    "latitude": 47.6349983215332,
    "regions": []
  },
  {
    "code": "20ec7",
    "name": "Volkhov",
    "updated_at": "2014-09-22T21:05:44.859078Z",
    "country": "ru",
    "parent": null,
    "longitude": 32.3381004333496,
    "latitude": 59.9221992492676,
    "regions": []
  },
  {
    "code": "20ec6",
    "name": "Volkovskoye",
    "updated_at": "2014-09-22T21:05:44.817225Z",
    "country": "ru",
    "parent": null,
    "longitude": 37.2075004577637,
    "latitude": 54.8252983093262,
    "regions": []
  },
  {
    "code": "20ec5",
    "name": "Voyevodino",
    "updated_at": "2014-09-22T21:05:44.549757Z",
    "country": "ru",
    "parent": null,
    "longitude": 34.8553009033203,
    "latitude": 55.7380981445312,
    "regions": []
  },
  {
    "code": "20ec4",
    "name": "Vozdvizhenskoye",
    "updated_at": "2014-09-22T21:05:44.514804Z",
    "country": "ru",
    "parent": null,
    "longitude": 38.0666999816895,
    "latitude": 56.2000007629395,
    "regions": []
  },
  {
    "code": "20ec3",
    "name": "Vyalki",
    "updated_at": "2014-09-22T21:05:44.366758Z",
    "country": "ru",
    "parent": null,
    "longitude": 38.0833015441895,
    "latitude": 55.6500015258789,
    "regions": []
  },
  {
    "code": "20ec2",
    "name": "Vyritsa",
    "updated_at": "2014-09-22T21:05:44.169363Z",
    "country": "ru",
    "parent": null,
    "longitude": 30.3500003814697,
    "latitude": 59.4166984558105,
    "regions": []
  },
  {
    "code": "20ec1",
    "name": "Vyshniy Volochëk",
    "updated_at": "2014-09-22T21:05:44.125371Z",
    "country": "ru",
    "parent": null,
    "longitude": 34.557201385498,
    "latitude": 57.5825004577637,
    "regions": []
  },
  {
    "code": "20ec0",
    "name": "Vysokaya Gora",
    "updated_at": "2014-09-22T21:05:44.082994Z",
    "country": "ru",
    "parent": null,
    "longitude": 49.301700592041,
    "latitude": 55.9127998352051,
    "regions": []
  },
  {
    "code": "20ebf",
    "name": "Vysokoye",
    "updated_at": "2014-09-22T21:05:43.997670Z",
    "country": "ru",
    "parent": null,
    "longitude": 44.0499992370605,
    "latitude": 56.2999992370605,
    "regions": []
  },
  {
    "code": "20ebe",
    "name": "Yakhroma",
    "updated_at": "2014-09-22T21:05:43.920998Z",
    "country": "ru",
    "parent": null,
    "longitude": 37.4832992553711,
    "latitude": 56.2999992370605,
    "regions": []
  },
  {
    "code": "20ebd",
    "name": "Yakimovskoye",
    "updated_at": "2014-09-22T21:05:43.886607Z",
    "country": "ru",
    "parent": null,
    "longitude": 39.11669921875,
    "latitude": 58.0833015441895,
    "regions": []
  },
  {
    "code": "20ebc",
    "name": "Yamnoye",
    "updated_at": "2014-09-22T21:05:43.780839Z",
    "country": "ru",
    "parent": null,
    "longitude": 39.1453018188477,
    "latitude": 51.7956008911133,
    "regions": []
  },
  {
    "code": "20ebb",
    "name": "Yasenskaya Pereprava",
    "updated_at": "2014-09-22T21:05:43.628993Z",
    "country": "ru",
    "parent": null,
    "longitude": 38.2952995300293,
    "latitude": 46.2546997070312,
    "regions": []
  },
  {
    "code": "20eba",
    "name": "Yelabuga",
    "updated_at": "2014-09-22T21:05:43.393534Z",
    "country": "ru",
    "parent": null,
    "longitude": 52.073299407959,
    "latitude": 55.7588996887207,
    "regions": []
  },
  {
    "code": "20eb9",
    "name": "Yemel'yanovo",
    "updated_at": "2014-09-22T21:05:43.285310Z",
    "country": "ru",
    "parent": null,
    "longitude": 92.6580963134766,
    "latitude": 56.1727981567383,
    "regions": []
  },
  {
    "code": "20eb8",
    "name": "Yeresino",
    "updated_at": "2014-09-22T21:05:43.259806Z",
    "country": "ru",
    "parent": null,
    "longitude": 32.2332992553711,
    "latitude": 58.5167007446289,
    "regions": []
  },
  {
    "code": "20eb7",
    "name": "Yurmanki",
    "updated_at": "2014-09-22T21:05:42.964696Z",
    "country": "ru",
    "parent": null,
    "longitude": 48.7999992370605,
    "latitude": 54.4667015075684,
    "regions": []
  },
  {
    "code": "20eb6",
    "name": "Yur'yevets",
    "updated_at": "2014-09-22T21:05:42.939435Z",
    "country": "ru",
    "parent": null,
    "longitude": 40.2667007446289,
    "latitude": 56.0999984741211,
    "regions": []
  },
  {
    "code": "20eb5",
    "name": "Yuzhnaya Ozereyevka",
    "updated_at": "2014-09-22T21:05:42.914431Z",
    "country": "ru",
    "parent": null,
    "longitude": 37.6356010437012,
    "latitude": 44.6744003295898,
    "regions": []
  },
  {
    "code": "20eb4",
    "name": "Zabaykal'sk",
    "updated_at": "2014-09-22T21:05:42.820424Z",
    "country": "ru",
    "parent": null,
    "longitude": 117.317001342773,
    "latitude": 49.63330078125,
    "regions": []
  },
  {
    "code": "20eb3",
    "name": "Zaozer'ye",
    "updated_at": "2014-09-22T21:05:42.601860Z",
    "country": "ru",
    "parent": null,
    "longitude": 38.0332984924316,
    "latitude": 55.5666999816895,
    "regions": []
  },
  {
    "code": "20eb2",
    "name": "Zheleznogorsk",
    "updated_at": "2014-09-22T21:05:42.257248Z",
    "country": "ru",
    "parent": null,
    "longitude": 35.3610992431641,
    "latitude": 52.3375015258789,
    "regions": []
  },
  {
    "code": "20eb1",
    "name": "Zubovo",
    "updated_at": "2014-09-22T21:05:41.899193Z",
    "country": "ru",
    "parent": null,
    "longitude": 55.9000015258789,
    "latitude": 54.61669921875,
    "regions": []
  },
  {
    "code": "20eb0",
    "name": "Al Bathah",
    "updated_at": "2014-09-22T21:05:41.633784Z",
    "country": "sa",
    "parent": null,
    "longitude": 42.7999992370605,
    "latitude": 18.0666999816895,
    "regions": []
  },
  {
    "code": "20eaf",
    "name": "Nibāk",
    "updated_at": "2014-09-22T21:05:40.740553Z",
    "country": "sa",
    "parent": null,
    "longitude": 50.8368988037109,
    "latitude": 24.408899307251,
    "regions": []
  },
  {
    "code": "20eae",
    "name": "Salāmah",
    "updated_at": "2014-09-22T21:05:40.559897Z",
    "country": "sa",
    "parent": null,
    "longitude": 42.5499992370605,
    "latitude": 17.3332996368408,
    "regions": []
  },
  {
    "code": "20ead",
    "name": "Al Başrah",
    "updated_at": "2014-09-22T21:05:40.281359Z",
    "country": "iq",
    "parent": null,
    "longitude": 47.8191986083984,
    "latitude": 30.4941997528076,
    "regions": []
  },
  {
    "code": "20eac",
    "name": "Mullā ‘Umar",
    "updated_at": "2014-09-22T21:05:40.119496Z",
    "country": "iq",
    "parent": null,
    "longitude": 44.1363983154297,
    "latitude": 36.2971992492676,
    "regions": []
  },
  {
    "code": "20eab",
    "name": "Bamenda",
    "updated_at": "2014-09-22T21:05:40.011486Z",
    "country": "cm",
    "parent": null,
    "longitude": 10.1667003631592,
    "latitude": 5.93333005905151,
    "regions": []
  },
  {
    "code": "20eaa",
    "name": "Buea",
    "updated_at": "2014-09-22T21:05:39.957801Z",
    "country": "cm",
    "parent": null,
    "longitude": 9.233859,
    "latitude": 4.166851,
    "regions": []
  },
  {
    "code": "20ea9",
    "name": "Djabé",
    "updated_at": "2014-09-22T21:05:39.939467Z",
    "country": "cm",
    "parent": null,
    "longitude": 13.1833000183105,
    "latitude": 7.06666994094849,
    "regions": []
  },
  {
    "code": "20ea8",
    "name": "Nkolmétet",
    "updated_at": "2014-09-22T21:05:39.738413Z",
    "country": "cm",
    "parent": null,
    "longitude": 11.7666997909546,
    "latitude": 3.43333005905151,
    "regions": []
  },
  {
    "code": "20ea7",
    "name": "Al ‘Irqah",
    "updated_at": "2014-09-22T21:05:39.643202Z",
    "country": "ye",
    "parent": null,
    "longitude": 47.36669921875,
    "latitude": 13.6499996185303,
    "regions": []
  },
  {
    "code": "20ea6",
    "name": "Ḥuṣn Kardān",
    "updated_at": "2014-09-22T21:05:39.616982Z",
    "country": "ye",
    "parent": null,
    "longitude": 48.11669921875,
    "latitude": 15.8000001907349,
    "regions": []
  },
  {
    "code": "20ea5",
    "name": "Alsunga",
    "updated_at": "2014-09-22T21:05:39.408535Z",
    "country": "lv",
    "parent": null,
    "longitude": 21.5666999816895,
    "latitude": 56.9832992553711,
    "regions": []
  },
  {
    "code": "20ea4",
    "name": "Babri",
    "updated_at": "2014-09-22T21:05:39.125946Z",
    "country": "lv",
    "parent": null,
    "longitude": 27.3166999816895,
    "latitude": 56.6500015258789,
    "regions": []
  },
  {
    "code": "20ea3",
    "name": "Bunka",
    "updated_at": "2014-09-22T21:05:38.752155Z",
    "country": "lv",
    "parent": null,
    "longitude": 21.5,
    "latitude": 56.5167007446289,
    "regions": []
  },
  {
    "code": "20ea2",
    "name": "Carnikava",
    "updated_at": "2014-09-22T21:05:38.708864Z",
    "country": "lv",
    "parent": null,
    "longitude": 24.2744007110596,
    "latitude": 57.1293983459473,
    "regions": []
  },
  {
    "code": "20ea1",
    "name": "Cirma",
    "updated_at": "2014-09-22T21:05:38.619574Z",
    "country": "lv",
    "parent": null,
    "longitude": 27.63330078125,
    "latitude": 56.5499992370605,
    "regions": []
  },
  {
    "code": "20ea0",
    "name": "Dreiliņi",
    "updated_at": "2014-09-22T21:05:38.454949Z",
    "country": "lv",
    "parent": null,
    "longitude": 26.61669921875,
    "latitude": 57.0,
    "regions": []
  },
  {
    "code": "20e9f",
    "name": "Dreiliņi",
    "updated_at": "2014-09-22T21:05:38.438021Z",
    "country": "lv",
    "parent": null,
    "longitude": 24.2332992553711,
    "latitude": 56.9500007629395,
    "regions": []
  },
  {
    "code": "20e9e",
    "name": "Dundaga",
    "updated_at": "2014-09-22T21:05:38.407049Z",
    "country": "lv",
    "parent": null,
    "longitude": 22.3500003814697,
    "latitude": 57.5167007446289,
    "regions": []
  },
  {
    "code": "20e9d",
    "name": "Dzirnavas",
    "updated_at": "2014-09-22T21:05:38.276684Z",
    "country": "lv",
    "parent": null,
    "longitude": 21.88330078125,
    "latitude": 57.11669921875,
    "regions": []
  },
  {
    "code": "20e9c",
    "name": "Gaiduļi",
    "updated_at": "2014-09-22T21:05:38.185914Z",
    "country": "lv",
    "parent": null,
    "longitude": 27.2999992370605,
    "latitude": 56.4333000183105,
    "regions": []
  },
  {
    "code": "20e9b",
    "name": "Gaigalava",
    "updated_at": "2014-09-22T21:05:38.169917Z",
    "country": "lv",
    "parent": null,
    "longitude": 27.0666999816895,
    "latitude": 56.7332992553711,
    "regions": []
  },
  {
    "code": "20e9a",
    "name": "Grobiņa",
    "updated_at": "2014-09-22T21:05:38.083901Z",
    "country": "lv",
    "parent": null,
    "longitude": 21.1667003631592,
    "latitude": 56.5499992370605,
    "regions": []
  },
  {
    "code": "20e99",
    "name": "Jaunkalsnava",
    "updated_at": "2014-09-22T21:05:37.851472Z",
    "country": "lv",
    "parent": null,
    "longitude": 25.9666996002197,
    "latitude": 56.6833000183105,
    "regions": []
  },
  {
    "code": "20e98",
    "name": "Jaunlutriņi",
    "updated_at": "2014-09-22T21:05:37.790650Z",
    "country": "lv",
    "parent": null,
    "longitude": 22.4167003631592,
    "latitude": 56.8333015441895,
    "regions": []
  },
  {
    "code": "20e97",
    "name": "Jaunpagasts",
    "updated_at": "2014-09-22T21:05:37.707854Z",
    "country": "lv",
    "parent": null,
    "longitude": 22.63330078125,
    "latitude": 57.13330078125,
    "regions": []
  },
  {
    "code": "20e96",
    "name": "Kabile",
    "updated_at": "2014-09-22T21:05:37.492796Z",
    "country": "lv",
    "parent": null,
    "longitude": 22.3999996185303,
    "latitude": 56.9500007629395,
    "regions": []
  },
  {
    "code": "20e95",
    "name": "Kaive",
    "updated_at": "2014-09-22T21:05:37.465099Z",
    "country": "lv",
    "parent": null,
    "longitude": 25.63330078125,
    "latitude": 57.0499992370605,
    "regions": []
  },
  {
    "code": "20e94",
    "name": "Kombuļi",
    "updated_at": "2014-09-22T21:05:37.096660Z",
    "country": "lv",
    "parent": null,
    "longitude": 27.1833000183105,
    "latitude": 55.9832992553711,
    "regions": []
  },
  {
    "code": "20e93",
    "name": "Suniši",
    "updated_at": "2014-09-22T21:05:36.972249Z",
    "country": "lv",
    "parent": null,
    "longitude": 24.7028007507324,
    "latitude": 57.1585998535156,
    "regions": []
  },
  {
    "code": "20e92",
    "name": "Lautere",
    "updated_at": "2014-09-22T21:05:33.831767Z",
    "country": "lv",
    "parent": null,
    "longitude": 26.0499992370605,
    "latitude": 56.9166984558105,
    "regions": []
  },
  {
    "code": "20e91",
    "name": "Lēči",
    "updated_at": "2014-09-22T21:05:33.797751Z",
    "country": "lv",
    "parent": null,
    "longitude": 21.5832996368408,
    "latitude": 57.2832984924316,
    "regions": []
  },
  {
    "code": "20e90",
    "name": "Lendži",
    "updated_at": "2014-09-22T21:05:33.764886Z",
    "country": "lv",
    "parent": null,
    "longitude": 27.5333003997803,
    "latitude": 56.5833015441895,
    "regions": []
  },
  {
    "code": "20e8f",
    "name": "Liyepene",
    "updated_at": "2014-09-22T21:05:33.607760Z",
    "country": "lv",
    "parent": null,
    "longitude": 21.6488990783691,
    "latitude": 57.4846992492676,
    "regions": []
  },
  {
    "code": "20e8e",
    "name": "Milgravis",
    "updated_at": "2014-09-22T21:05:33.131815Z",
    "country": "lv",
    "parent": null,
    "longitude": 24.1000003814697,
    "latitude": 57.0332984924316,
    "regions": []
  },
  {
    "code": "20e8d",
    "name": "Mīštēļi",
    "updated_at": "2014-09-22T21:05:33.023179Z",
    "country": "lv",
    "parent": null,
    "longitude": 26.38330078125,
    "latitude": 56.0499992370605,
    "regions": []
  },
  {
    "code": "20e8c",
    "name": "Priekuļi",
    "updated_at": "2014-09-22T21:05:32.471328Z",
    "country": "lv",
    "parent": null,
    "longitude": 25.36669921875,
    "latitude": 57.3166999816895,
    "regions": []
  },
  {
    "code": "20e8b",
    "name": "Purvciems",
    "updated_at": "2016-02-09T09:32:30.683316Z",
    "country": "lv",
    "parent": null,
    "longitude": 22.63330078125,
    "latitude": 57.5833015441895,
    "regions": []
  },
  {
    "code": "20e8a",
    "name": "Renda",
    "updated_at": "2014-09-22T21:05:32.213573Z",
    "country": "lv",
    "parent": null,
    "longitude": 22.2833003997803,
    "latitude": 57.0666999816895,
    "regions": []
  },
  {
    "code": "20e89",
    "name": "Seksti",
    "updated_at": "2014-09-22T21:05:31.665193Z",
    "country": "lv",
    "parent": null,
    "longitude": 27.0499992370605,
    "latitude": 56.2167015075684,
    "regions": []
  },
  {
    "code": "20e88",
    "name": "Spāre",
    "updated_at": "2014-09-22T21:05:31.319568Z",
    "country": "lv",
    "parent": null,
    "longitude": 22.2667007446289,
    "latitude": 57.2167015075684,
    "regions": []
  },
  {
    "code": "20e87",
    "name": "Stalidzāni",
    "updated_at": "2014-09-22T21:05:31.267437Z",
    "country": "lv",
    "parent": null,
    "longitude": 26.5499992370605,
    "latitude": 56.7667007446289,
    "regions": []
  },
  {
    "code": "20e86",
    "name": "Tīnūži",
    "updated_at": "2014-09-22T21:05:31.061261Z",
    "country": "lv",
    "parent": null,
    "longitude": 24.5664005279541,
    "latitude": 56.8669013977051,
    "regions": []
  },
  {
    "code": "20e85",
    "name": "Ulmale",
    "updated_at": "2014-09-22T21:05:30.927813Z",
    "country": "lv",
    "parent": null,
    "longitude": 21.2667007446289,
    "latitude": 56.9166984558105,
    "regions": []
  },
  {
    "code": "20e84",
    "name": "Upesciems",
    "updated_at": "2014-09-22T21:05:30.901382Z",
    "country": "lv",
    "parent": null,
    "longitude": 24.3353004455566,
    "latitude": 56.9796981811523,
    "regions": []
  },
  {
    "code": "20e83",
    "name": "Usma",
    "updated_at": "2014-09-22T21:05:30.876688Z",
    "country": "lv",
    "parent": null,
    "longitude": 22.1499996185303,
    "latitude": 57.2167015075684,
    "regions": []
  },
  {
    "code": "20e82",
    "name": "Ventava",
    "updated_at": "2014-09-22T21:05:30.641455Z",
    "country": "lv",
    "parent": null,
    "longitude": 21.61669921875,
    "latitude": 57.2332992553711,
    "regions": []
  },
  {
    "code": "20e81",
    "name": "Vidriži",
    "updated_at": "2014-09-22T21:05:30.579307Z",
    "country": "lv",
    "parent": null,
    "longitude": 24.6602993011475,
    "latitude": 57.3474998474121,
    "regions": []
  },
  {
    "code": "20e80",
    "name": "Višķi",
    "updated_at": "2014-09-22T21:05:30.479301Z",
    "country": "lv",
    "parent": null,
    "longitude": 26.7833003997803,
    "latitude": 56.0499992370605,
    "regions": []
  },
  {
    "code": "20e7f",
    "name": "Ziluppe",
    "updated_at": "2014-09-22T21:05:30.377843Z",
    "country": "lv",
    "parent": null,
    "longitude": 28.11669921875,
    "latitude": 56.38330078125,
    "regions": []
  },
  {
    "code": "20e7e",
    "name": "Ziras",
    "updated_at": "2014-09-22T21:05:30.352928Z",
    "country": "lv",
    "parent": null,
    "longitude": 21.5666999816895,
    "latitude": 57.1833000183105,
    "regions": []
  },
  {
    "code": "20e7d",
    "name": "Zvejniekciems",
    "updated_at": "2014-09-22T21:05:30.276654Z",
    "country": "lv",
    "parent": null,
    "longitude": 24.4169006347656,
    "latitude": 57.3189010620117,
    "regions": []
  },
  {
    "code": "20e7c",
    "name": "Ban A Ku",
    "updated_at": "2014-09-22T21:05:30.153173Z",
    "country": "th",
    "parent": null,
    "longitude": 99.63330078125,
    "latitude": 20.2667007446289,
    "regions": []
  },
  {
    "code": "20e7b",
    "name": "Ban Bang Ban",
    "updated_at": "2014-09-22T21:05:29.991282Z",
    "country": "th",
    "parent": null,
    "longitude": 99.1500015258789,
    "latitude": 9.06667041778564,
    "regions": []
  },
  {
    "code": "20e7a",
    "name": "Ban Bang Muang",
    "updated_at": "2014-09-22T21:05:29.805625Z",
    "country": "th",
    "parent": null,
    "longitude": 100.416999816895,
    "latitude": 13.8332996368408,
    "regions": []
  },
  {
    "code": "20e79",
    "name": "Ban Bang O",
    "updated_at": "2014-09-22T21:05:29.735839Z",
    "country": "th",
    "parent": null,
    "longitude": 101.116996765137,
    "latitude": 13.0832996368408,
    "regions": []
  },
  {
    "code": "20e78",
    "name": "Ban Bang Siap (1)",
    "updated_at": "2014-09-22T21:05:29.616108Z",
    "country": "th",
    "parent": null,
    "longitude": 99.3000030517578,
    "latitude": 10.6667003631592,
    "regions": []
  },
  {
    "code": "20e77",
    "name": "Ban Bang Trong",
    "updated_at": "2014-09-22T21:05:29.577070Z",
    "country": "th",
    "parent": null,
    "longitude": 99.9499969482422,
    "latitude": 8.60000038146973,
    "regions": []
  },
  {
    "code": "20e76",
    "name": "Ban Bang Yang",
    "updated_at": "2014-09-22T21:05:29.556660Z",
    "country": "th",
    "parent": null,
    "longitude": 100.217002868652,
    "latitude": 13.6332998275757,
    "regions": []
  },
  {
    "code": "20e75",
    "name": "Ban Bua Yai",
    "updated_at": "2014-09-22T21:05:29.415011Z",
    "country": "th",
    "parent": null,
    "longitude": 102.432998657227,
    "latitude": 15.5500001907349,
    "regions": []
  },
  {
    "code": "20e74",
    "name": "Ban Bung Hok Rong",
    "updated_at": "2014-09-22T21:05:29.354695Z",
    "country": "th",
    "parent": null,
    "longitude": 100.900001525879,
    "latitude": 13.8166999816895,
    "regions": []
  },
  {
    "code": "20e73",
    "name": "Ban Chak Man Thet",
    "updated_at": "2014-09-22T21:05:29.182813Z",
    "country": "th",
    "parent": null,
    "longitude": 101.199996948242,
    "latitude": 12.8999996185303,
    "regions": []
  },
  {
    "code": "20e72",
    "name": "Ban Chak Phai",
    "updated_at": "2014-09-22T21:05:29.157411Z",
    "country": "th",
    "parent": null,
    "longitude": 101.383003234863,
    "latitude": 12.6833000183105,
    "regions": []
  },
  {
    "code": "20e71",
    "name": "Ban Chomphu",
    "updated_at": "2014-09-22T21:05:28.936946Z",
    "country": "th",
    "parent": null,
    "longitude": 99.4328002929688,
    "latitude": 18.2397003173828,
    "regions": []
  },
  {
    "code": "20e70",
    "name": "Ban Don",
    "updated_at": "2014-09-22T21:05:28.763411Z",
    "country": "th",
    "parent": null,
    "longitude": 102.0,
    "latitude": 14.9333000183105,
    "regions": []
  },
  {
    "code": "20e6f",
    "name": "Bang Kapi",
    "updated_at": "2014-09-22T21:05:28.612743Z",
    "country": "th",
    "parent": null,
    "longitude": 100.650001525879,
    "latitude": 13.7666997909546,
    "regions": []
  },
  {
    "code": "20e6e",
    "name": "Ban Huai Krathon",
    "updated_at": "2014-09-22T21:05:28.407185Z",
    "country": "th",
    "parent": null,
    "longitude": 101.983001708984,
    "latitude": 12.7166996002197,
    "regions": []
  },
  {
    "code": "20e6d",
    "name": "Ban Hui Yai Muk",
    "updated_at": "2014-09-22T21:05:28.277575Z",
    "country": "th",
    "parent": null,
    "longitude": 100.983001708984,
    "latitude": 12.9333000183105,
    "regions": []
  },
  {
    "code": "20e6c",
    "name": "Ban Khlong Kam",
    "updated_at": "2014-09-22T21:05:27.878201Z",
    "country": "th",
    "parent": null,
    "longitude": 98.9499969482422,
    "latitude": 8.01667022705078,
    "regions": []
  },
  {
    "code": "20e6b",
    "name": "Ban Khlong Samrong",
    "updated_at": "2014-09-22T21:05:27.752927Z",
    "country": "th",
    "parent": null,
    "longitude": 100.599998474121,
    "latitude": 13.6499996185303,
    "regions": []
  },
  {
    "code": "20e6a",
    "name": "Ban Khlong Song (1)",
    "updated_at": "2014-09-22T21:05:27.719219Z",
    "country": "th",
    "parent": null,
    "longitude": 100.650001525879,
    "latitude": 13.9666996002197,
    "regions": []
  },
  {
    "code": "20e69",
    "name": "Ban Mae Tao Hai",
    "updated_at": "2014-09-22T21:05:27.032841Z",
    "country": "th",
    "parent": null,
    "longitude": 98.9981002807617,
    "latitude": 18.9314002990723,
    "regions": []
  },
  {
    "code": "20e68",
    "name": "Ban Map Yai Lia",
    "updated_at": "2014-09-22T21:05:26.855248Z",
    "country": "th",
    "parent": null,
    "longitude": 100.932998657227,
    "latitude": 12.9333000183105,
    "regions": []
  },
  {
    "code": "20e67",
    "name": "Ban Na Lak",
    "updated_at": "2014-09-22T21:05:26.491400Z",
    "country": "th",
    "parent": null,
    "longitude": 101.782997131348,
    "latitude": 17.3166999816895,
    "regions": []
  },
  {
    "code": "20e66",
    "name": "Ban Nam Sai",
    "updated_at": "2014-09-22T21:05:26.473279Z",
    "country": "th",
    "parent": null,
    "longitude": 98.5999984741211,
    "latitude": 9.73332977294922,
    "regions": []
  },
  {
    "code": "20e65",
    "name": "Ban Na Pom",
    "updated_at": "2014-09-22T21:05:26.323621Z",
    "country": "th",
    "parent": null,
    "longitude": 99.9666976928711,
    "latitude": 12.3000001907349,
    "regions": []
  },
  {
    "code": "20e64",
    "name": "Ban Nong Ben (1)",
    "updated_at": "2014-09-22T21:05:26.251500Z",
    "country": "th",
    "parent": null,
    "longitude": 99.9875030517578,
    "latitude": 15.7650003433228,
    "regions": []
  },
  {
    "code": "20e63",
    "name": "Ban Nong Bua",
    "updated_at": "2014-09-22T21:05:26.231665Z",
    "country": "th",
    "parent": null,
    "longitude": 104.782997131348,
    "latitude": 15.1667003631592,
    "regions": []
  },
  {
    "code": "20e62",
    "name": "Ban Nong Kung",
    "updated_at": "2014-09-22T21:05:26.141735Z",
    "country": "th",
    "parent": null,
    "longitude": 102.032997131348,
    "latitude": 16.6499996185303,
    "regions": []
  },
  {
    "code": "20e61",
    "name": "Ban Nong Pling",
    "updated_at": "2014-09-22T21:05:25.996649Z",
    "country": "th",
    "parent": null,
    "longitude": 102.050003051758,
    "latitude": 14.8667001724243,
    "regions": []
  },
  {
    "code": "20e60",
    "name": "Ban Ongkharak",
    "updated_at": "2014-09-22T21:05:25.740628Z",
    "country": "th",
    "parent": null,
    "longitude": 100.967002868652,
    "latitude": 14.1000003814697,
    "regions": []
  },
  {
    "code": "20e5f",
    "name": "Ban Pa Chao",
    "updated_at": "2014-09-22T21:05:25.699782Z",
    "country": "th",
    "parent": null,
    "longitude": 99.0,
    "latitude": 18.7332992553711,
    "regions": []
  },
  {
    "code": "20e5e",
    "name": "Ban Pa Ngiu",
    "updated_at": "2014-09-22T21:05:25.443980Z",
    "country": "th",
    "parent": null,
    "longitude": 99.5167007446289,
    "latitude": 19.2999992370605,
    "regions": []
  },
  {
    "code": "20e5d",
    "name": "Pa Phai",
    "updated_at": "2014-09-22T21:05:25.388877Z",
    "country": "th",
    "parent": null,
    "longitude": 98.9332962036133,
    "latitude": 17.88330078125,
    "regions": []
  },
  {
    "code": "20e5c",
    "name": "Ban Pa Ruak",
    "updated_at": "2014-09-22T21:05:25.370365Z",
    "country": "th",
    "parent": null,
    "longitude": 99.7166976928711,
    "latitude": 19.7166996002197,
    "regions": []
  },
  {
    "code": "20e5b",
    "name": "Ban Phlao",
    "updated_at": "2014-09-22T21:05:25.165210Z",
    "country": "th",
    "parent": null,
    "longitude": 99.88330078125,
    "latitude": 9.13333034515381,
    "regions": []
  },
  {
    "code": "20e5a",
    "name": "Ban Pho",
    "updated_at": "2014-09-22T21:05:25.143311Z",
    "country": "th",
    "parent": null,
    "longitude": 100.333000183105,
    "latitude": 7.33333015441895,
    "regions": []
  },
  {
    "code": "20e59",
    "name": "Ban Rai Chao Wua",
    "updated_at": "2014-09-22T21:05:24.888012Z",
    "country": "th",
    "parent": null,
    "longitude": 101.445999145508,
    "latitude": 15.960599899292,
    "regions": []
  },
  {
    "code": "20e58",
    "name": "Takhop",
    "updated_at": "2014-09-22T21:05:24.547345Z",
    "country": "th",
    "parent": null,
    "longitude": 101.851997375488,
    "latitude": 14.6305999755859,
    "regions": []
  },
  {
    "code": "20e57",
    "name": "Ban Talat Rangsit",
    "updated_at": "2014-09-22T21:05:24.524825Z",
    "country": "th",
    "parent": null,
    "longitude": 100.616996765137,
    "latitude": 13.9833002090454,
    "regions": []
  },
  {
    "code": "20e56",
    "name": "Ban Tamnak",
    "updated_at": "2014-09-22T21:05:24.502547Z",
    "country": "th",
    "parent": null,
    "longitude": 98.9417037963867,
    "latitude": 18.7450008392334,
    "regions": []
  },
  {
    "code": "20e55",
    "name": "Bua Yai",
    "updated_at": "2014-09-22T21:05:23.854553Z",
    "country": "th",
    "parent": null,
    "longitude": 102.416999816895,
    "latitude": 15.5832996368408,
    "regions": []
  },
  {
    "code": "20e54",
    "name": "Kampong Tanyong Bale",
    "updated_at": "2014-09-22T21:05:23.040339Z",
    "country": "th",
    "parent": null,
    "longitude": 101.967002868652,
    "latitude": 6.0,
    "regions": []
  },
  {
    "code": "20e53",
    "name": "Klaeng",
    "updated_at": "2014-09-22T21:05:22.765289Z",
    "country": "th",
    "parent": null,
    "longitude": 101.650001525879,
    "latitude": 12.7833003997803,
    "regions": []
  },
  {
    "code": "20e52",
    "name": "Num Sau",
    "updated_at": "2014-09-22T21:05:22.699714Z",
    "country": "th",
    "parent": null,
    "longitude": 100.016998291016,
    "latitude": 12.2333002090454,
    "regions": []
  },
  {
    "code": "20e51",
    "name": "Nong Chok",
    "updated_at": "2014-09-22T21:05:21.681951Z",
    "country": "th",
    "parent": null,
    "longitude": 100.866996765137,
    "latitude": 13.8500003814697,
    "regions": []
  },
  {
    "code": "20e50",
    "name": "Ko Saket",
    "updated_at": "2014-09-22T21:05:17.752607Z",
    "country": "th",
    "parent": null,
    "longitude": 101.166999816895,
    "latitude": 12.6499996185303,
    "regions": []
  },
  {
    "code": "20e4f",
    "name": "Tha Chin",
    "updated_at": "2014-09-22T21:05:17.638892Z",
    "country": "th",
    "parent": null,
    "longitude": 100.282997131348,
    "latitude": 13.5333003997803,
    "regions": []
  },
  {
    "code": "20e4e",
    "name": "Tha Sae",
    "updated_at": "2014-09-22T21:05:17.061494Z",
    "country": "th",
    "parent": null,
    "longitude": 99.1667022705078,
    "latitude": 10.6667003631592,
    "regions": []
  },
  {
    "code": "20e4d",
    "name": "Thong Pha Phum",
    "updated_at": "2014-09-22T21:05:16.964393Z",
    "country": "th",
    "parent": null,
    "longitude": 98.63330078125,
    "latitude": 14.7333002090454,
    "regions": []
  },
  {
    "code": "20e4c",
    "name": "Thung Yai",
    "updated_at": "2014-09-22T21:05:16.904040Z",
    "country": "th",
    "parent": null,
    "longitude": 99.36669921875,
    "latitude": 8.30000019073486,
    "regions": []
  },
  {
    "code": "20e4b",
    "name": "Abreu",
    "updated_at": "2014-09-22T21:05:16.756978Z",
    "country": "do",
    "parent": null,
    "longitude": -69.9499969482422,
    "latitude": 19.6667003631592,
    "regions": []
  },
  {
    "code": "20e4a",
    "name": "Boca de Yuma",
    "updated_at": "2014-09-22T21:05:16.617184Z",
    "country": "do",
    "parent": null,
    "longitude": -68.5999984741211,
    "latitude": 18.38330078125,
    "regions": []
  },
  {
    "code": "20e49",
    "name": "Buen Hombre",
    "updated_at": "2014-09-22T21:05:16.601597Z",
    "country": "do",
    "parent": null,
    "longitude": -71.4167022705078,
    "latitude": 19.8500003814697,
    "regions": []
  },
  {
    "code": "20e48",
    "name": "Castellalito",
    "updated_at": "2014-09-22T21:05:16.543194Z",
    "country": "do",
    "parent": null,
    "longitude": -69.25,
    "latitude": 19.2833003997803,
    "regions": []
  },
  {
    "code": "20e47",
    "name": "Comedero",
    "updated_at": "2014-09-22T21:05:16.523546Z",
    "country": "do",
    "parent": null,
    "longitude": -71.0832977294922,
    "latitude": 19.7833003997803,
    "regions": []
  },
  {
    "code": "20e46",
    "name": "El Veinte",
    "updated_at": "2014-09-22T21:05:16.291085Z",
    "country": "do",
    "parent": null,
    "longitude": -70.61669921875,
    "latitude": 19.6667003631592,
    "regions": []
  },
  {
    "code": "20e45",
    "name": "Juan Pedro",
    "updated_at": "2014-09-22T21:05:16.213325Z",
    "country": "do",
    "parent": null,
    "longitude": -69.38330078125,
    "latitude": 18.4333000183105,
    "regions": []
  },
  {
    "code": "20e44",
    "name": "La Palmita",
    "updated_at": "2014-09-22T21:05:16.137700Z",
    "country": "do",
    "parent": null,
    "longitude": -70.9666976928711,
    "latitude": 19.9167003631592,
    "regions": []
  },
  {
    "code": "20e43",
    "name": "Mendoza",
    "updated_at": "2014-09-22T21:05:15.855242Z",
    "country": "do",
    "parent": null,
    "longitude": -69.8167037963867,
    "latitude": 18.5,
    "regions": []
  },
  {
    "code": "20e42",
    "name": "Sosúa",
    "updated_at": "2014-09-22T21:05:15.506659Z",
    "country": "do",
    "parent": null,
    "longitude": -70.5167007446289,
    "latitude": 19.7667007446289,
    "regions": []
  },
  {
    "code": "20e41",
    "name": "Tamboril",
    "updated_at": "2014-09-22T21:05:15.486704Z",
    "country": "do",
    "parent": null,
    "longitude": -70.5999984741211,
    "latitude": 19.4832992553711,
    "regions": []
  },
  {
    "code": "20e40",
    "name": "Ban Bo Wi",
    "updated_at": "2014-09-22T21:05:15.232044Z",
    "country": "th",
    "parent": null,
    "longitude": 99.2667007446289,
    "latitude": 13.4666996002197,
    "regions": []
  },
  {
    "code": "20e3f",
    "name": "Ban Chieo Ko",
    "updated_at": "2014-09-22T21:05:15.182625Z",
    "country": "th",
    "parent": null,
    "longitude": 98.63330078125,
    "latitude": 9.10000038146973,
    "regions": []
  },
  {
    "code": "20e3e",
    "name": "Ban Huai Phai",
    "updated_at": "2014-09-22T21:05:14.930330Z",
    "country": "th",
    "parent": null,
    "longitude": 101.050003051758,
    "latitude": 16.7667007446289,
    "regions": []
  },
  {
    "code": "20e3d",
    "name": "Ban Huai Sok Noi",
    "updated_at": "2014-09-22T21:05:14.877399Z",
    "country": "th",
    "parent": null,
    "longitude": 101.24299621582,
    "latitude": 14.545599937439,
    "regions": []
  },
  {
    "code": "20e3c",
    "name": "Ban Khao Noi",
    "updated_at": "2014-09-22T21:05:14.777006Z",
    "country": "th",
    "parent": null,
    "longitude": 99.8000030517578,
    "latitude": 9.16666984558105,
    "regions": []
  },
  {
    "code": "20e3b",
    "name": "Ban Khlong Sam Tawan Ok",
    "updated_at": "2014-09-22T21:05:14.650200Z",
    "country": "th",
    "parent": null,
    "longitude": 100.766998291016,
    "latitude": 13.9666996002197,
    "regions": []
  },
  {
    "code": "20e3a",
    "name": "Ban Khlong Sawiat",
    "updated_at": "2014-09-22T21:05:14.623883Z",
    "country": "th",
    "parent": null,
    "longitude": 99.0832977294922,
    "latitude": 9.35000038146973,
    "regions": []
  },
  {
    "code": "20e39",
    "name": "Ban Krang",
    "updated_at": "2014-09-22T21:05:14.401521Z",
    "country": "th",
    "parent": null,
    "longitude": 99.2332992553711,
    "latitude": 13.1499996185303,
    "regions": []
  },
  {
    "code": "20e38",
    "name": "Ban Nikhom Sang Ton Eng Lop Buri",
    "updated_at": "2014-09-22T21:05:14.166605Z",
    "country": "th",
    "parent": null,
    "longitude": 100.800003051758,
    "latitude": 14.8166999816895,
    "regions": []
  },
  {
    "code": "20e37",
    "name": "Ban Non Chan",
    "updated_at": "2014-09-22T21:05:14.125137Z",
    "country": "th",
    "parent": null,
    "longitude": 101.935997009277,
    "latitude": 15.6464004516602,
    "regions": []
  },
  {
    "code": "20e36",
    "name": "Ban Pet",
    "updated_at": "2014-09-22T21:05:13.689215Z",
    "country": "th",
    "parent": null,
    "longitude": 102.75,
    "latitude": 16.4333000183105,
    "regions": []
  },
  {
    "code": "20e35",
    "name": "Ban Ping Khong",
    "updated_at": "2014-09-22T21:05:13.633600Z",
    "country": "th",
    "parent": null,
    "longitude": 98.9832992553711,
    "latitude": 19.4666996002197,
    "regions": []
  },
  {
    "code": "20e34",
    "name": "Ban Pok Nai",
    "updated_at": "2014-09-22T21:05:13.568627Z",
    "country": "th",
    "parent": null,
    "longitude": 99.3510971069336,
    "latitude": 18.8924999237061,
    "regions": []
  },
  {
    "code": "20e33",
    "name": "Ban Prong Ron",
    "updated_at": "2014-09-22T21:05:13.545559Z",
    "country": "th",
    "parent": null,
    "longitude": 99.6999969482422,
    "latitude": 19.9500007629395,
    "regions": []
  },
  {
    "code": "20e32",
    "name": "Ban Tha Rua",
    "updated_at": "2014-09-22T21:05:13.262823Z",
    "country": "th",
    "parent": null,
    "longitude": 99.8332977294922,
    "latitude": 12.5333003997803,
    "regions": []
  },
  {
    "code": "20e31",
    "name": "Ban Thung Thiang",
    "updated_at": "2014-09-22T21:05:13.200926Z",
    "country": "th",
    "parent": null,
    "longitude": 99.4832992553711,
    "latitude": 19.4666996002197,
    "regions": []
  },
  {
    "code": "20e30",
    "name": "An Hòa",
    "updated_at": "2014-09-22T21:05:12.956470Z",
    "country": "vn",
    "parent": null,
    "longitude": 108.650001525879,
    "latitude": 15.5,
    "regions": []
  },
  {
    "code": "20e2f",
    "name": "An Ma",
    "updated_at": "2014-09-22T21:05:12.923118Z",
    "country": "vn",
    "parent": null,
    "longitude": 105.599998474121,
    "latitude": 22.4167003631592,
    "regions": []
  },
  {
    "code": "20e2e",
    "name": "Binh Chau",
    "updated_at": "2014-09-22T21:05:12.837452Z",
    "country": "vn",
    "parent": null,
    "longitude": 107.550003051758,
    "latitude": 10.5500001907349,
    "regions": []
  },
  {
    "code": "20e2d",
    "name": "Bản Hon",
    "updated_at": "2014-09-22T21:05:12.632605Z",
    "country": "vn",
    "parent": null,
    "longitude": 103.550003051758,
    "latitude": 22.3332996368408,
    "regions": []
  },
  {
    "code": "20e2c",
    "name": "Bến Cát",
    "updated_at": "2014-09-22T21:05:12.577126Z",
    "country": "vn",
    "parent": null,
    "longitude": 106.599998474121,
    "latitude": 11.1499996185303,
    "regions": []
  },
  {
    "code": "20e2b",
    "name": "Dao Co To",
    "updated_at": "2014-09-22T21:05:12.359651Z",
    "country": "vn",
    "parent": null,
    "longitude": 107.766998291016,
    "latitude": 20.9666996002197,
    "regions": []
  },
  {
    "code": "20e2a",
    "name": "Câu Hà (2)",
    "updated_at": "2014-09-22T21:05:12.324148Z",
    "country": "vn",
    "parent": null,
    "longitude": 108.282997131348,
    "latitude": 15.9666996002197,
    "regions": []
  },
  {
    "code": "20e29",
    "name": "Chợ Phước Hải",
    "updated_at": "2014-09-22T21:05:12.245582Z",
    "country": "vn",
    "parent": null,
    "longitude": 107.300003051758,
    "latitude": 10.4333000183105,
    "regions": []
  },
  {
    "code": "20e28",
    "name": "North Island",
    "updated_at": "2014-09-22T21:05:11.872661Z",
    "country": "vn",
    "parent": null,
    "longitude": 104.849998474121,
    "latitude": 8.44999980926514,
    "regions": []
  },
  {
    "code": "20e27",
    "name": "Hòn Chông",
    "updated_at": "2014-09-22T21:05:11.559264Z",
    "country": "vn",
    "parent": null,
    "longitude": 104.616996765137,
    "latitude": 10.1667003631592,
    "regions": []
  },
  {
    "code": "20e26",
    "name": "Kế Sách",
    "updated_at": "2014-09-22T21:05:11.464913Z",
    "country": "vn",
    "parent": null,
    "longitude": 105.988998413086,
    "latitude": 9.76500034332275,
    "regions": []
  },
  {
    "code": "20e25",
    "name": "Lai Châu",
    "updated_at": "2014-09-22T21:05:11.357892Z",
    "country": "vn",
    "parent": null,
    "longitude": 103.166999816895,
    "latitude": 22.0666999816895,
    "regions": []
  },
  {
    "code": "20e24",
    "name": "Lâm Xuyên",
    "updated_at": "2014-09-22T21:05:11.342011Z",
    "country": "vn",
    "parent": null,
    "longitude": 105.583000183105,
    "latitude": 21.2000007629395,
    "regions": []
  },
  {
    "code": "20e23",
    "name": "Lạng Sơn",
    "updated_at": "2014-09-22T21:05:11.325781Z",
    "country": "vn",
    "parent": null,
    "longitude": 106.761586,
    "latitude": 21.853826,
    "regions": []
  },
  {
    "code": "20e22",
    "name": "Nho Quan",
    "updated_at": "2014-09-22T21:05:11.095451Z",
    "country": "vn",
    "parent": null,
    "longitude": 105.766998291016,
    "latitude": 20.3166999816895,
    "regions": []
  },
  {
    "code": "20e21",
    "name": "Quảng Trị",
    "updated_at": "2014-09-22T21:05:10.757089Z",
    "country": "vn",
    "parent": null,
    "longitude": 107.199996948242,
    "latitude": 16.75,
    "regions": []
  },
  {
    "code": "20e20",
    "name": "Thôn Cảnh Dương",
    "updated_at": "2014-09-22T21:05:10.333590Z",
    "country": "vn",
    "parent": null,
    "longitude": 107.983001708984,
    "latitude": 16.2999992370605,
    "regions": []
  },
  {
    "code": "20e1f",
    "name": "Thông Tây Hội",
    "updated_at": "2014-09-22T21:05:10.316145Z",
    "country": "vn",
    "parent": null,
    "longitude": 106.633003234863,
    "latitude": 10.8332996368408,
    "regions": []
  },
  {
    "code": "20e1e",
    "name": "Thuận Biên",
    "updated_at": "2014-09-22T21:05:10.260638Z",
    "country": "vn",
    "parent": null,
    "longitude": 107.449996948242,
    "latitude": 10.4666996002197,
    "regions": []
  },
  {
    "code": "20e1d",
    "name": "Thuong Thon",
    "updated_at": "2014-09-22T21:05:10.208337Z",
    "country": "vn",
    "parent": null,
    "longitude": 105.717002868652,
    "latitude": 21.0666999816895,
    "regions": []
  },
  {
    "code": "20e1c",
    "name": "Vĩnh Long",
    "updated_at": "2014-09-22T21:05:10.047121Z",
    "country": "vn",
    "parent": null,
    "longitude": 105.967002868652,
    "latitude": 10.25,
    "regions": []
  },
  {
    "code": "20e1b",
    "name": "Vĩnh Yên",
    "updated_at": "2014-09-22T21:05:10.030481Z",
    "country": "vn",
    "parent": null,
    "longitude": 105.59700012207,
    "latitude": 21.3099994659424,
    "regions": []
  },
  {
    "code": "20e1a",
    "name": "Alligator Pond Village",
    "updated_at": "2014-09-22T21:05:09.702876Z",
    "country": "jm",
    "parent": null,
    "longitude": -77.5667037963867,
    "latitude": 17.86669921875,
    "regions": []
  },
  {
    "code": "20e19",
    "name": "Bybrook",
    "updated_at": "2014-09-22T21:05:09.539641Z",
    "country": "jm",
    "parent": null,
    "longitude": -77.6832962036133,
    "latitude": 18.0666999816895,
    "regions": []
  },
  {
    "code": "20e18",
    "name": "Discovery Bay",
    "updated_at": "2014-09-22T21:05:09.413061Z",
    "country": "jm",
    "parent": null,
    "longitude": -77.4000015258789,
    "latitude": 18.4666996002197,
    "regions": []
  },
  {
    "code": "20e17",
    "name": "Duncans",
    "updated_at": "2014-09-22T21:05:09.355600Z",
    "country": "jm",
    "parent": null,
    "longitude": -77.5333023071289,
    "latitude": 18.4666996002197,
    "regions": []
  },
  {
    "code": "20e16",
    "name": "Hanover",
    "updated_at": "2014-09-22T21:05:09.256271Z",
    "country": "jm",
    "parent": null,
    "longitude": -77.5500030517578,
    "latitude": 17.9666996002197,
    "regions": []
  },
  {
    "code": "20e15",
    "name": "Lyssons",
    "updated_at": "2014-09-22T21:05:09.095343Z",
    "country": "jm",
    "parent": null,
    "longitude": -76.38330078125,
    "latitude": 17.88330078125,
    "regions": []
  },
  {
    "code": "20e14",
    "name": "Manchioneal",
    "updated_at": "2014-09-22T21:05:09.063744Z",
    "country": "jm",
    "parent": null,
    "longitude": -76.2833023071289,
    "latitude": 18.0333003997803,
    "regions": []
  },
  {
    "code": "20e13",
    "name": "Rio Bueno",
    "updated_at": "2014-09-22T21:05:08.624462Z",
    "country": "jm",
    "parent": null,
    "longitude": -77.4666976928711,
    "latitude": 18.4666996002197,
    "regions": []
  },
  {
    "code": "20e12",
    "name": "Savanna-la-Mar",
    "updated_at": "2014-09-22T21:05:08.492054Z",
    "country": "jm",
    "parent": null,
    "longitude": -78.13330078125,
    "latitude": 18.2166996002197,
    "regions": []
  },
  {
    "code": "20e11",
    "name": "Silver Sands",
    "updated_at": "2014-09-22T21:05:08.436297Z",
    "country": "jm",
    "parent": null,
    "longitude": -77.5333023071289,
    "latitude": 18.4832992553711,
    "regions": []
  },
  {
    "code": "20e10",
    "name": "Spanish Town",
    "updated_at": "2014-09-22T21:05:08.366198Z",
    "country": "jm",
    "parent": null,
    "longitude": -76.9499969482422,
    "latitude": 17.9832992553711,
    "regions": []
  },
  {
    "code": "20e0f",
    "name": "Truro Pen",
    "updated_at": "2014-09-22T21:05:08.318182Z",
    "country": "jm",
    "parent": null,
    "longitude": -78.1500015258789,
    "latitude": 18.2999992370605,
    "regions": []
  },
  {
    "code": "20e0e",
    "name": "Pererva",
    "updated_at": "2014-09-22T21:05:08.138520Z",
    "country": "ru",
    "parent": null,
    "longitude": 33.005298614502,
    "latitude": 57.4841995239258,
    "regions": []
  },
  {
    "code": "20e0d",
    "name": "Santa Verónica",
    "updated_at": "2014-09-22T21:05:08.033802Z",
    "country": "mx",
    "parent": null,
    "longitude": -116.366996765137,
    "latitude": 32.4667015075684,
    "regions": []
  },
  {
    "code": "20e0c",
    "name": "Villa de Juárez",
    "updated_at": "2014-09-22T21:05:08.013372Z",
    "country": "mx",
    "parent": null,
    "longitude": -116.650001525879,
    "latitude": 31.9500007629395,
    "regions": []
  },
  {
    "code": "20e0b",
    "name": "San Miguel",
    "updated_at": "2014-09-22T21:05:07.987322Z",
    "country": "mx",
    "parent": null,
    "longitude": -116.733001708984,
    "latitude": 31.8999996185303,
    "regions": []
  },
  {
    "code": "20e0a",
    "name": "Maierhof",
    "updated_at": "2014-09-22T21:05:07.843428Z",
    "country": "at",
    "parent": null,
    "longitude": 13.0832996368408,
    "latitude": 47.2999992370605,
    "regions": []
  },
  {
    "code": "20e09",
    "name": "Jinzhong",
    "updated_at": "2014-09-22T21:05:07.794781Z",
    "country": "cn",
    "parent": null,
    "longitude": 116.108001708984,
    "latitude": 30.5499992370605,
    "regions": []
  },
  {
    "code": "20e08",
    "name": "Liyangzhen",
    "updated_at": "2014-09-22T21:05:07.567513Z",
    "country": "cn",
    "parent": null,
    "longitude": 118.282997131348,
    "latitude": 29.7082996368408,
    "regions": []
  },
  {
    "code": "20e07",
    "name": "Souni",
    "updated_at": "2014-09-22T21:05:07.371295Z",
    "country": "cy",
    "parent": null,
    "longitude": 32.8875007629395,
    "latitude": 34.74169921875,
    "regions": []
  },
  {
    "code": "20e06",
    "name": "El Progeso",
    "updated_at": "2014-09-22T21:05:07.272386Z",
    "country": "mx",
    "parent": null,
    "longitude": -100.133003234863,
    "latitude": 22.25,
    "regions": []
  },
  {
    "code": "20e05",
    "name": "Damían Carmona",
    "updated_at": "2014-09-22T21:05:07.254595Z",
    "country": "mx",
    "parent": null,
    "longitude": -99.3000030517578,
    "latitude": 22.0832996368408,
    "regions": []
  },
  {
    "code": "20e04",
    "name": "Beatriz",
    "updated_at": "2014-09-22T21:05:07.232282Z",
    "country": "mx",
    "parent": null,
    "longitude": -98.9666976928711,
    "latitude": 21.75,
    "regions": []
  },
  {
    "code": "20e03",
    "name": "Frenchs Forest",
    "updated_at": "2014-09-18T06:52:33.040691Z",
    "country": "au",
    "parent": "20191",
    "longitude": 151.246466736169,
    "latitude": -33.7473333418965,
    "regions": []
  },
  {
    "code": "20e02",
    "name": "Iriomote Island",
    "updated_at": "2016-02-09T09:32:09.730668Z",
    "country": "jp",
    "parent": "1ff32",
    "longitude": 123.808256604327,
    "latitude": 24.4030868854199,
    "regions": []
  },
  {
    "code": "20e01",
    "name": "Taketomi Island",
    "updated_at": "2016-02-09T09:32:09.746463Z",
    "country": "jp",
    "parent": "1ff32",
    "longitude": 124.085955490213,
    "latitude": 24.3298642004862,
    "regions": []
  },
  {
    "code": "20e00",
    "name": "Shibu",
    "updated_at": "2016-02-09T09:32:09.738702Z",
    "country": "jp",
    "parent": "1fa1d",
    "longitude": 138.434449285269,
    "latitude": 36.7331144107624,
    "regions": []
  },
  {
    "code": "20dff",
    "name": "Yudanaka Onsen",
    "updated_at": "2016-02-09T09:32:03.979152Z",
    "country": "jp",
    "parent": "1fa1d",
    "longitude": 138.415996593682,
    "latitude": 36.7403030423907,
    "regions": []
  },
  {
    "code": "20dfe",
    "name": "Ko'Olina Resort",
    "updated_at": "2014-09-18T06:52:32.991714Z",
    "country": "us",
    "parent": "1f8da",
    "longitude": -158.121486729663,
    "latitude": 21.3355559801712,
    "regions": []
  },
  {
    "code": "20dfd",
    "name": "Hakata",
    "updated_at": "2016-02-09T09:32:14.851831Z",
    "country": "jp",
    "parent": "1f7a3",
    "longitude": 130.416475200442,
    "latitude": 33.5910899253292,
    "regions": []
  },
  {
    "code": "20dfc",
    "name": "Makena",
    "updated_at": "2014-09-18T06:52:32.653522Z",
    "country": "us",
    "parent": "1f6c7",
    "longitude": -156.43883228302,
    "latitude": 20.6471718468502,
    "regions": []
  },
  {
    "code": "20dfb",
    "name": "Urangan",
    "updated_at": "2014-09-13T17:01:39.078523Z",
    "country": "au",
    "parent": "1f6af",
    "longitude": 152.899375461663,
    "latitude": -25.2867846819146,
    "regions": []
  },
  {
    "code": "20dfa",
    "name": "Torquay",
    "updated_at": "2014-09-19T21:47:25.789697Z",
    "country": "au",
    "parent": "1f6af",
    "longitude": 152.874936838549,
    "latitude": -25.283880078588,
    "regions": []
  },
  {
    "code": "20df9",
    "name": "Pialba",
    "updated_at": "2014-09-13T17:01:38.946616Z",
    "country": "au",
    "parent": "1f6af",
    "longitude": 152.841626554728,
    "latitude": -25.2832914898301,
    "regions": []
  },
  {
    "code": "20df8",
    "name": "Scarness",
    "updated_at": "2014-09-13T17:01:38.916887Z",
    "country": "au",
    "parent": "1f6af",
    "longitude": 152.85660854175,
    "latitude": -25.285186367767,
    "regions": []
  },
  {
    "code": "20df7",
    "name": "Kaunertal",
    "updated_at": "2016-02-09T09:32:14.876269Z",
    "country": "at",
    "parent": "1f6ab",
    "longitude": 10.7491749356069,
    "latitude": 47.0350640605812,
    "regions": []
  },
  {
    "code": "20df6",
    "name": "Vergoetschen",
    "updated_at": "2014-09-13T17:01:38.667479Z",
    "country": "at",
    "parent": "1f6ab",
    "longitude": 10.7514405828206,
    "latitude": 47.0422555586267,
    "regions": []
  },
  {
    "code": "20df5",
    "name": "Feichten im Kaunertal",
    "updated_at": "2014-09-13T17:01:38.633448Z",
    "country": "at",
    "parent": "1f6ab",
    "longitude": 10.7457534556597,
    "latitude": 47.0288970764478,
    "regions": []
  },
  {
    "code": "20df4",
    "name": "Thong Takian",
    "updated_at": "2016-02-09T09:32:03.703608Z",
    "country": "th",
    "parent": "1f65b",
    "longitude": 100.066076815116,
    "latitude": 9.47365967845421,
    "regions": []
  },
  {
    "code": "20df3",
    "name": "Woodford Green",
    "updated_at": "2016-02-09T09:32:14.867569Z",
    "country": "gb",
    "parent": "1f52e",
    "longitude": 0.0346072018146515,
    "latitude": 51.6048613820034,
    "regions": []
  },
  {
    "code": "20df2",
    "name": "Pinner",
    "updated_at": "2016-02-09T09:32:15.656930Z",
    "country": "gb",
    "parent": "1f4a4",
    "longitude": -0.376689434051514,
    "latitude": 51.6027179416149,
    "regions": []
  },
  {
    "code": "20df1",
    "name": "Budva Old Town",
    "updated_at": "2016-02-09T09:32:14.859464Z",
    "country": "me",
    "parent": "1f330",
    "longitude": 18.8377983392411,
    "latitude": 42.2781451271345,
    "regions": []
  },
  {
    "code": "20df0",
    "name": "Ocean Park",
    "updated_at": "2014-09-18T06:52:32.147707Z",
    "country": "pr",
    "parent": "1f20f",
    "longitude": -66.0516469749431,
    "latitude": 18.452898751199,
    "regions": []
  },