[
  {
    "code": "21386",
    "name": "Mablethorpe",
    "updated_at": "2014-09-22T21:08:11.540497Z",
    "country": "gb",
    "parent": null,
    "longitude": 0.25,
    "latitude": 53.3333015441895,
    "regions": []
  },
  {
    "code": "21385",
    "name": "Macduff",
    "updated_at": "2014-09-22T21:08:11.494566Z",
    "country": "gb",
    "parent": null,
    "longitude": -2.49424004554749,
    "latitude": 57.668701171875,
    "regions": []
  },
  {
    "code": "21384",
    "name": "Machrihanish",
    "updated_at": "2014-09-22T21:08:11.467981Z",
    "country": "gb",
    "parent": null,
    "longitude": -5.75,
    "latitude": 55.4333000183105,
    "regions": []
  },
  {
    "code": "21383",
    "name": "Machynlleth",
    "updated_at": "2014-09-22T21:08:11.438814Z",
    "country": "gb",
    "parent": null,
    "longitude": -3.84556007385254,
    "latitude": 52.5912017822266,
    "regions": []
  },
  {
    "code": "21382",
    "name": "Madeley Heath",
    "updated_at": "2014-09-22T21:08:11.370960Z",
    "country": "gb",
    "parent": null,
    "longitude": -2.31666994094849,
    "latitude": 53.0,
    "regions": []
  },
  {
    "code": "21381",
    "name": "Maenclochog",
    "updated_at": "2014-09-22T21:08:11.344794Z",
    "country": "gb",
    "parent": null,
    "longitude": -4.78332996368408,
    "latitude": 51.9166984558105,
    "regions": []
  },
  {
    "code": "21380",
    "name": "Maentwrog",
    "updated_at": "2014-09-22T21:08:11.325585Z",
    "country": "gb",
    "parent": null,
    "longitude": -3.9833300113678,
    "latitude": 52.9333000183105,
    "regions": []
  },
  {
    "code": "2137f",
    "name": "Maidens",
    "updated_at": "2014-09-22T21:08:11.251014Z",
    "country": "gb",
    "parent": null,
    "longitude": -4.81666994094849,
    "latitude": 55.3333015441895,
    "regions": []
  },
  {
    "code": "2137e",
    "name": "Maisemore",
    "updated_at": "2014-09-22T21:08:11.169121Z",
    "country": "gb",
    "parent": null,
    "longitude": -2.2666699886322,
    "latitude": 51.88330078125,
    "regions": []
  },
  {
    "code": "2137d",
    "name": "Mangersta",
    "updated_at": "2014-09-22T21:08:10.862808Z",
    "country": "gb",
    "parent": null,
    "longitude": -7.08333015441895,
    "latitude": 58.1666984558105,
    "regions": []
  },
  {
    "code": "2137c",
    "name": "Manningtree",
    "updated_at": "2014-09-22T21:08:10.828892Z",
    "country": "gb",
    "parent": null,
    "longitude": 1.05692005157471,
    "latitude": 51.9460983276367,
    "regions": []
  },
  {
    "code": "2137b",
    "name": "Marhamchurch",
    "updated_at": "2014-09-22T21:08:10.666300Z",
    "country": "gb",
    "parent": null,
    "longitude": -4.51667022705078,
    "latitude": 50.7999992370605,
    "regions": []
  },
  {
    "code": "2137a",
    "name": "Mariansleigh",
    "updated_at": "2014-09-22T21:08:10.633296Z",
    "country": "gb",
    "parent": null,
    "longitude": -3.78332996368408,
    "latitude": 50.9832992553711,
    "regions": []
  },
  {
    "code": "21379",
    "name": "Mark",
    "updated_at": "2014-09-22T21:08:10.601286Z",
    "country": "gb",
    "parent": null,
    "longitude": -2.90000009536743,
    "latitude": 51.2167015075684,
    "regions": []
  },
  {
    "code": "21378",
    "name": "Market Weston",
    "updated_at": "2014-09-22T21:08:10.482066Z",
    "country": "gb",
    "parent": null,
    "longitude": 0.916666984558105,
    "latitude": 52.36669921875,
    "regions": []
  },
  {
    "code": "21377",
    "name": "Marksbury",
    "updated_at": "2014-09-22T21:08:10.433863Z",
    "country": "gb",
    "parent": null,
    "longitude": -2.4833300113678,
    "latitude": 51.3499984741211,
    "regions": []
  },
  {
    "code": "21376",
    "name": "Marldon",
    "updated_at": "2014-09-22T21:08:10.341399Z",
    "country": "gb",
    "parent": null,
    "longitude": -3.59999990463257,
    "latitude": 50.4667015075684,
    "regions": []
  },
  {
    "code": "21375",
    "name": "Marrick",
    "updated_at": "2014-09-22T21:08:10.247523Z",
    "country": "gb",
    "parent": null,
    "longitude": -1.88332998752594,
    "latitude": 54.38330078125,
    "regions": []
  },
  {
    "code": "21374",
    "name": "Marsett",
    "updated_at": "2014-09-22T21:08:10.201313Z",
    "country": "gb",
    "parent": null,
    "longitude": -2.15000009536743,
    "latitude": 54.2667007446289,
    "regions": []
  },
  {
    "code": "21373",
    "name": "Marshfield",
    "updated_at": "2014-09-22T21:08:10.146526Z",
    "country": "gb",
    "parent": null,
    "longitude": -2.31800007820129,
    "latitude": 51.4631996154785,
    "regions": []
  },
  {
    "code": "21372",
    "name": "Marstow",
    "updated_at": "2014-09-22T21:08:10.043840Z",
    "country": "gb",
    "parent": null,
    "longitude": -2.65000009536743,
    "latitude": 51.86669921875,
    "regions": []
  },
  {
    "code": "21371",
    "name": "Martham",
    "updated_at": "2014-09-22T21:08:10.027491Z",
    "country": "gb",
    "parent": null,
    "longitude": 1.63332998752594,
    "latitude": 52.7000007629395,
    "regions": []
  },
  {
    "code": "21370",
    "name": "Martin",
    "updated_at": "2014-09-22T21:08:10.010396Z",
    "country": "gb",
    "parent": null,
    "longitude": -1.89999997615814,
    "latitude": 50.9667015075684,
    "regions": []
  },
  {
    "code": "2136f",
    "name": "Marton",
    "updated_at": "2014-09-22T21:08:09.929670Z",
    "country": "gb",
    "parent": null,
    "longitude": -0.866666972637177,
    "latitude": 54.2332992553711,
    "regions": []
  },
  {
    "code": "2136e",
    "name": "Mathon",
    "updated_at": "2014-09-22T21:08:09.797749Z",
    "country": "gb",
    "parent": null,
    "longitude": -2.40000009536743,
    "latitude": 52.11669921875,
    "regions": []
  },
  {
    "code": "2136d",
    "name": "Mathry",
    "updated_at": "2014-09-22T21:08:09.781211Z",
    "country": "gb",
    "parent": null,
    "longitude": -5.08333015441895,
    "latitude": 51.9333000183105,
    "regions": []
  },
  {
    "code": "2136c",
    "name": "Matlock Bank",
    "updated_at": "2014-09-22T21:08:09.746851Z",
    "country": "gb",
    "parent": null,
    "longitude": -1.54999995231628,
    "latitude": 53.13330078125,
    "regions": []
  },
  {
    "code": "2136b",
    "name": "Mattishall",
    "updated_at": "2014-09-22T21:08:09.728666Z",
    "country": "gb",
    "parent": null,
    "longitude": 1.03332996368408,
    "latitude": 52.6500015258789,
    "regions": []
  },
  {
    "code": "2136a",
    "name": "Maulds Meaburn",
    "updated_at": "2014-09-22T21:08:09.688478Z",
    "country": "gb",
    "parent": null,
    "longitude": -2.56666994094849,
    "latitude": 54.5332984924316,
    "regions": []
  },
  {
    "code": "21369",
    "name": "Mayfield",
    "updated_at": "2014-09-22T21:08:09.637332Z",
    "country": "gb",
    "parent": null,
    "longitude": 0.25,
    "latitude": 51.0,
    "regions": []
  },
  {
    "code": "21368",
    "name": "Mealsgate",
    "updated_at": "2014-09-22T21:08:09.601735Z",
    "country": "gb",
    "parent": null,
    "longitude": -3.21667003631592,
    "latitude": 54.75,
    "regions": []
  },
  {
    "code": "21367",
    "name": "Meare",
    "updated_at": "2014-09-22T21:08:09.568700Z",
    "country": "gb",
    "parent": null,
    "longitude": -2.78332996368408,
    "latitude": 51.1666984558105,
    "regions": []
  },
  {
    "code": "21366",
    "name": "Meerbrook",
    "updated_at": "2014-09-22T21:08:09.525638Z",
    "country": "gb",
    "parent": null,
    "longitude": -2.0166699886322,
    "latitude": 53.1500015258789,
    "regions": []
  },
  {
    "code": "21365",
    "name": "Meeth",
    "updated_at": "2014-09-22T21:08:09.507810Z",
    "country": "gb",
    "parent": null,
    "longitude": -4.06666994094849,
    "latitude": 50.8499984741211,
    "regions": []
  },
  {
    "code": "21364",
    "name": "Meigle",
    "updated_at": "2014-09-22T21:08:09.489739Z",
    "country": "gb",
    "parent": null,
    "longitude": -3.15000009536743,
    "latitude": 56.5833015441895,
    "regions": []
  },
  {
    "code": "21363",
    "name": "Melling",
    "updated_at": "2014-09-22T21:08:09.411008Z",
    "country": "gb",
    "parent": null,
    "longitude": -2.61666989326477,
    "latitude": 54.11669921875,
    "regions": []
  },
  {
    "code": "21362",
    "name": "Mellis",
    "updated_at": "2014-09-22T21:08:09.384965Z",
    "country": "gb",
    "parent": null,
    "longitude": 1.08333003520966,
    "latitude": 52.3166999816895,
    "regions": []
  },
  {
    "code": "21361",
    "name": "Meltham",
    "updated_at": "2014-09-22T21:08:09.320398Z",
    "country": "gb",
    "parent": null,
    "longitude": -1.85000002384186,
    "latitude": 53.5833015441895,
    "regions": []
  },
  {
    "code": "21360",
    "name": "Melton Constable",
    "updated_at": "2014-09-22T21:08:09.286886Z",
    "country": "gb",
    "parent": null,
    "longitude": 1.03332996368408,
    "latitude": 52.8499984741211,
    "regions": []
  },
  {
    "code": "2135f",
    "name": "Melvaig",
    "updated_at": "2014-09-22T21:08:09.250362Z",
    "country": "gb",
    "parent": null,
    "longitude": -5.81666994094849,
    "latitude": 57.7999992370605,
    "regions": []
  },
  {
    "code": "2135e",
    "name": "Menheniot",
    "updated_at": "2014-09-22T21:08:09.216056Z",
    "country": "gb",
    "parent": null,
    "longitude": -4.41666984558105,
    "latitude": 50.4333000183105,
    "regions": []
  },
  {
    "code": "2135d",
    "name": "Mere",
    "updated_at": "2014-09-22T21:08:09.182135Z",
    "country": "gb",
    "parent": null,
    "longitude": -2.25,
    "latitude": 51.0833015441895,
    "regions": []
  },
  {
    "code": "2135c",
    "name": "Merston",
    "updated_at": "2014-09-22T21:08:09.133709Z",
    "country": "gb",
    "parent": null,
    "longitude": -0.733332991600037,
    "latitude": 50.8166999816895,
    "regions": []
  },
  {
    "code": "2135b",
    "name": "Meshaw",
    "updated_at": "2014-09-22T21:08:09.047582Z",
    "country": "gb",
    "parent": null,
    "longitude": -3.7666699886322,
    "latitude": 50.9667015075684,
    "regions": []
  },
  {
    "code": "2135a",
    "name": "Metfield",
    "updated_at": "2014-09-22T21:08:09.014489Z",
    "country": "gb",
    "parent": null,
    "longitude": 1.36667001247406,
    "latitude": 52.36669921875,
    "regions": []
  },
  {
    "code": "21359",
    "name": "Metheringham",
    "updated_at": "2014-09-22T21:08:08.998037Z",
    "country": "gb",
    "parent": null,
    "longitude": -0.400000005960464,
    "latitude": 53.13330078125,
    "regions": []
  },
  {
    "code": "21358",
    "name": "Michaelstow",
    "updated_at": "2014-09-22T21:08:08.892017Z",
    "country": "gb",
    "parent": null,
    "longitude": -4.69999980926514,
    "latitude": 50.5666999816895,
    "regions": []
  },
  {
    "code": "21357",
    "name": "Mickleton",
    "updated_at": "2014-09-22T21:08:08.814595Z",
    "country": "gb",
    "parent": null,
    "longitude": -1.7666699886322,
    "latitude": 52.0833015441895,
    "regions": []
  },
  {
    "code": "21356",
    "name": "Mickleton",
    "updated_at": "2014-09-22T21:08:08.779965Z",
    "country": "gb",
    "parent": null,
    "longitude": -2.04999995231628,
    "latitude": 54.5999984741211,
    "regions": []
  },
  {
    "code": "21355",
    "name": "Middleton",
    "updated_at": "2014-09-22T21:08:08.695379Z",
    "country": "gb",
    "parent": null,
    "longitude": -1.58333003520966,
    "latitude": 53.0833015441895,
    "regions": []
  },
  {
    "code": "21354",
    "name": "Middleton North Station",
    "updated_at": "2014-09-22T21:08:05.247101Z",
    "country": "gb",
    "parent": null,
    "longitude": -1.89999997615814,
    "latitude": 55.1500015258789,
    "regions": []
  },
  {
    "code": "21353",
    "name": "Middle Winterslow",
    "updated_at": "2014-09-22T21:08:05.179641Z",
    "country": "gb",
    "parent": null,
    "longitude": -1.64999997615814,
    "latitude": 51.0833015441895,
    "regions": []
  },
  {
    "code": "21352",
    "name": "Milborne Port",
    "updated_at": "2014-09-22T21:08:05.069098Z",
    "country": "gb",
    "parent": null,
    "longitude": -2.46667003631592,
    "latitude": 50.9667015075684,
    "regions": []
  },
  {
    "code": "21351",
    "name": "Milfield",
    "updated_at": "2014-09-22T21:08:05.036668Z",
    "country": "gb",
    "parent": null,
    "longitude": -2.09999990463257,
    "latitude": 55.5833015441895,
    "regions": []
  },
  {
    "code": "21350",
    "name": "Millbrook",
    "updated_at": "2014-09-22T21:08:04.987237Z",
    "country": "gb",
    "parent": null,
    "longitude": -4.18333005905151,
    "latitude": 50.36669921875,
    "regions": []
  },
  {
    "code": "2134f",
    "name": "Milnthorpe",
    "updated_at": "2014-09-22T21:08:04.881081Z",
    "country": "gb",
    "parent": null,
    "longitude": -2.5166699886322,
    "latitude": 54.3166999816895,
    "regions": []
  },
  {
    "code": "2134e",
    "name": "Milovaig",
    "updated_at": "2014-09-22T21:08:04.851474Z",
    "country": "gb",
    "parent": null,
    "longitude": -6.73332977294922,
    "latitude": 57.4500007629395,
    "regions": []
  },
  {
    "code": "2134d",
    "name": "Milton",
    "updated_at": "2014-09-22T21:08:04.821900Z",
    "country": "gb",
    "parent": null,
    "longitude": -4.5,
    "latitude": 57.3499984741211,
    "regions": []
  },
  {
    "code": "2134c",
    "name": "Minard",
    "updated_at": "2014-09-22T21:08:04.717734Z",
    "country": "gb",
    "parent": null,
    "longitude": -5.25,
    "latitude": 56.11669921875,
    "regions": []
  },
  {
    "code": "2134b",
    "name": "Minffordd",
    "updated_at": "2014-09-22T21:08:04.680454Z",
    "country": "gb",
    "parent": null,
    "longitude": -4.08333015441895,
    "latitude": 52.9166984558105,
    "regions": []
  },
  {
    "code": "2134a",
    "name": "Minsterley",
    "updated_at": "2014-09-22T21:08:04.640146Z",
    "country": "gb",
    "parent": null,
    "longitude": -2.93333005905151,
    "latitude": 52.63330078125,
    "regions": []
  },
  {
    "code": "21349",
    "name": "Mintlaw",
    "updated_at": "2014-09-22T21:08:04.595027Z",
    "country": "gb",
    "parent": null,
    "longitude": -2.0,
    "latitude": 57.5167007446289,
    "regions": []
  },
  {
    "code": "21348",
    "name": "Misterton",
    "updated_at": "2014-09-22T21:08:04.538594Z",
    "country": "gb",
    "parent": null,
    "longitude": -2.79999995231628,
    "latitude": 50.86669921875,
    "regions": []
  },
  {
    "code": "21347",
    "name": "Mobberley",
    "updated_at": "2014-09-22T21:08:04.463436Z",
    "country": "gb",
    "parent": null,
    "longitude": -2.31666994094849,
    "latitude": 53.3166999816895,
    "regions": []
  },
  {
    "code": "21346",
    "name": "Modbury",
    "updated_at": "2014-09-22T21:08:04.444818Z",
    "country": "gb",
    "parent": null,
    "longitude": -3.88333010673523,
    "latitude": 50.3499984741211,
    "regions": []
  },
  {
    "code": "21345",
    "name": "Mollington",
    "updated_at": "2014-09-22T21:08:04.282348Z",
    "country": "gb",
    "parent": null,
    "longitude": -2.91667008399963,
    "latitude": 53.2332992553711,
    "regions": []
  },
  {
    "code": "21344",
    "name": "Monkleigh",
    "updated_at": "2014-09-22T21:08:04.168324Z",
    "country": "gb",
    "parent": null,
    "longitude": -4.19999980926514,
    "latitude": 50.9667015075684,
    "regions": []
  },
  {
    "code": "21343",
    "name": "Monk Sherborne",
    "updated_at": "2014-09-22T21:08:04.132738Z",
    "country": "gb",
    "parent": null,
    "longitude": -1.11667001247406,
    "latitude": 51.2999992370605,
    "regions": []
  },
  {
    "code": "21342",
    "name": "Monkstadt",
    "updated_at": "2014-09-22T21:08:04.114913Z",
    "country": "gb",
    "parent": null,
    "longitude": -6.38332986831665,
    "latitude": 57.63330078125,
    "regions": []
  },
  {
    "code": "21341",
    "name": "Monkton",
    "updated_at": "2014-09-22T21:08:04.096741Z",
    "country": "gb",
    "parent": null,
    "longitude": -3.15000009536743,
    "latitude": 50.8166999816895,
    "regions": []
  },
  {
    "code": "21340",
    "name": "Monreith",
    "updated_at": "2014-09-22T21:08:04.060643Z",
    "country": "gb",
    "parent": null,
    "longitude": -4.55000019073486,
    "latitude": 54.7332992553711,
    "regions": []
  },
  {
    "code": "2133f",
    "name": "Monyash",
    "updated_at": "2014-09-22T21:08:04.000387Z",
    "country": "gb",
    "parent": null,
    "longitude": -1.7666699886322,
    "latitude": 53.1833000183105,
    "regions": []
  },
  {
    "code": "2133e",
    "name": "Moorsholm",
    "updated_at": "2014-09-22T21:08:03.984321Z",
    "country": "gb",
    "parent": null,
    "longitude": -0.933332979679108,
    "latitude": 54.5,
    "regions": []
  },
  {
    "code": "2133d",
    "name": "Morebattle",
    "updated_at": "2014-09-22T21:08:03.950070Z",
    "country": "gb",
    "parent": null,
    "longitude": -2.36666989326477,
    "latitude": 55.5167007446289,
    "regions": []
  },
  {
    "code": "2133c",
    "name": "Morfa Nefyn",
    "updated_at": "2014-09-22T21:08:03.831915Z",
    "country": "gb",
    "parent": null,
    "longitude": -4.53332996368408,
    "latitude": 52.9333000183105,
    "regions": []
  },
  {
    "code": "2133b",
    "name": "Morland",
    "updated_at": "2014-09-22T21:08:03.815811Z",
    "country": "gb",
    "parent": null,
    "longitude": -2.61666989326477,
    "latitude": 54.5833015441895,
    "regions": []
  },
  {
    "code": "2133a",
    "name": "Morvah",
    "updated_at": "2014-09-22T21:08:03.762984Z",
    "country": "gb",
    "parent": null,
    "longitude": -5.65000009536743,
    "latitude": 50.1666984558105,
    "regions": []
  },
  {
    "code": "21339",
    "name": "Morville",
    "updated_at": "2014-09-22T21:08:03.727125Z",
    "country": "gb",
    "parent": null,
    "longitude": -2.4833300113678,
    "latitude": 52.5332984924316,
    "regions": []
  },
  {
    "code": "21338",
    "name": "Morwenstow",
    "updated_at": "2014-09-22T21:08:03.702351Z",
    "country": "gb",
    "parent": null,
    "longitude": -4.55000019073486,
    "latitude": 50.9000015258789,
    "regions": []
  },
  {
    "code": "21337",
    "name": "Mosterton",
    "updated_at": "2014-09-22T21:08:03.656465Z",
    "country": "gb",
    "parent": null,
    "longitude": -2.7666699886322,
    "latitude": 50.8499984741211,
    "regions": []
  },
  {
    "code": "21336",
    "name": "Mouldsworth",
    "updated_at": "2014-09-22T21:08:03.574204Z",
    "country": "gb",
    "parent": null,
    "longitude": -2.7333300113678,
    "latitude": 53.2332992553711,
    "regions": []
  },
  {
    "code": "21335",
    "name": "Mouswald",
    "updated_at": "2014-09-22T21:08:03.470540Z",
    "country": "gb",
    "parent": null,
    "longitude": -3.46667003631592,
    "latitude": 55.0332984924316,
    "regions": []
  },
  {
    "code": "21334",
    "name": "Muchalls",
    "updated_at": "2014-09-22T21:08:03.433541Z",
    "country": "gb",
    "parent": null,
    "longitude": -2.16667008399963,
    "latitude": 57.0167007446289,
    "regions": []
  },
  {
    "code": "21333",
    "name": "Much Cowarne",
    "updated_at": "2014-09-22T21:08:03.392371Z",
    "country": "gb",
    "parent": null,
    "longitude": -2.56666994094849,
    "latitude": 52.11669921875,
    "regions": []
  },
  {
    "code": "21332",
    "name": "Much Dewchurch",
    "updated_at": "2014-09-22T21:08:03.369855Z",
    "country": "gb",
    "parent": null,
    "longitude": -2.75,
    "latitude": 51.9832992553711,
    "regions": []
  },
  {
    "code": "21331",
    "name": "Mulbarton",
    "updated_at": "2014-09-22T21:08:03.231321Z",
    "country": "gb",
    "parent": null,
    "longitude": 1.2333300113678,
    "latitude": 52.5499992370605,
    "regions": []
  },
  {
    "code": "21330",
    "name": "Island of Mull",
    "updated_at": "2014-09-22T21:08:03.213582Z",
    "country": "gb",
    "parent": null,
    "longitude": -5.90000009536743,
    "latitude": 56.4166984558105,
    "regions": []
  },
  {
    "code": "2132f",
    "name": "Mungrisdale",
    "updated_at": "2014-09-22T21:08:03.122944Z",
    "country": "gb",
    "parent": null,
    "longitude": -2.9833300113678,
    "latitude": 54.6500015258789,
    "regions": []
  },
  {
    "code": "2132e",
    "name": "Musbury",
    "updated_at": "2014-09-22T21:08:03.104728Z",
    "country": "gb",
    "parent": null,
    "longitude": -3.03332996368408,
    "latitude": 50.75,
    "regions": []
  },
  {
    "code": "2132d",
    "name": "Muston",
    "updated_at": "2014-09-22T21:08:03.059316Z",
    "country": "gb",
    "parent": null,
    "longitude": -0.769222,
    "latitude": 52.929706,
    "regions": []
  },
  {
    "code": "2132c",
    "name": "Mybster",
    "updated_at": "2014-09-22T21:08:03.036690Z",
    "country": "gb",
    "parent": null,
    "longitude": -3.41667008399963,
    "latitude": 58.4500007629395,
    "regions": []
  },
  {
    "code": "2132b",
    "name": "Myddfai",
    "updated_at": "2014-09-22T21:08:03.011084Z",
    "country": "gb",
    "parent": null,
    "longitude": -3.78332996368408,
    "latitude": 51.9500007629395,
    "regions": []
  },
  {
    "code": "2132a",
    "name": "Mydroilin",
    "updated_at": "2014-09-22T21:08:02.980820Z",
    "country": "gb",
    "parent": null,
    "longitude": -4.25,
    "latitude": 52.1666984558105,
    "regions": []
  },
  {
    "code": "21329",
    "name": "Mylor Bridge",
    "updated_at": "2014-09-22T21:08:02.950603Z",
    "country": "gb",
    "parent": null,
    "longitude": -5.05000019073486,
    "latitude": 50.1666984558105,
    "regions": []
  },
  {
    "code": "21328",
    "name": "Nantgaredig",
    "updated_at": "2014-09-22T21:08:02.829900Z",
    "country": "gb",
    "parent": null,
    "longitude": -4.16666984558105,
    "latitude": 51.86669921875,
    "regions": []
  },
  {
    "code": "21327",
    "name": "Nantlle",
    "updated_at": "2014-09-22T21:08:02.812043Z",
    "country": "gb",
    "parent": null,
    "longitude": -4.23332977294922,
    "latitude": 53.0499992370605,
    "regions": []
  },
  {
    "code": "21326",
    "name": "Nateby",
    "updated_at": "2014-09-22T21:08:02.701411Z",
    "country": "gb",
    "parent": null,
    "longitude": -2.34999990463257,
    "latitude": 54.4500007629395,
    "regions": []
  },
  {
    "code": "21325",
    "name": "Natland",
    "updated_at": "2014-09-22T21:08:02.671532Z",
    "country": "gb",
    "parent": null,
    "longitude": -2.7333300113678,
    "latitude": 54.2832984924316,
    "regions": []
  },
  {
    "code": "21324",
    "name": "Naunton",
    "updated_at": "2014-09-22T21:08:02.641134Z",
    "country": "gb",
    "parent": null,
    "longitude": -1.83333003520966,
    "latitude": 51.9000015258789,
    "regions": []
  },
  {
    "code": "21323",
    "name": "Nayland",
    "updated_at": "2014-09-22T21:08:02.589330Z",
    "country": "gb",
    "parent": null,
    "longitude": 0.883333027362823,
    "latitude": 51.9832992553711,
    "regions": []
  },
  {
    "code": "21322",
    "name": "Neatishead",
    "updated_at": "2014-09-22T21:08:02.553939Z",
    "country": "gb",
    "parent": null,
    "longitude": 1.46667003631592,
    "latitude": 52.7332992553711,
    "regions": []
  },
  {
    "code": "21321",
    "name": "Necton",
    "updated_at": "2014-09-22T21:08:02.533712Z",
    "country": "gb",
    "parent": null,
    "longitude": 0.783333003520966,
    "latitude": 52.6500015258789,
    "regions": []
  },
  {
    "code": "21320",
    "name": "Nedd",
    "updated_at": "2014-09-22T21:08:02.516058Z",
    "country": "gb",
    "parent": null,
    "longitude": -5.19999980926514,
    "latitude": 58.2332992553711,
    "regions": []
  },
  {
    "code": "2131f",
    "name": "Nenthead",
    "updated_at": "2014-09-22T21:08:02.499070Z",
    "country": "gb",
    "parent": null,
    "longitude": -2.33332991600037,
    "latitude": 54.7667007446289,
    "regions": []
  },
  {
    "code": "2131e",
    "name": "Neston",
    "updated_at": "2014-09-22T21:08:02.481021Z",
    "country": "gb",
    "parent": null,
    "longitude": -3.04999995231628,
    "latitude": 53.2832984924316,
    "regions": []
  },
  {
    "code": "2131d",
    "name": "Nettlebed",
    "updated_at": "2014-09-22T21:08:02.412264Z",
    "country": "gb",
    "parent": null,
    "longitude": -0.983332991600037,
    "latitude": 51.5666999816895,
    "regions": []
  },
  {
    "code": "2131c",
    "name": "Nettleton",
    "updated_at": "2014-09-22T21:08:02.387276Z",
    "country": "gb",
    "parent": null,
    "longitude": -0.31666699051857,
    "latitude": 53.4832992553711,
    "regions": []
  },
  {
    "code": "2131b",
    "name": "New Abbey",
    "updated_at": "2014-09-22T21:08:02.327339Z",
    "country": "gb",
    "parent": null,
    "longitude": -3.61666989326477,
    "latitude": 54.9832992553711,
    "regions": []
  },
  {
    "code": "2131a",
    "name": "Newbridge",
    "updated_at": "2014-09-22T21:08:02.175474Z",
    "country": "gb",
    "parent": null,
    "longitude": -1.41666996479034,
    "latitude": 50.6833000183105,
    "regions": []
  },
  {
    "code": "21319",
    "name": "New Brighton",
    "updated_at": "2014-09-22T21:08:02.130299Z",
    "country": "gb",
    "parent": null,
    "longitude": -3.03332996368408,
    "latitude": 53.4333000183105,
    "regions": []
  },
  {
    "code": "21318",
    "name": "New Buckenham",
    "updated_at": "2014-09-22T21:08:02.107124Z",
    "country": "gb",
    "parent": null,
    "longitude": 1.08333003520966,
    "latitude": 52.4667015075684,
    "regions": []
  },
  {
    "code": "21317",
    "name": "Newchurch",
    "updated_at": "2014-09-22T21:08:01.907365Z",
    "country": "gb",
    "parent": null,
    "longitude": -1.20000004768372,
    "latitude": 50.6666984558105,
    "regions": []
  },
  {
    "code": "21316",
    "name": "New Dailly",
    "updated_at": "2014-09-22T21:08:01.872598Z",
    "country": "gb",
    "parent": null,
    "longitude": -4.71667003631592,
    "latitude": 55.2667007446289,
    "regions": []
  },
  {
    "code": "21315",
    "name": "New Deer",
    "updated_at": "2014-09-22T21:08:01.850839Z",
    "country": "gb",
    "parent": null,
    "longitude": -2.20000004768372,
    "latitude": 57.5,
    "regions": []
  },
  {
    "code": "21314",
    "name": "Newick",
    "updated_at": "2014-09-22T21:08:01.754939Z",
    "country": "gb",
    "parent": null,
    "longitude": 0.0166666992008686,
    "latitude": 50.9667015075684,
    "regions": []
  },
  {
    "code": "21313",
    "name": "Newlyn",
    "updated_at": "2014-09-22T21:08:01.701056Z",
    "country": "gb",
    "parent": null,
    "longitude": -5.55000019073486,
    "latitude": 50.0999984741211,
    "regions": []
  },
  {
    "code": "21312",
    "name": "New Malden",
    "updated_at": "2014-09-22T21:08:01.669099Z",
    "country": "gb",
    "parent": null,
    "longitude": -0.25,
    "latitude": 51.4166984558105,
    "regions": []
  },
  {
    "code": "21311",
    "name": "New Mills",
    "updated_at": "2014-09-22T21:08:01.640302Z",
    "country": "gb",
    "parent": null,
    "longitude": -1.91666996479034,
    "latitude": 53.36669921875,
    "regions": []
  },
  {
    "code": "21310",
    "name": "Newnham",
    "updated_at": "2014-09-22T21:08:01.596866Z",
    "country": "gb",
    "parent": null,
    "longitude": 0.802173972129822,
    "latitude": 51.2834014892578,
    "regions": []
  },
  {
    "code": "2130f",
    "name": "Newnham",
    "updated_at": "2014-09-22T21:08:01.582408Z",
    "country": "gb",
    "parent": null,
    "longitude": -2.43333005905151,
    "latitude": 51.7999992370605,
    "regions": []
  },
  {
    "code": "2130e",
    "name": "New Radnor",
    "updated_at": "2014-09-22T21:08:01.522489Z",
    "country": "gb",
    "parent": null,
    "longitude": -3.13333010673523,
    "latitude": 52.25,
    "regions": []
  },
  {
    "code": "2130d",
    "name": "Newton",
    "updated_at": "2014-09-22T21:08:01.435878Z",
    "country": "gb",
    "parent": null,
    "longitude": -2.46667003631592,
    "latitude": 53.9500007629395,
    "regions": []
  },
  {
    "code": "2130c",
    "name": "Newton Ferrers",
    "updated_at": "2014-09-22T21:08:01.369722Z",
    "country": "gb",
    "parent": null,
    "longitude": -4.03332996368408,
    "latitude": 50.3166999816895,
    "regions": []
  },
  {
    "code": "2130b",
    "name": "Newtown",
    "updated_at": "2014-09-22T21:08:01.299811Z",
    "country": "gb",
    "parent": null,
    "longitude": -1.31666994094849,
    "latitude": 51.36669921875,
    "regions": []
  },
  {
    "code": "2130a",
    "name": "Ninfield",
    "updated_at": "2014-09-22T21:08:01.210974Z",
    "country": "gb",
    "parent": null,
    "longitude": 0.416667014360428,
    "latitude": 50.86669921875,
    "regions": []
  },
  {
    "code": "21309",
    "name": "Norbury",
    "updated_at": "2014-09-22T21:08:01.168984Z",
    "country": "gb",
    "parent": null,
    "longitude": -2.95000004768372,
    "latitude": 52.5332984924316,
    "regions": []
  },
  {
    "code": "21308",
    "name": "Normanby",
    "updated_at": "2014-09-22T21:08:01.133710Z",
    "country": "gb",
    "parent": null,
    "longitude": -0.866666972637177,
    "latitude": 54.2167015075684,
    "regions": []
  },
  {
    "code": "21307",
    "name": "North Acton",
    "updated_at": "2014-09-22T21:08:01.104721Z",
    "country": "gb",
    "parent": null,
    "longitude": -0.25,
    "latitude": 51.5167007446289,
    "regions": []
  },
  {
    "code": "21306",
    "name": "Northam",
    "updated_at": "2014-09-22T21:08:01.056942Z",
    "country": "gb",
    "parent": null,
    "longitude": -4.21667003631592,
    "latitude": 51.0332984924316,
    "regions": []
  },
  {
    "code": "21305",
    "name": "North Brewham",
    "updated_at": "2014-09-22T21:08:00.990914Z",
    "country": "gb",
    "parent": null,
    "longitude": -2.40000009536743,
    "latitude": 51.13330078125,
    "regions": []
  },
  {
    "code": "21304",
    "name": "North Burton",
    "updated_at": "2014-09-22T21:08:00.974582Z",
    "country": "gb",
    "parent": null,
    "longitude": -0.333332985639572,
    "latitude": 54.11669921875,
    "regions": []
  },
  {
    "code": "21303",
    "name": "North Creake",
    "updated_at": "2014-09-22T21:08:00.901656Z",
    "country": "gb",
    "parent": null,
    "longitude": 0.766667008399963,
    "latitude": 52.9000015258789,
    "regions": []
  },
  {
    "code": "21302",
    "name": "North Curry",
    "updated_at": "2014-09-22T21:08:00.877600Z",
    "country": "gb",
    "parent": null,
    "longitude": -2.96667003631592,
    "latitude": 51.0167007446289,
    "regions": []
  },
  {
    "code": "21301",
    "name": "North Dalton",
    "updated_at": "2014-09-22T21:08:00.856306Z",
    "country": "gb",
    "parent": null,
    "longitude": -0.566667020320892,
    "latitude": 53.9500007629395,
    "regions": []
  },
  {
    "code": "21300",
    "name": "North Huish",
    "updated_at": "2014-09-22T21:08:00.740635Z",
    "country": "gb",
    "parent": null,
    "longitude": -3.81666994094849,
    "latitude": 50.4000015258789,
    "regions": []
  },
  {
    "code": "212ff",
    "name": "Northiam",
    "updated_at": "2014-09-22T21:08:00.723726Z",
    "country": "gb",
    "parent": null,
    "longitude": 0.600000023841858,
    "latitude": 50.9832992553711,
    "regions": []
  },
  {
    "code": "212fe",
    "name": "North Kessock",
    "updated_at": "2014-09-22T21:08:00.706365Z",
    "country": "gb",
    "parent": null,
    "longitude": -4.25,
    "latitude": 57.5,
    "regions": []
  },
  {
    "code": "212fd",
    "name": "Northleach",
    "updated_at": "2014-09-22T21:08:00.631137Z",
    "country": "gb",
    "parent": null,
    "longitude": -1.81666994094849,
    "latitude": 51.8333015441895,
    "regions": []
  },
  {
    "code": "212fc",
    "name": "Northlew",
    "updated_at": "2014-09-22T21:08:00.601316Z",
    "country": "gb",
    "parent": null,
    "longitude": -4.11667013168335,
    "latitude": 50.7667007446289,
    "regions": []
  },
  {
    "code": "212fb",
    "name": "North Newton",
    "updated_at": "2014-09-22T21:08:00.574579Z",
    "country": "gb",
    "parent": null,
    "longitude": -3.0,
    "latitude": 51.0666999816895,
    "regions": []
  },
  {
    "code": "212fa",
    "name": "North Petherwin",
    "updated_at": "2014-09-22T21:08:00.455899Z",
    "country": "gb",
    "parent": null,
    "longitude": -4.43333005905151,
    "latitude": 50.6833000183105,
    "regions": []
  },
  {
    "code": "212f9",
    "name": "Northrepps",
    "updated_at": "2014-09-22T21:08:00.422631Z",
    "country": "gb",
    "parent": null,
    "longitude": 1.33333003520966,
    "latitude": 52.9000015258789,
    "regions": []
  },
  {
    "code": "212f8",
    "name": "North Ronaldshay",
    "updated_at": "2014-09-22T21:08:00.403827Z",
    "country": "gb",
    "parent": null,
    "longitude": -2.43333005905151,
    "latitude": 59.36669921875,
    "regions": []
  },
  {
    "code": "212f7",
    "name": "North Scarle",
    "updated_at": "2014-09-22T21:08:00.386525Z",
    "country": "gb",
    "parent": null,
    "longitude": -0.733332991600037,
    "latitude": 53.2000007629395,
    "regions": []
  },
  {
    "code": "212f6",
    "name": "North Tamerton",
    "updated_at": "2014-09-22T21:08:00.308354Z",
    "country": "gb",
    "parent": null,
    "longitude": -4.40000009536743,
    "latitude": 50.75,
    "regions": []
  },
  {
    "code": "212f5",
    "name": "North Tawton",
    "updated_at": "2014-09-22T21:08:00.272623Z",
    "country": "gb",
    "parent": null,
    "longitude": -3.90000009536743,
    "latitude": 50.7999992370605,
    "regions": []
  },
  {
    "code": "212f4",
    "name": "North Tuddenham",
    "updated_at": "2014-09-22T21:08:00.236726Z",
    "country": "gb",
    "parent": null,
    "longitude": 1.0166699886322,
    "latitude": 52.6833000183105,
    "regions": []
  },
  {
    "code": "212f3",
    "name": "North Willingham",
    "updated_at": "2014-09-22T21:08:00.140982Z",
    "country": "gb",
    "parent": null,
    "longitude": -0.25,
    "latitude": 53.38330078125,
    "regions": []
  },
  {
    "code": "212f2",
    "name": "Northwold",
    "updated_at": "2014-09-22T21:08:00.094784Z",
    "country": "gb",
    "parent": null,
    "longitude": 0.600000023841858,
    "latitude": 52.5499992370605,
    "regions": []
  },
  {
    "code": "212f1",
    "name": "Northwood",
    "updated_at": "2014-09-22T21:08:00.067855Z",
    "country": "gb",
    "parent": null,
    "longitude": -1.31666994094849,
    "latitude": 50.7332992553711,
    "regions": []
  },
  {
    "code": "212f0",
    "name": "North Wootton",
    "updated_at": "2014-09-22T21:08:00.008856Z",
    "country": "gb",
    "parent": null,
    "longitude": -2.63333010673523,
    "latitude": 51.1666984558105,
    "regions": []
  },
  {
    "code": "212ef",
    "name": "Norton",
    "updated_at": "2014-09-22T21:07:59.973605Z",
    "country": "gb",
    "parent": null,
    "longitude": -0.766667008399963,
    "latitude": 54.11669921875,
    "regions": []
  },
  {
    "code": "212ee",
    "name": "Nunnington",
    "updated_at": "2014-09-22T21:07:59.803828Z",
    "country": "gb",
    "parent": null,
    "longitude": -0.983332991600037,
    "latitude": 54.2000007629395,
    "regions": []
  },
  {
    "code": "212ed",
    "name": "Nynehead",
    "updated_at": "2014-09-22T21:07:59.702008Z",
    "country": "gb",
    "parent": null,
    "longitude": -3.20000004768372,
    "latitude": 51.0,
    "regions": []
  },
  {
    "code": "212ec",
    "name": "Oake",
    "updated_at": "2014-09-22T21:07:59.665901Z",
    "country": "gb",
    "parent": null,
    "longitude": -3.20000004768372,
    "latitude": 51.0167007446289,
    "regions": []
  },
  {
    "code": "212eb",
    "name": "Oakford",
    "updated_at": "2014-09-22T21:07:59.647776Z",
    "country": "gb",
    "parent": null,
    "longitude": -3.54999995231628,
    "latitude": 50.9832992553711,
    "regions": []
  },
  {
    "code": "212ea",
    "name": "Oakley",
    "updated_at": "2014-09-22T21:07:59.588773Z",
    "country": "gb",
    "parent": null,
    "longitude": -3.54999995231628,
    "latitude": 56.0666999816895,
    "regions": []
  },
  {
    "code": "212e9",
    "name": "Oakworth",
    "updated_at": "2014-09-22T21:07:59.563031Z",
    "country": "gb",
    "parent": null,
    "longitude": -1.96667003631592,
    "latitude": 53.8333015441895,
    "regions": []
  },
  {
    "code": "212e8",
    "name": "Occold",
    "updated_at": "2014-09-22T21:07:59.502108Z",
    "country": "gb",
    "parent": null,
    "longitude": 1.14999997615814,
    "latitude": 52.2832984924316,
    "regions": []
  },
  {
    "code": "212e7",
    "name": "Old Bolingbroke",
    "updated_at": "2014-09-22T21:07:59.370799Z",
    "country": "gb",
    "parent": null,
    "longitude": 0.0166666992008686,
    "latitude": 53.1500015258789,
    "regions": []
  },
  {
    "code": "212e6",
    "name": "Old Brampton",
    "updated_at": "2014-09-22T21:07:59.352565Z",
    "country": "gb",
    "parent": null,
    "longitude": -1.5,
    "latitude": 53.2332992553711,
    "regions": []
  },
  {
    "code": "212e5",
    "name": "Old Byland",
    "updated_at": "2014-09-22T21:07:59.298795Z",
    "country": "gb",
    "parent": null,
    "longitude": -1.14999997615814,
    "latitude": 54.2667007446289,
    "regions": []
  },
  {
    "code": "212e4",
    "name": "Old Hutton",
    "updated_at": "2014-09-22T21:07:59.237883Z",
    "country": "gb",
    "parent": null,
    "longitude": -2.66667008399963,
    "latitude": 54.2667007446289,
    "regions": []
  },
  {
    "code": "212e3",
    "name": "Old Leake",
    "updated_at": "2014-09-22T21:07:59.202704Z",
    "country": "gb",
    "parent": null,
    "longitude": 0.100000001490116,
    "latitude": 53.0167007446289,
    "regions": []
  },
  {
    "code": "212e2",
    "name": "Old Malton",
    "updated_at": "2014-09-22T21:07:59.174309Z",
    "country": "gb",
    "parent": null,
    "longitude": -0.75,
    "latitude": 54.13330078125,
    "regions": []
  },
  {
    "code": "212e1",
    "name": "Old Newton",
    "updated_at": "2014-09-22T21:07:59.136658Z",
    "country": "gb",
    "parent": null,
    "longitude": 1.0166699886322,
    "latitude": 52.2167015075684,
    "regions": []
  },
  {
    "code": "212e0",
    "name": "Ollerton",
    "updated_at": "2014-09-22T21:07:59.099735Z",
    "country": "gb",
    "parent": null,
    "longitude": -1.0166699886322,
    "latitude": 53.2167015075684,
    "regions": []
  },
  {
    "code": "212df",
    "name": "Olney",
    "updated_at": "2014-09-22T21:07:59.080997Z",
    "country": "gb",
    "parent": null,
    "longitude": -0.699999988079071,
    "latitude": 52.1500015258789,
    "regions": []
  },
  {
    "code": "212de",
    "name": "Onecote",
    "updated_at": "2014-09-22T21:07:59.028497Z",
    "country": "gb",
    "parent": null,
    "longitude": -1.93333005905151,
    "latitude": 53.0833015441895,
    "regions": []
  },
  {
    "code": "212dd",
    "name": "Onibury",
    "updated_at": "2014-09-22T21:07:58.998396Z",
    "country": "gb",
    "parent": null,
    "longitude": -2.79999995231628,
    "latitude": 52.4000015258789,
    "regions": []
  },
  {
    "code": "212dc",
    "name": "Orleton",
    "updated_at": "2014-09-22T21:07:58.908232Z",
    "country": "gb",
    "parent": null,
    "longitude": -2.75,
    "latitude": 52.2999992370605,
    "regions": []
  },
  {
    "code": "212db",
    "name": "Osmington",
    "updated_at": "2014-09-22T21:07:58.790951Z",
    "country": "gb",
    "parent": null,
    "longitude": -2.36666989326477,
    "latitude": 50.63330078125,
    "regions": []
  },
  {
    "code": "212da",
    "name": "Osmotherley",
    "updated_at": "2014-09-22T21:07:58.763722Z",
    "country": "gb",
    "parent": null,
    "longitude": -1.29999995231628,
    "latitude": 54.36669921875,
    "regions": []
  },
  {
    "code": "212d9",
    "name": "Oswaldkirk",
    "updated_at": "2014-09-22T21:07:58.733000Z",
    "country": "gb",
    "parent": null,
    "longitude": -1.04999995231628,
    "latitude": 54.2000007629395,
    "regions": []
  },
  {
    "code": "212d8",
    "name": "Otley",
    "updated_at": "2014-09-22T21:07:58.665916Z",
    "country": "gb",
    "parent": null,
    "longitude": 1.2333300113678,
    "latitude": 52.1500015258789,
    "regions": []
  },
  {
    "code": "212d7",
    "name": "Otterham",
    "updated_at": "2014-09-22T21:07:58.613450Z",
    "country": "gb",
    "parent": null,
    "longitude": -4.59999990463257,
    "latitude": 50.6833000183105,
    "regions": []
  },
  {
    "code": "212d6",
    "name": "Otterton",
    "updated_at": "2014-09-22T21:07:58.579248Z",
    "country": "gb",
    "parent": null,
    "longitude": -3.29999995231628,
    "latitude": 50.6666984558105,
    "regions": []
  },
  {
    "code": "212d5",
    "name": "Oulton",
    "updated_at": "2014-09-22T21:07:58.534924Z",
    "country": "gb",
    "parent": null,
    "longitude": 1.16666996479034,
    "latitude": 52.8166999816895,
    "regions": []
  },
  {
    "code": "212d4",
    "name": "Outhgill",
    "updated_at": "2014-09-22T21:07:58.475779Z",
    "country": "gb",
    "parent": null,
    "longitude": -2.33332991600037,
    "latitude": 54.4000015258789,
    "regions": []
  },
  {
    "code": "212d3",
    "name": "Overton",
    "updated_at": "2014-09-22T21:07:58.370500Z",
    "country": "gb",
    "parent": null,
    "longitude": -1.25,
    "latitude": 51.2332992553711,
    "regions": []
  },
  {
    "code": "212d2",
    "name": "Ovington",
    "updated_at": "2014-09-22T21:07:58.352452Z",
    "country": "gb",
    "parent": null,
    "longitude": 0.833333015441895,
    "latitude": 52.5833015441895,
    "regions": []
  },
  {
    "code": "212d1",
    "name": "Ower",
    "updated_at": "2014-09-22T21:07:58.334351Z",
    "country": "gb",
    "parent": null,
    "longitude": -1.53332996368408,
    "latitude": 50.9333000183105,
    "regions": []
  },
  {
    "code": "212d0",
    "name": "Oyne",
    "updated_at": "2014-09-22T21:07:58.206144Z",
    "country": "gb",
    "parent": null,
    "longitude": -2.53332996368408,
    "latitude": 57.3166999816895,
    "regions": []
  },
  {
    "code": "212cf",
    "name": "Pagham",
    "updated_at": "2014-09-22T21:07:58.125828Z",
    "country": "gb",
    "parent": null,
    "longitude": -0.75,
    "latitude": 50.7667007446289,
    "regions": []
  },
  {
    "code": "212ce",
    "name": "Pakefield",
    "updated_at": "2014-09-22T21:07:58.052869Z",
    "country": "gb",
    "parent": null,
    "longitude": 1.7333300113678,
    "latitude": 52.4500007629395,
    "regions": []
  },
  {
    "code": "212cd",
    "name": "Sea Palling",
    "updated_at": "2014-09-22T21:07:58.029250Z",
    "country": "gb",
    "parent": null,
    "longitude": 1.60000002384186,
    "latitude": 52.7832984924316,
    "regions": []
  },
  {
    "code": "212cc",
    "name": "Palnackie",
    "updated_at": "2014-09-22T21:07:58.002605Z",
    "country": "gb",
    "parent": null,
    "longitude": -3.83332991600037,
    "latitude": 54.88330078125,
    "regions": []
  },
  {
    "code": "212cb",
    "name": "Parkham",
    "updated_at": "2014-09-22T21:07:57.844526Z",
    "country": "gb",
    "parent": null,
    "longitude": -4.30000019073486,
    "latitude": 50.9667015075684,
    "regions": []
  },
  {
    "code": "212ca",
    "name": "Parwich",
    "updated_at": "2014-09-22T21:07:57.809730Z",
    "country": "gb",
    "parent": null,
    "longitude": -1.71667003631592,
    "latitude": 53.0833015441895,
    "regions": []
  },
  {
    "code": "212c9",
    "name": "Paston",
    "updated_at": "2014-09-22T21:07:57.792443Z",
    "country": "gb",
    "parent": null,
    "longitude": 1.45000004768372,
    "latitude": 52.8499984741211,
    "regions": []
  },
  {
    "code": "212c8",
    "name": "Patna",
    "updated_at": "2014-09-22T21:07:57.744858Z",
    "country": "gb",
    "parent": null,
    "longitude": -4.5,
    "latitude": 55.3499984741211,
    "regions": []
  },
  {
    "code": "212c7",
    "name": "Paxton",
    "updated_at": "2014-09-22T21:07:57.636737Z",
    "country": "gb",
    "parent": null,
    "longitude": -2.09999990463257,
    "latitude": 55.7667007446289,
    "regions": []
  },
  {
    "code": "212c6",
    "name": "Peak Forest",
    "updated_at": "2014-09-22T21:07:57.612092Z",
    "country": "gb",
    "parent": null,
    "longitude": -1.81666994094849,
    "latitude": 53.2999992370605,
    "regions": []
  },
  {
    "code": "212c5",
    "name": "Pearsie",
    "updated_at": "2014-09-22T21:07:57.595831Z",
    "country": "gb",
    "parent": null,
    "longitude": -3.04999995231628,
    "latitude": 56.7167015075684,
    "regions": []
  },
  {
    "code": "212c4",
    "name": "Peasmarsh",
    "updated_at": "2014-09-22T21:07:57.578358Z",
    "country": "gb",
    "parent": null,
    "longitude": 0.683332979679108,
    "latitude": 50.9667015075684,
    "regions": []
  },
  {
    "code": "212c3",
    "name": "Pembridge",
    "updated_at": "2014-09-22T21:07:57.511272Z",
    "country": "gb",
    "parent": null,
    "longitude": -2.90000009536743,
    "latitude": 52.2167015075684,
    "regions": []
  },
  {
    "code": "212c2",
    "name": "Pembury",
    "updated_at": "2014-09-22T21:07:57.445089Z",
    "country": "gb",
    "parent": null,
    "longitude": 0.31666699051857,
    "latitude": 51.13330078125,
    "regions": []
  },
  {
    "code": "212c1",
    "name": "Penbryn",
    "updated_at": "2014-09-22T21:07:57.397471Z",
    "country": "gb",
    "parent": null,
    "longitude": -4.5,
    "latitude": 52.13330078125,
    "regions": []
  },
  {
    "code": "212c0",
    "name": "Pendleton",
    "updated_at": "2014-09-22T21:07:57.261040Z",
    "country": "gb",
    "parent": null,
    "longitude": -2.36666989326477,
    "latitude": 53.8499984741211,
    "regions": []
  },
  {
    "code": "212bf",
    "name": "Penhurst",
    "updated_at": "2014-09-22T21:07:57.243856Z",
    "country": "gb",
    "parent": null,
    "longitude": 0.416667014360428,
    "latitude": 50.9166984558105,
    "regions": []
  },
  {
    "code": "212be",
    "name": "Penmachno",
    "updated_at": "2014-09-22T21:07:57.156157Z",
    "country": "gb",
    "parent": null,
    "longitude": -3.79999995231628,
    "latitude": 53.0332984924316,
    "regions": []
  },
  {
    "code": "212bd",
    "name": "Pennal",
    "updated_at": "2014-09-22T21:07:57.128421Z",
    "country": "gb",
    "parent": null,
    "longitude": -3.91667008399963,
    "latitude": 52.5833015441895,
    "regions": []
  },
  {
    "code": "212bc",
    "name": "Pennant",
    "updated_at": "2014-09-22T21:07:57.056239Z",
    "country": "gb",
    "parent": null,
    "longitude": -4.18333005905151,
    "latitude": 52.25,
    "regions": []
  },
  {
    "code": "212bb",
    "name": "Pensax",
    "updated_at": "2014-09-22T21:07:56.986115Z",
    "country": "gb",
    "parent": null,
    "longitude": -2.40000009536743,
    "latitude": 52.3166999816895,
    "regions": []
  },
  {
    "code": "212ba",
    "name": "Penselwood",
    "updated_at": "2014-09-22T21:07:56.968154Z",
    "country": "gb",
    "parent": null,
    "longitude": -2.34999990463257,
    "latitude": 51.0833015441895,
    "regions": []
  },
  {
    "code": "212b9",
    "name": "Pentewan",
    "updated_at": "2014-09-22T21:07:56.935663Z",
    "country": "gb",
    "parent": null,
    "longitude": -4.78332996368408,
    "latitude": 50.2832984924316,
    "regions": []
  },
  {
    "code": "212b8",
    "name": "Pentrich",
    "updated_at": "2014-09-22T21:07:56.880570Z",
    "country": "gb",
    "parent": null,
    "longitude": -1.41666996479034,
    "latitude": 53.0499992370605,
    "regions": []
  },
  {
    "code": "212b7",
    "name": "Peterchurch",
    "updated_at": "2014-09-22T21:07:56.719501Z",
    "country": "gb",
    "parent": null,
    "longitude": -2.95000004768372,
    "latitude": 52.0332984924316,
    "regions": []
  },
  {
    "code": "212b6",
    "name": "Pett",
    "updated_at": "2014-09-22T21:07:56.643218Z",
    "country": "gb",
    "parent": null,
    "longitude": 0.666666984558105,
    "latitude": 50.88330078125,
    "regions": []
  },
  {
    "code": "212b5",
    "name": "Piddletrenthide",
    "updated_at": "2014-09-22T21:07:56.574084Z",
    "country": "gb",
    "parent": null,
    "longitude": -2.41667008399963,
    "latitude": 50.7832984924316,
    "regions": []
  },
  {
    "code": "212b4",
    "name": "Pilling",
    "updated_at": "2014-09-22T21:07:56.555593Z",
    "country": "gb",
    "parent": null,
    "longitude": -2.91667008399963,
    "latitude": 53.9333000183105,
    "regions": []
  },
  {
    "code": "212b3",
    "name": "Pilsley",
    "updated_at": "2014-09-22T21:07:56.527657Z",
    "country": "gb",
    "parent": null,
    "longitude": -1.36667001247406,
    "latitude": 53.1500015258789,
    "regions": []
  },
  {
    "code": "212b2",
    "name": "Pilton",
    "updated_at": "2014-09-22T21:07:56.498780Z",
    "country": "gb",
    "parent": null,
    "longitude": -2.58332991600037,
    "latitude": 51.1666984558105,
    "regions": []
  },
  {
    "code": "212b1",
    "name": "Pinmore",
    "updated_at": "2014-09-22T21:07:56.465549Z",
    "country": "gb",
    "parent": null,
    "longitude": -4.81666994094849,
    "latitude": 55.1833000183105,
    "regions": []
  },
  {
    "code": "212b0",
    "name": "Pirnmill",
    "updated_at": "2014-09-22T21:07:56.442355Z",
    "country": "gb",
    "parent": null,
    "longitude": -5.38332986831665,
    "latitude": 55.63330078125,
    "regions": []
  },
  {
    "code": "212af",
    "name": "Pistyll",
    "updated_at": "2014-09-22T21:07:56.426256Z",
    "country": "gb",
    "parent": null,
    "longitude": -4.48332977294922,
    "latitude": 52.9500007629395,
    "regions": []
  },
  {
    "code": "212ae",
    "name": "Pitchford",
    "updated_at": "2014-09-22T21:07:56.409593Z",
    "country": "gb",
    "parent": null,
    "longitude": -2.66667008399963,
    "latitude": 52.63330078125,
    "regions": []
  },
  {
    "code": "212ad",
    "name": "Pittenweem",
    "updated_at": "2014-09-22T21:07:56.378858Z",
    "country": "gb",
    "parent": null,
    "longitude": -2.7333300113678,
    "latitude": 56.2000007629395,
    "regions": []
  },
  {
    "code": "212ac",
    "name": "Plaidy",
    "updated_at": "2014-09-22T21:07:56.361117Z",
    "country": "gb",
    "parent": null,
    "longitude": -2.45000004768372,
    "latitude": 57.5666999816895,
    "regions": []
  },
  {
    "code": "212ab",
    "name": "Playden",
    "updated_at": "2014-09-22T21:07:56.344629Z",
    "country": "gb",
    "parent": null,
    "longitude": 0.733332991600037,
    "latitude": 50.9500007629395,
    "regions": []
  },
  {
    "code": "212aa",
    "name": "Plockton",
    "updated_at": "2014-09-22T21:07:56.326008Z",
    "country": "gb",
    "parent": null,
    "longitude": -5.65000009536743,
    "latitude": 57.3333015441895,
    "regions": []
  },
  {
    "code": "212a9",
    "name": "Plumb Bridge",
    "updated_at": "2014-09-22T21:07:56.280804Z",
    "country": "gb",
    "parent": null,
    "longitude": -7.25,
    "latitude": 54.7667007446289,
    "regions": []
  },
  {
    "code": "212a8",
    "name": "Plymtree",
    "updated_at": "2014-09-22T21:07:56.214587Z",
    "country": "gb",
    "parent": null,
    "longitude": -3.34999990463257,
    "latitude": 50.8166999816895,
    "regions": []
  },
  {
    "code": "212a7",
    "name": "Pollachar",
    "updated_at": "2014-09-22T21:07:56.142898Z",
    "country": "gb",
    "parent": null,
    "longitude": -7.36667013168335,
    "latitude": 57.11669921875,
    "regions": []
  },
  {
    "code": "212a6",
    "name": "Pollington",
    "updated_at": "2014-09-22T21:07:56.126768Z",
    "country": "gb",
    "parent": null,
    "longitude": -1.06666994094849,
    "latitude": 53.6666984558105,
    "regions": []
  },
  {
    "code": "212a5",
    "name": "Polloch",
    "updated_at": "2014-09-22T21:07:56.110374Z",
    "country": "gb",
    "parent": null,
    "longitude": -5.59999990463257,
    "latitude": 55.75,
    "regions": []
  },
  {
    "code": "212a4",
    "name": "Polperro",
    "updated_at": "2014-09-22T21:07:56.078835Z",
    "country": "gb",
    "parent": null,
    "longitude": -4.51667022705078,
    "latitude": 50.3333015441895,
    "regions": []
  },
  {
    "code": "212a3",
    "name": "Polruan",
    "updated_at": "2014-09-22T21:07:56.062466Z",
    "country": "gb",
    "parent": null,
    "longitude": -4.61667013168335,
    "latitude": 50.3166999816895,
    "regions": []
  },
  {
    "code": "212a2",
    "name": "Polstead",
    "updated_at": "2014-09-22T21:07:56.045963Z",
    "country": "gb",
    "parent": null,
    "longitude": 0.899999976158142,
    "latitude": 52.0,
    "regions": []
  },
  {
    "code": "212a1",
    "name": "Polton",
    "updated_at": "2014-09-22T21:07:56.028168Z",
    "country": "gb",
    "parent": null,
    "longitude": -3.13333010673523,
    "latitude": 55.86669921875,
    "regions": []
  },
  {
    "code": "212a0",
    "name": "Porkellis",
    "updated_at": "2014-09-22T21:07:55.797563Z",
    "country": "gb",
    "parent": null,
    "longitude": -5.23332977294922,
    "latitude": 50.1500015258789,
    "regions": []
  },
  {
    "code": "2129f",
    "name": "Port Appin",
    "updated_at": "2014-09-22T21:07:55.752474Z",
    "country": "gb",
    "parent": null,
    "longitude": -5.40000009536743,
    "latitude": 56.5499992370605,
    "regions": []
  },
  {
    "code": "2129e",
    "name": "Portesham",
    "updated_at": "2014-09-22T21:07:55.683075Z",
    "country": "gb",
    "parent": null,
    "longitude": -2.56666994094849,
    "latitude": 50.6666984558105,
    "regions": []
  },
  {
    "code": "2129d",
    "name": "Portessie",
    "updated_at": "2014-09-22T21:07:55.661255Z",
    "country": "gb",
    "parent": null,
    "longitude": -2.91667008399963,
    "latitude": 57.6666984558105,
    "regions": []
  },
  {
    "code": "2129c",
    "name": "Port-Eynon",
    "updated_at": "2014-09-22T21:07:55.636425Z",
    "country": "gb",
    "parent": null,
    "longitude": -4.21667003631592,
    "latitude": 51.5332984924316,
    "regions": []
  },
  {
    "code": "2129b",
    "name": "Porthallow",
    "updated_at": "2014-09-22T21:07:55.605550Z",
    "country": "gb",
    "parent": null,
    "longitude": -5.08333015441895,
    "latitude": 50.0666999816895,
    "regions": []
  },
  {
    "code": "2129a",
    "name": "Port Henderson",
    "updated_at": "2014-09-22T21:07:55.556712Z",
    "country": "gb",
    "parent": null,
    "longitude": -5.78332996368408,
    "latitude": 57.7000007629395,
    "regions": []
  },
  {
    "code": "21299",
    "name": "Porthgain",
    "updated_at": "2014-09-22T21:07:55.539336Z",
    "country": "gb",
    "parent": null,
    "longitude": -5.18333005905151,
    "latitude": 51.9333000183105,
    "regions": []
  },
  {
    "code": "21298",
    "name": "Portknockie",
    "updated_at": "2014-09-22T21:07:55.449042Z",
    "country": "gb",
    "parent": null,
    "longitude": -2.84999990463257,
    "latitude": 57.6833000183105,
    "regions": []
  },
  {
    "code": "21297",
    "name": "Portmahomack",
    "updated_at": "2014-09-22T21:07:55.395741Z",
    "country": "gb",
    "parent": null,
    "longitude": -3.79999995231628,
    "latitude": 57.8333015441895,
    "regions": []
  },
  {
    "code": "21296",
    "name": "Portmellon",
    "updated_at": "2014-09-22T21:07:55.373673Z",
    "country": "gb",
    "parent": null,
    "longitude": -4.76667022705078,
    "latitude": 50.25,
    "regions": []
  },
  {
    "code": "21295",
    "name": "Potter Heigham",
    "updated_at": "2014-09-22T21:07:55.099204Z",
    "country": "gb",
    "parent": null,
    "longitude": 1.58333003520966,
    "latitude": 52.7167015075684,
    "regions": []
  },
  {
    "code": "21294",
    "name": "Potterne",
    "updated_at": "2014-09-22T21:07:55.077571Z",
    "country": "gb",
    "parent": null,
    "longitude": -2.0166699886322,
    "latitude": 51.3166999816895,
    "regions": []
  },
  {
    "code": "21293",
    "name": "Poughill",
    "updated_at": "2014-09-22T21:07:55.001321Z",
    "country": "gb",
    "parent": null,
    "longitude": -3.61666989326477,
    "latitude": 50.86669921875,
    "regions": []
  },
  {
    "code": "21292",
    "name": "Powerstock",
    "updated_at": "2014-09-22T21:07:54.930819Z",
    "country": "gb",
    "parent": null,
    "longitude": -2.68333005905151,
    "latitude": 50.7667007446289,
    "regions": []
  },
  {
    "code": "21291",
    "name": "Poynings",
    "updated_at": "2014-09-22T21:07:54.880661Z",
    "country": "gb",
    "parent": null,
    "longitude": -0.200000002980232,
    "latitude": 50.88330078125,
    "regions": []
  },
  {
    "code": "21290",
    "name": "Preston",
    "updated_at": "2014-09-22T21:07:54.778262Z",
    "country": "gb",
    "parent": null,
    "longitude": -2.41667008399963,
    "latitude": 50.6500015258789,
    "regions": []
  },
  {
    "code": "2128f",
    "name": "Preston Wynne",
    "updated_at": "2014-09-22T21:07:54.686673Z",
    "country": "gb",
    "parent": null,
    "longitude": -2.63333010673523,
    "latitude": 52.11669921875,
    "regions": []
  },
  {
    "code": "2128e",
    "name": "Priddy",
    "updated_at": "2014-09-22T21:07:54.646269Z",
    "country": "gb",
    "parent": null,
    "longitude": -2.7666699886322,
    "latitude": 51.25,
    "regions": []
  },
  {
    "code": "2128d",
    "name": "Princetown",
    "updated_at": "2014-09-22T21:07:54.629913Z",
    "country": "gb",
    "parent": null,
    "longitude": -4.0,
    "latitude": 50.5499992370605,
    "regions": []
  },
  {
    "code": "2128c",
    "name": "Priors Marston",
    "updated_at": "2014-09-22T21:07:54.612222Z",
    "country": "gb",
    "parent": null,
    "longitude": -1.28332996368408,
    "latitude": 52.2000007629395,
    "regions": []
  },
  {
    "code": "2128b",
    "name": "Pumpsaint",
    "updated_at": "2014-09-22T21:07:51.060350Z",
    "country": "gb",
    "parent": null,
    "longitude": -3.95000004768372,
    "latitude": 52.0332984924316,
    "regions": []
  },
  {
    "code": "2128a",
    "name": "Purton",
    "updated_at": "2014-09-22T21:07:50.985372Z",
    "country": "gb",
    "parent": null,
    "longitude": -1.86667001247406,
    "latitude": 51.5833015441895,
    "regions": []
  },
  {
    "code": "21289",
    "name": "Putley",
    "updated_at": "2014-09-22T21:07:50.968632Z",
    "country": "gb",
    "parent": null,
    "longitude": -2.5166699886322,
    "latitude": 52.0332984924316,
    "regions": []
  },
  {
    "code": "21288",
    "name": "Pyworthy",
    "updated_at": "2014-09-22T21:07:50.903568Z",
    "country": "gb",
    "parent": null,
    "longitude": -4.40000009536743,
    "latitude": 50.7999992370605,
    "regions": []
  },
  {
    "code": "21287",
    "name": "Queenborough",
    "updated_at": "2014-09-22T21:07:50.881447Z",
    "country": "gb",
    "parent": null,
    "longitude": 0.766667008399963,
    "latitude": 51.4166984558105,
    "regions": []
  },
  {
    "code": "21286",
    "name": "Quenington",
    "updated_at": "2014-09-22T21:07:50.823861Z",
    "country": "gb",
    "parent": null,
    "longitude": -1.78332996368408,
    "latitude": 51.7167015075684,
    "regions": []
  },
  {
    "code": "21285",
    "name": "Ratho",
    "updated_at": "2014-09-22T21:07:50.520788Z",
    "country": "gb",
    "parent": null,
    "longitude": -3.36666989326477,
    "latitude": 55.9166984558105,
    "regions": []
  },
  {
    "code": "21284",
    "name": "Ratley",
    "updated_at": "2014-09-22T21:07:50.504332Z",
    "country": "gb",
    "parent": null,
    "longitude": -1.43333005905151,
    "latitude": 52.11669921875,
    "regions": []
  },
  {
    "code": "21283",
    "name": "Rattlesden",
    "updated_at": "2014-09-22T21:07:50.488366Z",
    "country": "gb",
    "parent": null,
    "longitude": 0.883333027362823,
    "latitude": 52.1833000183105,
    "regions": []
  },
  {
    "code": "21282",
    "name": "Rattray",
    "updated_at": "2014-09-22T21:07:50.472153Z",
    "country": "gb",
    "parent": null,
    "longitude": -3.31666994094849,
    "latitude": 56.5833015441895,
    "regions": []
  },
  {
    "code": "21281",
    "name": "Ravenstonedale",
    "updated_at": "2014-09-22T21:07:50.422696Z",
    "country": "gb",
    "parent": null,
    "longitude": -2.41667008399963,
    "latitude": 54.4166984558105,
    "regions": []
  },
  {
    "code": "21280",
    "name": "Rawreth",
    "updated_at": "2014-09-22T21:07:50.403625Z",
    "country": "gb",
    "parent": null,
    "longitude": 0.566667020320892,
    "latitude": 51.5999984741211,
    "regions": []
  },
  {
    "code": "2127f",
    "name": "Redisham",
    "updated_at": "2014-09-22T21:07:50.216515Z",
    "country": "gb",
    "parent": null,
    "longitude": 1.53332996368408,
    "latitude": 52.4000015258789,
    "regions": []
  },
  {
    "code": "2127e",
    "name": "Reedham",
    "updated_at": "2014-09-22T21:07:50.120529Z",
    "country": "gb",
    "parent": null,
    "longitude": 1.56666994094849,
    "latitude": 52.5499992370605,
    "regions": []
  },
  {
    "code": "2127d",
    "name": "Reighton",
    "updated_at": "2014-09-22T21:07:50.028898Z",
    "country": "gb",
    "parent": null,
    "longitude": -0.266667008399963,
    "latitude": 54.1500015258789,
    "regions": []
  },
  {
    "code": "2127c",
    "name": "Rendlesham",
    "updated_at": "2014-09-22T21:07:49.992104Z",
    "country": "gb",
    "parent": null,
    "longitude": 1.41666996479034,
    "latitude": 52.11669921875,
    "regions": []
  },
  {
    "code": "2127b",
    "name": "Reston",
    "updated_at": "2014-09-22T21:07:49.955027Z",
    "country": "gb",
    "parent": null,
    "longitude": -2.18333005905151,
    "latitude": 55.8499984741211,
    "regions": []
  },
  {
    "code": "2127a",
    "name": "Rhiw",
    "updated_at": "2014-09-22T21:07:49.900179Z",
    "country": "gb",
    "parent": null,
    "longitude": -4.63332986831665,
    "latitude": 52.8166999816895,
    "regions": []
  },
  {
    "code": "21279",
    "name": "Rhosneigr",
    "updated_at": "2014-09-22T21:07:49.855198Z",
    "country": "gb",
    "parent": null,
    "longitude": -4.51667022705078,
    "latitude": 53.2332992553711,
    "regions": []
  },
  {
    "code": "21278",
    "name": "Rhymney",
    "updated_at": "2014-09-22T21:07:49.706655Z",
    "country": "gb",
    "parent": null,
    "longitude": -3.28332996368408,
    "latitude": 51.7667007446289,
    "regions": []
  },
  {
    "code": "21277",
    "name": "Ribchester",
    "updated_at": "2014-09-22T21:07:49.690654Z",
    "country": "gb",
    "parent": null,
    "longitude": -2.53332996368408,
    "latitude": 53.7999992370605,
    "regions": []
  },
  {
    "code": "21276",
    "name": "Riccall",
    "updated_at": "2014-09-22T21:07:49.673868Z",
    "country": "gb",
    "parent": null,
    "longitude": -1.04999995231628,
    "latitude": 53.8333015441895,
    "regions": []
  },
  {
    "code": "21275",
    "name": "Ridsdale",
    "updated_at": "2014-09-22T21:07:49.561859Z",
    "country": "gb",
    "parent": null,
    "longitude": -2.13333010673523,
    "latitude": 55.1500015258789,
    "regions": []
  },
  {
    "code": "21274",
    "name": "Rillington",
    "updated_at": "2014-09-22T21:07:49.528900Z",
    "country": "gb",
    "parent": null,
    "longitude": -0.699999988079071,
    "latitude": 54.1500015258789,
    "regions": []
  },
  {
    "code": "21273",
    "name": "Ringmer",
    "updated_at": "2014-09-22T21:07:49.492790Z",
    "country": "gb",
    "parent": null,
    "longitude": 0.0666666999459267,
    "latitude": 50.88330078125,
    "regions": []
  },
  {
    "code": "21272",
    "name": "Ringstead",
    "updated_at": "2014-09-22T21:07:49.443758Z",
    "country": "gb",
    "parent": null,
    "longitude": 0.550000011920929,
    "latitude": 52.9333000183105,
    "regions": []
  },
  {
    "code": "21271",
    "name": "River",
    "updated_at": "2014-09-22T21:07:49.225177Z",
    "country": "gb",
    "parent": null,
    "longitude": 1.2666699886322,
    "latitude": 51.13330078125,
    "regions": []
  },
  {
    "code": "21270",
    "name": "Robeston Wathen",
    "updated_at": "2014-09-22T21:07:49.164721Z",
    "country": "gb",
    "parent": null,
    "longitude": -4.78332996368408,
    "latitude": 51.7999992370605,
    "regions": []
  },
  {
    "code": "2126f",
    "name": "Roche",
    "updated_at": "2014-09-22T21:07:49.113625Z",
    "country": "gb",
    "parent": null,
    "longitude": -4.83333015441895,
    "latitude": 50.4000015258789,
    "regions": []
  },
  {
    "code": "2126e",
    "name": "Rockcliffe",
    "updated_at": "2014-09-22T21:07:49.059607Z",
    "country": "gb",
    "parent": null,
    "longitude": -3.79999995231628,
    "latitude": 54.8499984741211,
    "regions": []
  },
  {
    "code": "2126d",
    "name": "Rockfield",
    "updated_at": "2014-09-22T21:07:49.029441Z",
    "country": "gb",
    "parent": null,
    "longitude": -3.81666994094849,
    "latitude": 57.8166999816895,
    "regions": []
  },
  {
    "code": "2126c",
    "name": "Rodington",
    "updated_at": "2014-09-22T21:07:48.997214Z",
    "country": "gb",
    "parent": null,
    "longitude": -2.61666989326477,
    "latitude": 52.7332992553711,
    "regions": []
  },
  {
    "code": "2126b",
    "name": "Rodmarton",
    "updated_at": "2014-09-22T21:07:48.965929Z",
    "country": "gb",
    "parent": null,
    "longitude": -2.08332991600037,
    "latitude": 51.6833000183105,
    "regions": []
  },
  {
    "code": "2126a",
    "name": "Rodmell",
    "updated_at": "2014-09-22T21:07:48.947912Z",
    "country": "gb",
    "parent": null,
    "longitude": 0.0,
    "latitude": 50.8333015441895,
    "regions": []
  },
  {
    "code": "21269",
    "name": "Rogart",
    "updated_at": "2014-09-22T21:07:48.931087Z",
    "country": "gb",
    "parent": null,
    "longitude": -4.13332986831665,
    "latitude": 58.0,
    "regions": []
  },
  {
    "code": "21268",
    "name": "Rollesby",
    "updated_at": "2014-09-22T21:07:48.913405Z",
    "country": "gb",
    "parent": null,
    "longitude": 1.66666996479034,
    "latitude": 52.6833000183105,
    "regions": []
  },
  {
    "code": "21267",
    "name": "Ropsley",
    "updated_at": "2014-09-22T21:07:48.726189Z",
    "country": "gb",
    "parent": null,
    "longitude": -0.516667008399963,
    "latitude": 52.88330078125,
    "regions": []
  },
  {
    "code": "21266",
    "name": "Rose Ash",
    "updated_at": "2014-09-22T21:07:48.698505Z",
    "country": "gb",
    "parent": null,
    "longitude": -3.7333300113678,
    "latitude": 50.9832992553711,
    "regions": []
  },
  {
    "code": "21265",
    "name": "Rosedale Abbey",
    "updated_at": "2014-09-22T21:07:48.679335Z",
    "country": "gb",
    "parent": null,
    "longitude": -0.883333027362823,
    "latitude": 54.3499984741211,
    "regions": []
  },
  {
    "code": "21264",
    "name": "Rosehall",
    "updated_at": "2014-09-22T21:07:48.659936Z",
    "country": "gb",
    "parent": null,
    "longitude": -4.56666994094849,
    "latitude": 57.9667015075684,
    "regions": []
  },
  {
    "code": "21263",
    "name": "Rosemarket",
    "updated_at": "2014-09-22T21:07:48.640009Z",
    "country": "gb",
    "parent": null,
    "longitude": -4.96667003631592,
    "latitude": 51.7332992553711,
    "regions": []
  },
  {
    "code": "21262",
    "name": "Rosemarkie",
    "updated_at": "2014-09-22T21:07:48.620397Z",
    "country": "gb",
    "parent": null,
    "longitude": -4.11667013168335,
    "latitude": 57.5999984741211,
    "regions": []
  },
  {
    "code": "21261",
    "name": "Rosslea",
    "updated_at": "2014-09-22T21:07:48.575168Z",
    "country": "gb",
    "parent": null,
    "longitude": -7.18333005905151,
    "latitude": 54.2332992553711,
    "regions": []
  },
  {
    "code": "21260",
    "name": "Roughton",
    "updated_at": "2014-09-22T21:07:48.276558Z",
    "country": "gb",
    "parent": null,
    "longitude": 1.29999995231628,
    "latitude": 52.88330078125,
    "regions": []
  },
  {
    "code": "2125f",
    "name": "Rousdon",
    "updated_at": "2014-09-22T21:07:48.243823Z",
    "country": "gb",
    "parent": null,
    "longitude": -3.0,
    "latitude": 50.7167015075684,
    "regions": []
  },
  {
    "code": "2125e",
    "name": "Rowantree",
    "updated_at": "2014-09-22T21:07:48.172684Z",
    "country": "gb",
    "parent": null,
    "longitude": -4.58333015441895,
    "latitude": 55.1666984558105,
    "regions": []
  },
  {
    "code": "2125d",
    "name": "Rowhedge",
    "updated_at": "2014-09-22T21:07:48.132038Z",
    "country": "gb",
    "parent": null,
    "longitude": 0.949999988079071,
    "latitude": 51.8499984741211,
    "regions": []
  },
  {
    "code": "2125c",
    "name": "Roydon",
    "updated_at": "2014-09-22T21:07:48.022897Z",
    "country": "gb",
    "parent": null,
    "longitude": 1.10000002384186,
    "latitude": 52.36669921875,
    "regions": []
  },
  {
    "code": "2125b",
    "name": "Rudgwick",
    "updated_at": "2014-09-22T21:07:47.927169Z",
    "country": "gb",
    "parent": null,
    "longitude": -0.43333300948143,
    "latitude": 51.0999984741211,
    "regions": []
  },
  {
    "code": "2125a",
    "name": "Rudston",
    "updated_at": "2014-09-22T21:07:47.890956Z",
    "country": "gb",
    "parent": null,
    "longitude": -0.31666699051857,
    "latitude": 54.0833015441895,
    "regions": []
  },
  {
    "code": "21259",
    "name": "Rudyard",
    "updated_at": "2014-09-22T21:07:47.873079Z",
    "country": "gb",
    "parent": null,
    "longitude": -2.06666994094849,
    "latitude": 53.11669921875,
    "regions": []
  },
  {
    "code": "21258",
    "name": "Rumburgh",
    "updated_at": "2014-09-22T21:07:47.771403Z",
    "country": "gb",
    "parent": null,
    "longitude": 1.45000004768372,
    "latitude": 52.36669921875,
    "regions": []
  },
  {
    "code": "21257",
    "name": "Rushall",
    "updated_at": "2014-09-22T21:07:47.677126Z",
    "country": "gb",
    "parent": null,
    "longitude": -1.81666994094849,
    "latitude": 51.2832984924316,
    "regions": []
  },
  {
    "code": "21256",
    "name": "Rustington",
    "updated_at": "2014-09-22T21:07:47.591957Z",
    "country": "gb",
    "parent": null,
    "longitude": -0.5,
    "latitude": 50.7999992370605,
    "regions": []
  },
  {
    "code": "21255",
    "name": "Rydal",
    "updated_at": "2014-09-22T21:07:47.553171Z",
    "country": "gb",
    "parent": null,
    "longitude": -2.9833300113678,
    "latitude": 54.4333000183105,
    "regions": []
  },
  {
    "code": "21254",
    "name": "Sabden",
    "updated_at": "2014-09-22T21:07:47.460081Z",
    "country": "gb",
    "parent": null,
    "longitude": -2.33332991600037,
    "latitude": 53.8166999816895,
    "regions": []
  },
  {
    "code": "21253",
    "name": "Saddleworth",
    "updated_at": "2014-09-22T21:07:47.429703Z",
    "country": "gb",
    "parent": null,
    "longitude": -1.9833300113678,
    "latitude": 53.5499992370605,
    "regions": []
  },
  {
    "code": "21252",
    "name": "Saint Clether",
    "updated_at": "2014-09-22T21:07:47.114880Z",
    "country": "gb",
    "parent": null,
    "longitude": -4.53332996368408,
    "latitude": 50.63330078125,
    "regions": []
  },
  {
    "code": "21251",
    "name": "Saint Cyrus",
    "updated_at": "2014-09-22T21:07:47.076148Z",
    "country": "gb",
    "parent": null,
    "longitude": -2.40000009536743,
    "latitude": 56.7667007446289,
    "regions": []
  },
  {
    "code": "21250",
    "name": "Saint Dominick",
    "updated_at": "2014-09-22T21:07:47.036958Z",
    "country": "gb",
    "parent": null,
    "longitude": -4.26667022705078,
    "latitude": 50.4832992553711,
    "regions": []
  },
  {
    "code": "2124f",
    "name": "Saint Fagans",
    "updated_at": "2014-09-22T21:07:46.994048Z",
    "country": "gb",
    "parent": null,
    "longitude": -3.2666699886322,
    "latitude": 51.4832992553711,
    "regions": []
  },
  {
    "code": "2124e",
    "name": "Saint Gennys",
    "updated_at": "2014-09-22T21:07:46.955753Z",
    "country": "gb",
    "parent": null,
    "longitude": -4.63332986831665,
    "latitude": 50.7332992553711,
    "regions": []
  },
  {
    "code": "2124d",
    "name": "Saint Helens",
    "updated_at": "2014-09-22T21:07:46.937397Z",
    "country": "gb",
    "parent": null,
    "longitude": -1.11667001247406,
    "latitude": 50.7000007629395,
    "regions": []
  },
  {
    "code": "2124c",
    "name": "Saint Margaret",
    "updated_at": "2014-09-22T21:07:46.788690Z",
    "country": "gb",
    "parent": null,
    "longitude": -2.95000004768372,
    "latitude": 52.0,
    "regions": []
  },
  {
    "code": "2124b",
    "name": "Saint Neot",
    "updated_at": "2014-09-22T21:07:46.639708Z",
    "country": "gb",
    "parent": null,
    "longitude": -4.56666994094849,
    "latitude": 50.4832992553711,
    "regions": []
  },
  {
    "code": "2124a",
    "name": "Golant",
    "updated_at": "2014-09-22T21:07:46.599808Z",
    "country": "gb",
    "parent": null,
    "longitude": -4.63332986831665,
    "latitude": 50.36669921875,
    "regions": []
  },
  {
    "code": "21249",
    "name": "Saint Stephen",
    "updated_at": "2014-09-22T21:07:46.577755Z",
    "country": "gb",
    "parent": null,
    "longitude": -4.90000009536743,
    "latitude": 50.3333015441895,
    "regions": []
  },
  {
    "code": "21248",
    "name": "Saint Teath",
    "updated_at": "2014-09-22T21:07:46.549947Z",
    "country": "gb",
    "parent": null,
    "longitude": -4.73332977294922,
    "latitude": 50.5833015441895,
    "regions": []
  },
  {
    "code": "21247",
    "name": "Saleby",
    "updated_at": "2014-09-22T21:07:46.463148Z",
    "country": "gb",
    "parent": null,
    "longitude": 0.183332994580269,
    "latitude": 53.2832984924316,
    "regions": []
  },
  {
    "code": "21246",
    "name": "Saline",
    "updated_at": "2014-09-22T21:07:46.372647Z",
    "country": "gb",
    "parent": null,
    "longitude": -3.56666994094849,
    "latitude": 56.0999984741211,
    "regions": []
  },
  {
    "code": "21245",
    "name": "Sallachy",
    "updated_at": "2014-09-22T21:07:46.336493Z",
    "country": "gb",
    "parent": null,
    "longitude": -5.48332977294922,
    "latitude": 57.3166999816895,
    "regions": []
  },
  {
    "code": "21244",
    "name": "Salthouse",
    "updated_at": "2014-09-22T21:07:46.201867Z",
    "country": "gb",
    "parent": null,
    "longitude": 1.10000002384186,
    "latitude": 52.9333000183105,
    "regions": []
  },
  {
    "code": "21243",
    "name": "Saltmarshe",
    "updated_at": "2014-09-22T21:07:46.169005Z",
    "country": "gb",
    "parent": null,
    "longitude": -0.816667020320892,
    "latitude": 53.7000007629395,
    "regions": []
  },
  {
    "code": "21242",
    "name": "Salton",
    "updated_at": "2014-09-22T21:07:46.151437Z",
    "country": "gb",
    "parent": null,
    "longitude": -0.899999976158142,
    "latitude": 54.2000007629395,
    "regions": []
  },
  {
    "code": "21241",
    "name": "Sandhead",
    "updated_at": "2014-09-22T21:07:46.086413Z",
    "country": "gb",
    "parent": null,
    "longitude": -4.94999980926514,
    "latitude": 54.7999992370605,
    "regions": []
  },
  {
    "code": "21240",
    "name": "Sandleheath",
    "updated_at": "2014-09-22T21:07:46.037155Z",
    "country": "gb",
    "parent": null,
    "longitude": -1.81666994094849,
    "latitude": 50.88330078125,
    "regions": []
  },
  {
    "code": "2123f",
    "name": "Sandside",
    "updated_at": "2014-09-22T21:07:45.976543Z",
    "country": "gb",
    "parent": null,
    "longitude": -2.79999995231628,
    "latitude": 54.2167015075684,
    "regions": []
  },
  {
    "code": "2123e",
    "name": "Sandtoft",
    "updated_at": "2014-09-22T21:07:45.943145Z",
    "country": "gb",
    "parent": null,
    "longitude": -0.883333027362823,
    "latitude": 53.5666999816895,
    "regions": []
  },
  {
    "code": "2123d",
    "name": "Sarn",
    "updated_at": "2014-09-22T21:07:45.843222Z",
    "country": "gb",
    "parent": null,
    "longitude": -3.18333005905151,
    "latitude": 52.5,
    "regions": []
  },
  {
    "code": "2123c",
    "name": "Sawdon",
    "updated_at": "2014-09-22T21:07:45.712944Z",
    "country": "gb",
    "parent": null,
    "longitude": -0.550000011920929,
    "latitude": 54.25,
    "regions": []
  },
  {
    "code": "2123b",
    "name": "Sawley",
    "updated_at": "2014-09-22T21:07:45.679267Z",
    "country": "gb",
    "parent": null,
    "longitude": -2.34999990463257,
    "latitude": 53.9000015258789,
    "regions": []
  },
  {
    "code": "2123a",
    "name": "Saxlingham Thorpe",
    "updated_at": "2014-09-22T21:07:45.635200Z",
    "country": "gb",
    "parent": null,
    "longitude": 1.2666699886322,
    "latitude": 52.5332984924316,
    "regions": []
  },
  {
    "code": "21239",
    "name": "Scalby",
    "updated_at": "2014-09-22T21:07:45.585959Z",
    "country": "gb",
    "parent": null,
    "longitude": -0.44683501124382,
    "latitude": 54.3003997802734,
    "regions": []
  },
  {
    "code": "21238",
    "name": "Scolpaig",
    "updated_at": "2014-09-22T21:07:45.486471Z",
    "country": "gb",
    "parent": null,
    "longitude": -7.46667003631592,
    "latitude": 57.6500015258789,
    "regions": []
  },
  {
    "code": "21237",
    "name": "Sconser",
    "updated_at": "2014-09-22T21:07:45.459726Z",
    "country": "gb",
    "parent": null,
    "longitude": -6.15000009536743,
    "latitude": 57.2999992370605,
    "regions": []
  },
  {
    "code": "21236",
    "name": "Scruton",
    "updated_at": "2014-09-22T21:07:45.386241Z",
    "country": "gb",
    "parent": null,
    "longitude": -1.53332996368408,
    "latitude": 54.3166999816895,
    "regions": []
  },
  {
    "code": "21235",
    "name": "Seaford",
    "updated_at": "2014-09-22T21:07:45.333012Z",
    "country": "gb",
    "parent": null,
    "longitude": 0.100000001490116,
    "latitude": 50.7667007446289,
    "regions": []
  },
  {
    "code": "21234",
    "name": "Seasalter",
    "updated_at": "2014-09-22T21:07:45.205929Z",
    "country": "gb",
    "parent": null,
    "longitude": 1.0166699886322,
    "latitude": 51.3333015441895,
    "regions": []
  },
  {
    "code": "21233",
    "name": "Seathwaite",
    "updated_at": "2014-09-22T21:07:45.148113Z",
    "country": "gb",
    "parent": null,
    "longitude": -3.20000004768372,
    "latitude": 54.3499984741211,
    "regions": []
  },
  {
    "code": "21232",
    "name": "Seaton Burn",
    "updated_at": "2014-09-22T21:07:45.113694Z",
    "country": "gb",
    "parent": null,
    "longitude": -1.61667001247406,
    "latitude": 55.0499992370605,
    "regions": []
  },
  {
    "code": "21231",
    "name": "Sedgeford",
    "updated_at": "2014-09-22T21:07:45.033770Z",
    "country": "gb",
    "parent": null,
    "longitude": 0.550000011920929,
    "latitude": 52.9000015258789,
    "regions": []
  },
  {
    "code": "21230",
    "name": "Selling",
    "updated_at": "2014-09-22T21:07:44.873791Z",
    "country": "gb",
    "parent": null,
    "longitude": 0.916666984558105,
    "latitude": 51.2667007446289,
    "regions": []
  },
  {
    "code": "2122f",
    "name": "Selside",
    "updated_at": "2014-09-22T21:07:44.840906Z",
    "country": "gb",
    "parent": null,
    "longitude": -2.33332991600037,
    "latitude": 54.1666984558105,
    "regions": []
  },
  {
    "code": "2122e",
    "name": "Sennen",
    "updated_at": "2014-09-22T21:07:44.824268Z",
    "country": "gb",
    "parent": null,
    "longitude": -5.69999980926514,
    "latitude": 50.0666999816895,
    "regions": []
  },
  {
    "code": "2122d",
    "name": "Setchey",
    "updated_at": "2014-09-22T21:07:44.753710Z",
    "country": "gb",
    "parent": null,
    "longitude": 0.416667014360428,
    "latitude": 52.6833000183105,
    "regions": []
  },
  {
    "code": "2122c",
    "name": "Settrington",
    "updated_at": "2014-09-22T21:07:44.689186Z",
    "country": "gb",
    "parent": null,
    "longitude": -0.716666996479034,
    "latitude": 54.11669921875,
    "regions": []
  },
  {
    "code": "2122b",
    "name": "Shalden",
    "updated_at": "2014-09-22T21:07:44.619879Z",
    "country": "gb",
    "parent": null,
    "longitude": -1.0,
    "latitude": 51.1666984558105,
    "regions": []
  },
  {
    "code": "2122a",
    "name": "Shandon",
    "updated_at": "2014-09-22T21:07:44.602079Z",
    "country": "gb",
    "parent": null,
    "longitude": -4.80000019073486,
    "latitude": 56.0499992370605,
    "regions": []
  },
  {
    "code": "21229",
    "name": "Shandwick",
    "updated_at": "2014-09-22T21:07:44.584246Z",
    "country": "gb",
    "parent": null,
    "longitude": -3.91667008399963,
    "latitude": 57.7332992553711,
    "regions": []
  },
  {
    "code": "21228",
    "name": "Sharrington",
    "updated_at": "2014-09-22T21:07:44.459272Z",
    "country": "gb",
    "parent": null,
    "longitude": 1.0166699886322,
    "latitude": 52.88330078125,
    "regions": []
  },
  {
    "code": "21227",
    "name": "Shebbear",
    "updated_at": "2014-09-22T21:07:44.393922Z",
    "country": "gb",
    "parent": null,
    "longitude": -4.21667003631592,
    "latitude": 50.8499984741211,
    "regions": []
  },
  {
    "code": "21226",
    "name": "Shelford",
    "updated_at": "2014-09-22T21:07:44.311900Z",
    "country": "gb",
    "parent": null,
    "longitude": -1.0166699886322,
    "latitude": 52.9667015075684,
    "regions": []
  },
  {
    "code": "21225",
    "name": "Shephers Bush",
    "updated_at": "2014-09-22T21:07:44.284661Z",
    "country": "gb",
    "parent": null,
    "longitude": -0.216666996479034,
    "latitude": 51.5,
    "regions": []
  },
  {
    "code": "21224",
    "name": "Shepherdswell",
    "updated_at": "2014-09-22T21:07:44.257813Z",
    "country": "gb",
    "parent": null,
    "longitude": 1.2333300113678,
    "latitude": 51.1833000183105,
    "regions": []
  },
  {
    "code": "21223",
    "name": "Sherburn",
    "updated_at": "2014-09-22T21:07:44.123510Z",
    "country": "gb",
    "parent": null,
    "longitude": -0.516667008399963,
    "latitude": 54.1666984558105,
    "regions": []
  },
  {
    "code": "21222",
    "name": "Sherston",
    "updated_at": "2014-09-22T21:07:44.069854Z",
    "country": "gb",
    "parent": null,
    "longitude": -2.21667003631592,
    "latitude": 51.5666999816895,
    "regions": []
  },
  {
    "code": "21221",
    "name": "Shieldaig",
    "updated_at": "2014-09-22T21:07:44.052669Z",
    "country": "gb",
    "parent": null,
    "longitude": -5.65000009536743,
    "latitude": 57.5167007446289,
    "regions": []
  },
  {
    "code": "21220",
    "name": "Shilbottle",
    "updated_at": "2014-09-22T21:07:44.000338Z",
    "country": "gb",
    "parent": null,
    "longitude": -1.68333005905151,
    "latitude": 55.36669921875,
    "regions": []
  },
  {
    "code": "2121f",
    "name": "Shipley",
    "updated_at": "2014-09-22T21:07:43.970082Z",
    "country": "gb",
    "parent": null,
    "longitude": -0.366667002439499,
    "latitude": 50.9667015075684,
    "regions": []
  },
  {
    "code": "2121e",
    "name": "Shipley",
    "updated_at": "2014-09-22T21:07:43.936365Z",
    "country": "gb",
    "parent": null,
    "longitude": -1.7666699886322,
    "latitude": 53.8333015441895,
    "regions": []
  },
  {
    "code": "2121d",
    "name": "Shirley",
    "updated_at": "2014-09-22T21:07:43.839398Z",
    "country": "gb",
    "parent": null,
    "longitude": -1.66666996479034,
    "latitude": 52.9500007629395,
    "regions": []
  },
  {
    "code": "2121c",
    "name": "Shirwell",
    "updated_at": "2014-09-22T21:07:43.822150Z",
    "country": "gb",
    "parent": null,
    "longitude": -4.0,
    "latitude": 51.11669921875,
    "regions": []
  },
  {
    "code": "2121b",
    "name": "Shorwell",
    "updated_at": "2014-09-22T21:07:43.785659Z",
    "country": "gb",
    "parent": null,
    "longitude": -1.35000002384186,
    "latitude": 50.63330078125,
    "regions": []
  },
  {
    "code": "2121a",
    "name": "Shotley",
    "updated_at": "2014-09-22T21:07:43.758593Z",
    "country": "gb",
    "parent": null,
    "longitude": 1.25,
    "latitude": 51.9667015075684,
    "regions": []
  },
  {
    "code": "21219",
    "name": "Shotley Bridge",
    "updated_at": "2014-09-22T21:07:43.731658Z",
    "country": "gb",
    "parent": null,
    "longitude": -1.85000002384186,
    "latitude": 54.86669921875,
    "regions": []
  },
  {
    "code": "21218",
    "name": "Shropham",
    "updated_at": "2014-09-22T21:07:43.600457Z",
    "country": "gb",
    "parent": null,
    "longitude": 0.916666984558105,
    "latitude": 52.5,
    "regions": []
  },
  {
    "code": "21217",
    "name": "Shugborough",
    "updated_at": "2014-09-22T21:07:43.584038Z",
    "country": "gb",
    "parent": null,
    "longitude": -2.0166699886322,
    "latitude": 52.7999992370605,
    "regions": []
  },
  {
    "code": "21216",
    "name": "Sible Hedingham",
    "updated_at": "2014-09-22T21:07:43.550804Z",
    "country": "gb",
    "parent": null,
    "longitude": 0.583333015441895,
    "latitude": 51.9667015075684,
    "regions": []
  },
  {
    "code": "21215",
    "name": "Sidestrand",
    "updated_at": "2014-09-22T21:07:43.443592Z",
    "country": "gb",
    "parent": null,
    "longitude": 1.36667001247406,
    "latitude": 52.9000015258789,
    "regions": []
  },
  {
    "code": "21214",
    "name": "Sidlesham",
    "updated_at": "2014-09-22T21:07:43.412069Z",
    "country": "gb",
    "parent": null,
    "longitude": -0.783333003520966,
    "latitude": 50.7832984924316,
    "regions": []
  },
  {
    "code": "21213",
    "name": "Sigglesthorne",
    "updated_at": "2014-09-22T21:07:43.362800Z",
    "country": "gb",
    "parent": null,
    "longitude": -0.233333006501198,
    "latitude": 53.9000015258789,
    "regions": []
  },
  {
    "code": "21212",
    "name": "Silecroft",
    "updated_at": "2014-09-22T21:07:43.345233Z",
    "country": "gb",
    "parent": null,
    "longitude": -3.33332991600037,
    "latitude": 54.2167015075684,
    "regions": []
  },
  {
    "code": "21211",
    "name": "Silsden",
    "updated_at": "2014-09-22T21:07:43.309129Z",
    "country": "gb",
    "parent": null,
    "longitude": -1.93333005905151,
    "latitude": 53.9000015258789,
    "regions": []
  },
  {
    "code": "21210",
    "name": "Silverdale",
    "updated_at": "2014-09-22T21:07:43.291318Z",
    "country": "gb",
    "parent": null,
    "longitude": -2.81666994094849,
    "latitude": 54.1666984558105,
    "regions": []
  },
  {
    "code": "2120f",
    "name": "Sissinghurst",
    "updated_at": "2014-09-22T21:07:43.161548Z",
    "country": "gb",
    "parent": null,
    "longitude": 0.566667020320892,
    "latitude": 51.0999984741211,
    "regions": []
  },
  {
    "code": "2120e",
    "name": "Skail",
    "updated_at": "2014-09-22T21:07:43.094689Z",
    "country": "gb",
    "parent": null,
    "longitude": -4.19999980926514,
    "latitude": 58.38330078125,
    "regions": []
  },
  {
    "code": "2120d",
    "name": "Skeabost",
    "updated_at": "2014-09-22T21:07:43.078111Z",
    "country": "gb",
    "parent": null,
    "longitude": -6.31666994094849,
    "latitude": 57.4500007629395,
    "regions": []
  },
  {
    "code": "2120c",
    "name": "Skelmanthorpe",
    "updated_at": "2014-09-22T21:07:43.043793Z",
    "country": "gb",
    "parent": null,
    "longitude": -1.64999997615814,
    "latitude": 53.5833015441895,
    "regions": []
  },
  {
    "code": "2120b",
    "name": "Skelmorlie",
    "updated_at": "2014-09-22T21:07:43.000386Z",
    "country": "gb",
    "parent": null,
    "longitude": -4.90000009536743,
    "latitude": 55.86669921875,
    "regions": []
  },
  {
    "code": "2120a",
    "name": "Skelsmergh",
    "updated_at": "2014-09-22T21:07:42.974367Z",
    "country": "gb",
    "parent": null,
    "longitude": -2.70000004768372,
    "latitude": 54.3333015441895,
    "regions": []
  },
  {
    "code": "21209",
    "name": "Skelton",
    "updated_at": "2014-09-22T21:07:42.917507Z",
    "country": "gb",
    "parent": null,
    "longitude": -2.86666989326477,
    "latitude": 54.7000007629395,
    "regions": []
  },
  {
    "code": "21208",
    "name": "Skipness",
    "updated_at": "2014-09-22T21:07:42.866661Z",
    "country": "gb",
    "parent": null,
    "longitude": -5.34999990463257,
    "latitude": 55.7667007446289,
    "regions": []
  },
  {
    "code": "21207",
    "name": "Skirpenbeck",
    "updated_at": "2014-09-22T21:07:42.817000Z",
    "country": "gb",
    "parent": null,
    "longitude": -0.850000023841858,
    "latitude": 54.0,
    "regions": []
  },
  {
    "code": "21206",
    "name": "Slaggyford",
    "updated_at": "2014-09-22T21:07:42.800511Z",
    "country": "gb",
    "parent": null,
    "longitude": -2.5,
    "latitude": 54.8499984741211,
    "regions": []
  },
  {
    "code": "21205",
    "name": "Slapton",
    "updated_at": "2014-09-22T21:07:42.763476Z",
    "country": "gb",
    "parent": null,
    "longitude": -3.65000009536743,
    "latitude": 50.2832984924316,
    "regions": []
  },
  {
    "code": "21204",
    "name": "Sledmere",
    "updated_at": "2014-09-22T21:07:42.694748Z",
    "country": "gb",
    "parent": null,
    "longitude": -0.566667020320892,
    "latitude": 54.0666999816895,
    "regions": []
  },
  {
    "code": "21203",
    "name": "Sleights",
    "updated_at": "2014-09-22T21:07:42.659088Z",
    "country": "gb",
    "parent": null,
    "longitude": -0.666666984558105,
    "latitude": 54.4500007629395,
    "regions": []
  },
  {
    "code": "21202",
    "name": "Smardale",
    "updated_at": "2014-09-22T21:07:42.579564Z",
    "country": "gb",
    "parent": null,
    "longitude": -2.40000009536743,
    "latitude": 54.4500007629395,
    "regions": []
  },
  {
    "code": "21201",
    "name": "Smeeth",
    "updated_at": "2014-09-22T21:07:42.545688Z",
    "country": "gb",
    "parent": null,
    "longitude": 0.966666996479034,
    "latitude": 51.11669921875,
    "regions": []
  },
  {
    "code": "21200",
    "name": "Snainton",
    "updated_at": "2014-09-22T21:07:42.528789Z",
    "country": "gb",
    "parent": null,
    "longitude": -0.583333015441895,
    "latitude": 54.2167015075684,
    "regions": []
  },
  {
    "code": "211ff",
    "name": "Snape",
    "updated_at": "2014-09-22T21:07:42.508429Z",
    "country": "gb",
    "parent": null,
    "longitude": 1.5,
    "latitude": 52.1833000183105,
    "regions": []
  },
  {
    "code": "211fe",
    "name": "Sneaton",
    "updated_at": "2014-09-22T21:07:42.481626Z",
    "country": "gb",
    "parent": null,
    "longitude": -0.616666972637177,
    "latitude": 54.4500007629395,
    "regions": []
  },
  {
    "code": "211fd",
    "name": "Snowshill",
    "updated_at": "2014-09-22T21:07:42.433293Z",
    "country": "gb",
    "parent": null,
    "longitude": -1.85000002384186,
    "latitude": 52.0,
    "regions": []
  },
  {
    "code": "211fc",
    "name": "Soham",
    "updated_at": "2014-09-22T21:07:42.403694Z",
    "country": "gb",
    "parent": null,
    "longitude": 0.349999994039536,
    "latitude": 52.3333015441895,
    "regions": []
  },
  {
    "code": "211fb",
    "name": "Solva",
    "updated_at": "2014-09-22T21:07:42.350780Z",
    "country": "gb",
    "parent": null,
    "longitude": -5.19999980926514,
    "latitude": 51.86669921875,
    "regions": []
  },
  {
    "code": "211fa",
    "name": "Somerford Keynes",
    "updated_at": "2014-09-22T21:07:42.331881Z",
    "country": "gb",
    "parent": null,
    "longitude": -1.96667003631592,
    "latitude": 51.6500015258789,
    "regions": []
  },
  {
    "code": "211f9",
    "name": "Somersal Herbert",
    "updated_at": "2014-09-22T21:07:42.313928Z",
    "country": "gb",
    "parent": null,
    "longitude": -1.79999995231628,
    "latitude": 52.9000015258789,
    "regions": []
  },
  {
    "code": "211f8",
    "name": "Somersby",
    "updated_at": "2014-09-22T21:07:42.295953Z",
    "country": "gb",
    "parent": null,
    "longitude": 0.0166666992008686,
    "latitude": 53.2167015075684,
    "regions": []
  },
  {
    "code": "211f7",
    "name": "Sonning",
    "updated_at": "2014-09-22T21:07:42.261898Z",
    "country": "gb",
    "parent": null,
    "longitude": -0.899999976158142,
    "latitude": 51.4667015075684,
    "regions": []
  },
  {
    "code": "211f6",
    "name": "Sopley",
    "updated_at": "2014-09-22T21:07:42.237941Z",
    "country": "gb",
    "parent": null,
    "longitude": -1.78332996368408,
    "latitude": 50.7667007446289,
    "regions": []
  },
  {
    "code": "211f5",
    "name": "Sorn",
    "updated_at": "2014-09-22T21:07:42.215265Z",
    "country": "gb",
    "parent": null,
    "longitude": -4.28332996368408,
    "latitude": 55.5,
    "regions": []
  },
  {
    "code": "211f4",
    "name": "Sotherton",
    "updated_at": "2014-09-22T21:07:42.194463Z",
    "country": "gb",
    "parent": null,
    "longitude": 1.58333003520966,
    "latitude": 52.3499984741211,
    "regions": []
  },
  {
    "code": "211f3",
    "name": "Soulby",
    "updated_at": "2014-09-22T21:07:42.172454Z",
    "country": "gb",
    "parent": null,
    "longitude": -2.38333010673523,
    "latitude": 54.4832992553711,
    "regions": []
  },
  {
    "code": "211f2",
    "name": "South Barrow",
    "updated_at": "2014-09-22T21:07:42.091821Z",
    "country": "gb",
    "parent": null,
    "longitude": -2.58332991600037,
    "latitude": 51.0499992370605,
    "regions": []
  },
  {
    "code": "211f1",
    "name": "South Cadbury",
    "updated_at": "2014-09-22T21:07:42.045986Z",
    "country": "gb",
    "parent": null,
    "longitude": -2.5166699886322,
    "latitude": 51.0167007446289,
    "regions": []
  },
  {
    "code": "211f0",
    "name": "South Creake",
    "updated_at": "2014-09-22T21:07:41.999055Z",
    "country": "gb",
    "parent": null,
    "longitude": 0.766667008399963,
    "latitude": 52.88330078125,
    "regions": []
  },
  {
    "code": "211ef",
    "name": "South Elkington",
    "updated_at": "2014-09-22T21:07:41.984009Z",
    "country": "gb",
    "parent": null,
    "longitude": -0.0666666999459267,
    "latitude": 53.38330078125,
    "regions": []
  },
  {
    "code": "211ee",
    "name": "South Erradale",
    "updated_at": "2014-09-22T21:07:41.954704Z",
    "country": "gb",
    "parent": null,
    "longitude": -5.76667022705078,
    "latitude": 57.6833000183105,
    "regions": []
  },
  {
    "code": "211ed",
    "name": "Southill",
    "updated_at": "2014-09-22T21:07:41.900874Z",
    "country": "gb",
    "parent": null,
    "longitude": -0.300000011920929,
    "latitude": 52.0499992370605,
    "regions": []
  },
  {
    "code": "211ec",
    "name": "South Kyme",
    "updated_at": "2014-09-22T21:07:41.881575Z",
    "country": "gb",
    "parent": null,
    "longitude": -0.25,
    "latitude": 53.0167007446289,
    "regions": []
  },
  {
    "code": "211eb",
    "name": "Southminster",
    "updated_at": "2014-09-22T21:07:41.842431Z",
    "country": "gb",
    "parent": null,
    "longitude": 0.833333015441895,
    "latitude": 51.6500015258789,
    "regions": []
  },
  {
    "code": "211ea",
    "name": "South Petherwin",
    "updated_at": "2014-09-22T21:07:41.761083Z",
    "country": "gb",
    "parent": null,
    "longitude": -4.38332986831665,
    "latitude": 50.61669921875,
    "regions": []
  },
  {
    "code": "211e9",
    "name": "Southrey",
    "updated_at": "2014-09-22T21:07:41.732273Z",
    "country": "gb",
    "parent": null,
    "longitude": -0.300000011920929,
    "latitude": 53.1833000183105,
    "regions": []
  },
  {
    "code": "211e8",
    "name": "Speeton",
    "updated_at": "2014-09-22T21:07:41.555577Z",
    "country": "gb",
    "parent": null,
    "longitude": -0.233333006501198,
    "latitude": 54.1500015258789,
    "regions": []
  },
  {
    "code": "211e7",
    "name": "Spilsby",
    "updated_at": "2014-09-22T21:07:41.496795Z",
    "country": "gb",
    "parent": null,
    "longitude": 0.100000001490116,
    "latitude": 53.1833000183105,
    "regions": []
  },
  {
    "code": "211e6",
    "name": "Spitalfields",
    "updated_at": "2014-09-22T21:07:41.473272Z",
    "country": "gb",
    "parent": null,
    "longitude": -0.0833332985639572,
    "latitude": 51.5167007446289,
    "regions": []
  },
  {
    "code": "211e5",
    "name": "Spittal",
    "updated_at": "2014-09-22T21:07:41.454069Z",
    "country": "gb",
    "parent": null,
    "longitude": -1.9833300113678,
    "latitude": 55.75,
    "regions": []
  },
  {
    "code": "211e4",
    "name": "Spixworth",
    "updated_at": "2014-09-22T21:07:41.425096Z",
    "country": "gb",
    "parent": null,
    "longitude": 1.33333003520966,
    "latitude": 52.6666984558105,
    "regions": []
  },
  {
    "code": "211e3",
    "name": "Staindrop",
    "updated_at": "2014-09-22T21:07:41.352407Z",
    "country": "gb",
    "parent": null,
    "longitude": -1.79999995231628,
    "latitude": 54.5666999816895,
    "regions": []
  },
  {
    "code": "211e2",
    "name": "Stainton",
    "updated_at": "2014-09-22T21:07:41.318317Z",
    "country": "gb",
    "parent": null,
    "longitude": -1.85000002384186,
    "latitude": 54.36669921875,
    "regions": []
  },
  {
    "code": "211e1",
    "name": "Staintondale",
    "updated_at": "2014-09-22T21:07:41.303637Z",
    "country": "gb",
    "parent": null,
    "longitude": -0.466666996479034,
    "latitude": 54.36669921875,
    "regions": []
  },
  {
    "code": "211e0",
    "name": "Staithes",
    "updated_at": "2014-09-22T21:07:41.288765Z",
    "country": "gb",
    "parent": null,
    "longitude": -0.78972202539444,
    "latitude": 54.551700592041,
    "regions": []
  },
  {
    "code": "211df",
    "name": "Standon",
    "updated_at": "2014-09-22T21:07:41.198665Z",
    "country": "gb",
    "parent": null,
    "longitude": -2.28332996368408,
    "latitude": 52.9166984558105,
    "regions": []
  },
  {
    "code": "211de",
    "name": "Stanford Bishop",
    "updated_at": "2014-09-22T21:07:41.179718Z",
    "country": "gb",
    "parent": null,
    "longitude": -2.46667003631592,
    "latitude": 52.1666984558105,
    "regions": []
  },
  {
    "code": "211dd",
    "name": "Stanhoe",
    "updated_at": "2014-09-22T21:07:41.161787Z",
    "country": "gb",
    "parent": null,
    "longitude": 0.683332979679108,
    "latitude": 52.9000015258789,
    "regions": []
  },
  {
    "code": "211dc",
    "name": "Stanhope",
    "updated_at": "2014-09-22T21:07:41.141957Z",
    "country": "gb",
    "parent": null,
    "longitude": -2.0166699886322,
    "latitude": 54.75,
    "regions": []
  },
  {
    "code": "211db",
    "name": "Stannington",
    "updated_at": "2014-09-22T21:07:41.096388Z",
    "country": "gb",
    "parent": null,
    "longitude": -1.66666996479034,
    "latitude": 55.0999984741211,
    "regions": []
  },
  {
    "code": "211da",
    "name": "Stanton in Peak",
    "updated_at": "2014-09-22T21:07:41.051433Z",
    "country": "gb",
    "parent": null,
    "longitude": -1.64999997615814,
    "latitude": 53.1666984558105,
    "regions": []
  },
  {
    "code": "211d9",
    "name": "Staple Fitzpaine",
    "updated_at": "2014-09-22T21:07:40.977016Z",
    "country": "gb",
    "parent": null,
    "longitude": -3.04999995231628,
    "latitude": 50.9500007629395,
    "regions": []
  },
  {
    "code": "211d8",
    "name": "Starbotton",
    "updated_at": "2014-09-22T21:07:40.928242Z",
    "country": "gb",
    "parent": null,
    "longitude": -2.06666994094849,
    "latitude": 54.1500015258789,
    "regions": []
  },
  {
    "code": "211d7",
    "name": "Staunton",
    "updated_at": "2014-09-22T21:07:40.912648Z",
    "country": "gb",
    "parent": null,
    "longitude": -2.65000009536743,
    "latitude": 51.8166999816895,
    "regions": []
  },
  {
    "code": "211d6",
    "name": "Staunton",
    "updated_at": "2014-09-22T21:07:40.896469Z",
    "country": "gb",
    "parent": null,
    "longitude": -2.31666994094849,
    "latitude": 51.9667015075684,
    "regions": []
  },