[
  {
    "code": "12925",
    "name": "Zuidzande",
    "updated_at": "2014-09-22T21:11:47.973041Z",
    "country": "nl",
    "parent": null,
    "longitude": 3.45000004768372,
    "latitude": 51.3499984741211,
    "regions": [
      "10b8"
    ]
  },
  {
    "code": "12924",
    "name": "Zuna",
    "updated_at": "2014-09-22T21:11:47.957159Z",
    "country": "nl",
    "parent": null,
    "longitude": 6.5,
    "latitude": 52.3333015441895,
    "regions": [
      "10b6"
    ]
  },
  {
    "code": "12923",
    "name": "Zundert",
    "updated_at": "2014-09-22T21:11:47.941430Z",
    "country": "nl",
    "parent": null,
    "longitude": 4.66666984558105,
    "latitude": 51.4667015075684,
    "regions": [
      "10b4"
    ]
  },
  {
    "code": "12922",
    "name": "Zurich",
    "updated_at": "2014-09-22T21:11:47.924945Z",
    "country": "nl",
    "parent": null,
    "longitude": 5.40000009536743,
    "latitude": 53.11669921875,
    "regions": [
      "10b0"
    ]
  },
  {
    "code": "12921",
    "name": "Zutphen",
    "updated_at": "2014-09-22T21:11:47.908822Z",
    "country": "nl",
    "parent": null,
    "longitude": 6.19999980926514,
    "latitude": 52.13330078125,
    "regions": [
      "10b1"
    ]
  },
  {
    "code": "12920",
    "name": "Zuurdijk",
    "updated_at": "2014-09-22T21:11:47.882575Z",
    "country": "nl",
    "parent": null,
    "longitude": 6.38332986831665,
    "latitude": 53.3333015441895,
    "regions": [
      "10b2"
    ]
  },
  {
    "code": "1291f",
    "name": "Zwanenburg",
    "updated_at": "2014-09-22T21:11:47.856079Z",
    "country": "nl",
    "parent": null,
    "longitude": 4.75,
    "latitude": 52.38330078125,
    "regions": [
      "10b5"
    ]
  },
  {
    "code": "1291e",
    "name": "Zwartemeer",
    "updated_at": "2014-09-22T21:11:47.829708Z",
    "country": "nl",
    "parent": null,
    "longitude": 7.05000019073486,
    "latitude": 52.7167015075684,
    "regions": [
      "10ae"
    ]
  },
  {
    "code": "1291d",
    "name": "Zwartsluis",
    "updated_at": "2014-09-22T21:11:47.793168Z",
    "country": "nl",
    "parent": null,
    "longitude": 6.08333015441895,
    "latitude": 52.63330078125,
    "regions": [
      "10b6"
    ]
  },
  {
    "code": "1291c",
    "name": "Zweeloo",
    "updated_at": "2014-09-22T21:11:47.761543Z",
    "country": "nl",
    "parent": null,
    "longitude": 6.73332977294922,
    "latitude": 52.7999992370605,
    "regions": [
      "10ae"
    ]
  },
  {
    "code": "1291b",
    "name": "Zwiggelte",
    "updated_at": "2014-09-22T21:11:47.737024Z",
    "country": "nl",
    "parent": null,
    "longitude": 6.58333015441895,
    "latitude": 52.86669921875,
    "regions": [
      "10ae"
    ]
  },
  {
    "code": "1291a",
    "name": "Zwijndrecht",
    "updated_at": "2014-09-22T21:11:47.720643Z",
    "country": "nl",
    "parent": null,
    "longitude": 4.65000009536743,
    "latitude": 51.8166999816895,
    "regions": [
      "10b9"
    ]
  },
  {
    "code": "12919",
    "name": "Zwolle",
    "updated_at": "2014-09-22T21:11:47.702745Z",
    "country": "nl",
    "parent": null,
    "longitude": 6.09264349936893,
    "latitude": 52.5121675410829,
    "regions": [
      "10b6"
    ]
  },
  {
    "code": "12918",
    "name": "Abadim",
    "updated_at": "2014-09-22T21:11:47.684673Z",
    "country": "pt",
    "parent": null,
    "longitude": -7.98332977294922,
    "latitude": 41.5332984924316,
    "regions": []
  },
  {
    "code": "12917",
    "name": "Abela",
    "updated_at": "2014-09-22T21:11:47.666523Z",
    "country": "pt",
    "parent": null,
    "longitude": -8.56667041778564,
    "latitude": 38.0,
    "regions": [
      "1233"
    ]
  },
  {
    "code": "12916",
    "name": "Aboim",
    "updated_at": "2014-09-22T21:11:47.646449Z",
    "country": "pt",
    "parent": null,
    "longitude": -8.08333015441895,
    "latitude": 41.5332984924316,
    "regions": [
      "1432"
    ]
  },
  {
    "code": "12915",
    "name": "Abrantes",
    "updated_at": "2014-09-22T21:11:47.620490Z",
    "country": "pt",
    "parent": null,
    "longitude": -8.19999980926514,
    "latitude": 39.4667015075684,
    "regions": [
      "1433"
    ]
  },
  {
    "code": "12914",
    "name": "Abrunhosa-a-Velha",
    "updated_at": "2014-09-22T21:11:47.594527Z",
    "country": "pt",
    "parent": null,
    "longitude": -7.65000009536743,
    "latitude": 40.5833015441895,
    "regions": [
      "1433"
    ]
  },
  {
    "code": "12913",
    "name": "A do Pinto",
    "updated_at": "2014-09-22T21:11:47.530285Z",
    "country": "pt",
    "parent": null,
    "longitude": -7.48332977294922,
    "latitude": 37.9166984558105,
    "regions": [
      "1233"
    ]
  },
  {
    "code": "12912",
    "name": "A dos Cunhados",
    "updated_at": "2014-09-22T21:11:47.475688Z",
    "country": "pt",
    "parent": null,
    "longitude": -9.30000019073486,
    "latitude": 39.1500015258789,
    "regions": [
      "1433"
    ]
  },
  {
    "code": "12911",
    "name": "Afife",
    "updated_at": "2014-09-22T21:11:47.458005Z",
    "country": "pt",
    "parent": null,
    "longitude": -8.86666965484619,
    "latitude": 41.7832984924316,
    "regions": [
      "1432"
    ]
  },
  {
    "code": "12910",
    "name": "Agualonga",
    "updated_at": "2014-09-22T21:11:47.440268Z",
    "country": "pt",
    "parent": null,
    "longitude": -8.61666965484619,
    "latitude": 41.88330078125,
    "regions": [
      "1432"
    ]
  },
  {
    "code": "1290f",
    "name": "Águeda",
    "updated_at": "2014-09-22T21:11:47.404074Z",
    "country": "pt",
    "parent": null,
    "longitude": -8.44999980926514,
    "latitude": 40.5666999816895,
    "regions": [
      "1433"
    ]
  },
  {
    "code": "1290e",
    "name": "Aguiar da Beira",
    "updated_at": "2014-09-22T21:11:47.381816Z",
    "country": "pt",
    "parent": null,
    "longitude": -7.55000019073486,
    "latitude": 40.8166999816895,
    "regions": [
      "1433"
    ]
  },
  {
    "code": "1290d",
    "name": "Aguieira",
    "updated_at": "2014-09-22T21:11:47.356071Z",
    "country": "pt",
    "parent": null,
    "longitude": -8.19999980926514,
    "latitude": 40.3333015441895,
    "regions": [
      "1433"
    ]
  },
  {
    "code": "1290c",
    "name": "Airas",
    "updated_at": "2014-09-22T21:11:47.331220Z",
    "country": "pt",
    "parent": null,
    "longitude": -8.51667022705078,
    "latitude": 40.9500007629395,
    "regions": [
      "1432"
    ]
  },
  {
    "code": "1290b",
    "name": "Alagoa",
    "updated_at": "2014-09-22T21:11:47.299751Z",
    "country": "pt",
    "parent": null,
    "longitude": -7.53332996368408,
    "latitude": 39.3499984741211,
    "regions": [
      "1233"
    ]
  },
  {
    "code": "1290a",
    "name": "Alandroal",
    "updated_at": "2014-09-22T21:11:47.265535Z",
    "country": "pt",
    "parent": null,
    "longitude": -7.40000009536743,
    "latitude": 38.7000007629395,
    "regions": [
      "1233"
    ]
  },
  {
    "code": "12909",
    "name": "Albergaria-a-Velha",
    "updated_at": "2014-09-22T21:11:47.232986Z",
    "country": "pt",
    "parent": null,
    "longitude": -8.48332977294922,
    "latitude": 40.7000007629395,
    "regions": [
      "1433"
    ]
  },
  {
    "code": "12908",
    "name": "Albergaria dos Fusos",
    "updated_at": "2014-09-22T21:11:47.216517Z",
    "country": "pt",
    "parent": null,
    "longitude": -7.93333005905151,
    "latitude": 38.2832984924316,
    "regions": [
      "1233"
    ]
  },
  {
    "code": "12907",
    "name": "Albernoa",
    "updated_at": "2014-09-22T21:11:47.200245Z",
    "country": "pt",
    "parent": null,
    "longitude": -7.96667003631592,
    "latitude": 37.86669921875,
    "regions": [
      "1233"
    ]
  },
  {
    "code": "12906",
    "name": "Albufeira",
    "updated_at": "2014-09-22T21:11:47.183467Z",
    "country": "pt",
    "parent": null,
    "longitude": -8.25082015991211,
    "latitude": 37.0886001586914,
    "regions": [
      "10cd"
    ]
  },
  {
    "code": "12905",
    "name": "Alcabideche",
    "updated_at": "2014-09-22T21:11:47.149777Z",
    "country": "pt",
    "parent": null,
    "longitude": -9.41666984558105,
    "latitude": 38.7332992553711,
    "regions": [
      "1434"
    ]
  },
  {
    "code": "12904",
    "name": "Alcácer do Sal",
    "updated_at": "2014-09-22T21:11:47.124593Z",
    "country": "pt",
    "parent": null,
    "longitude": -8.5,
    "latitude": 38.36669921875,
    "regions": [
      "1233"
    ]
  },
  {
    "code": "12903",
    "name": "Alcáçovas",
    "updated_at": "2014-09-22T21:11:47.097837Z",
    "country": "pt",
    "parent": null,
    "longitude": -8.14999961853027,
    "latitude": 38.4000015258789,
    "regions": [
      "1233"
    ]
  },
  {
    "code": "12902",
    "name": "Alcains",
    "updated_at": "2014-09-22T21:11:47.072190Z",
    "country": "pt",
    "parent": null,
    "longitude": -7.44999980926514,
    "latitude": 39.9166984558105,
    "regions": [
      "1433"
    ]
  },
  {
    "code": "12901",
    "name": "Alcanena",
    "updated_at": "2014-09-22T21:11:47.036624Z",
    "country": "pt",
    "parent": null,
    "longitude": -8.66666984558105,
    "latitude": 39.4500007629395,
    "regions": [
      "1433"
    ]
  },
  {
    "code": "12900",
    "name": "Alcanhões",
    "updated_at": "2014-09-22T21:11:47.007616Z",
    "country": "pt",
    "parent": null,
    "longitude": -8.66666984558105,
    "latitude": 39.2999992370605,
    "regions": []
  },
  {
    "code": "128ff",
    "name": "Alcantarilha",
    "updated_at": "2014-09-22T21:11:46.981002Z",
    "country": "pt",
    "parent": null,
    "longitude": -8.35000038146973,
    "latitude": 37.13330078125,
    "regions": [
      "10cd"
    ]
  },
  {
    "code": "128fe",
    "name": "Alcobaça",
    "updated_at": "2014-09-22T21:11:46.963497Z",
    "country": "pt",
    "parent": null,
    "longitude": -8.98332977294922,
    "latitude": 39.5499992370605,
    "regions": [
      "1433"
    ]
  },
  {
    "code": "128fd",
    "name": "Alcochete",
    "updated_at": "2014-09-22T21:11:46.946097Z",
    "country": "pt",
    "parent": null,
    "longitude": -8.96667003631592,
    "latitude": 38.75,
    "regions": []
  },
  {
    "code": "128fc",
    "name": "Alcoutim",
    "updated_at": "2014-09-22T21:11:46.928474Z",
    "country": "pt",
    "parent": null,
    "longitude": -7.46667003631592,
    "latitude": 37.4667015075684,
    "regions": [
      "10cd"
    ]
  },
  {
    "code": "128fb",
    "name": "Aldeia das Dez",
    "updated_at": "2014-09-22T21:11:46.910148Z",
    "country": "pt",
    "parent": null,
    "longitude": -7.86667013168335,
    "latitude": 40.2999992370605,
    "regions": [
      "1433"
    ]
  },
  {
    "code": "128fa",
    "name": "Aldeia da Serra",
    "updated_at": "2014-09-22T21:11:46.892191Z",
    "country": "pt",
    "parent": null,
    "longitude": -7.56666994094849,
    "latitude": 38.7167015075684,
    "regions": [
      "1233"
    ]
  },
  {
    "code": "128f9",
    "name": "Aldeia da Serra",
    "updated_at": "2014-09-22T21:11:46.865187Z",
    "country": "pt",
    "parent": null,
    "longitude": -7.68333005905151,
    "latitude": 40.4166984558105,
    "regions": [
      "1433"
    ]
  },
  {
    "code": "128f8",
    "name": "Aldeia de Irmãos",
    "updated_at": "2014-09-22T21:11:46.813347Z",
    "country": "pt",
    "parent": null,
    "longitude": -9.03332996368408,
    "latitude": 38.5167007446289,
    "regions": [
      "1434"
    ]
  },
  {
    "code": "128f7",
    "name": "Aldeia do Bispo",
    "updated_at": "2014-09-22T21:11:46.778236Z",
    "country": "pt",
    "parent": null,
    "longitude": -6.84999990463257,
    "latitude": 40.3166999816895,
    "regions": [
      "1433"
    ]
  },
  {
    "code": "128f6",
    "name": "Aldeia do Meco",
    "updated_at": "2014-09-22T21:11:46.743508Z",
    "country": "pt",
    "parent": null,
    "longitude": -9.16666984558105,
    "latitude": 38.4667015075684,
    "regions": [
      "1434"
    ]
  },
  {
    "code": "128f5",
    "name": "Aldeia Galega",
    "updated_at": "2014-09-22T21:11:46.715094Z",
    "country": "pt",
    "parent": null,
    "longitude": -9.39999961853027,
    "latitude": 38.8333015441895,
    "regions": [
      "1434"
    ]
  },
  {
    "code": "128f4",
    "name": "Aldeia Nova",
    "updated_at": "2014-09-22T21:11:46.698967Z",
    "country": "pt",
    "parent": null,
    "longitude": -6.23332977294922,
    "latitude": 41.5332984924316,
    "regions": [
      "1432"
    ]
  },
  {
    "code": "128f3",
    "name": "Aldeia Nova do Cabo",
    "updated_at": "2014-09-22T21:11:46.682985Z",
    "country": "pt",
    "parent": null,
    "longitude": -7.53332996368408,
    "latitude": 40.13330078125,
    "regions": [
      "1433"
    ]
  },
  {
    "code": "128f2",
    "name": "Aldeia Viçosa",
    "updated_at": "2014-09-22T21:11:46.666193Z",
    "country": "pt",
    "parent": null,
    "longitude": -7.31666994094849,
    "latitude": 40.5833015441895,
    "regions": [
      "1433"
    ]
  },
  {
    "code": "128f1",
    "name": "Alegrete",
    "updated_at": "2014-09-22T21:11:46.630895Z",
    "country": "pt",
    "parent": null,
    "longitude": -7.31666994094849,
    "latitude": 39.2332992553711,
    "regions": [
      "1233"
    ]
  },
  {
    "code": "128f0",
    "name": "Alenquer",
    "updated_at": "2014-09-22T21:11:46.604686Z",
    "country": "pt",
    "parent": null,
    "longitude": -9.0,
    "latitude": 39.0499992370605,
    "regions": [
      "1433"
    ]
  },
  {
    "code": "128ef",
    "name": "Alfaiates",
    "updated_at": "2014-09-22T21:11:46.578351Z",
    "country": "pt",
    "parent": null,
    "longitude": -6.91666984558105,
    "latitude": 40.38330078125,
    "regions": []
  },
  {
    "code": "128ee",
    "name": "Alfarim",
    "updated_at": "2014-09-22T21:11:46.547799Z",
    "country": "pt",
    "parent": null,
    "longitude": -9.16666984558105,
    "latitude": 38.4667015075684,
    "regions": [
      "1434"
    ]
  },
  {
    "code": "128ed",
    "name": "Alfarrobeira",
    "updated_at": "2014-09-22T21:11:46.512048Z",
    "country": "pt",
    "parent": null,
    "longitude": -8.01667022705078,
    "latitude": 37.11669921875,
    "regions": [
      "10cd"
    ]
  },
  {
    "code": "128ec",
    "name": "Alfeizerão",
    "updated_at": "2014-09-22T21:11:46.476533Z",
    "country": "pt",
    "parent": null,
    "longitude": -9.10000038146973,
    "latitude": 39.5,
    "regions": []
  },
  {
    "code": "128eb",
    "name": "Alfontes",
    "updated_at": "2014-09-22T21:11:46.459854Z",
    "country": "pt",
    "parent": null,
    "longitude": -8.13333034515381,
    "latitude": 37.1500015258789,
    "regions": [
      "10cd"
    ]
  },
  {
    "code": "128ea",
    "name": "Alfragide",
    "updated_at": "2014-09-22T21:11:46.443535Z",
    "country": "pt",
    "parent": null,
    "longitude": -9.22072505953111,
    "latitude": 38.7374046733853,
    "regions": [
      "1434"
    ]
  },
  {
    "code": "128e9",
    "name": "Algés",
    "updated_at": "2014-09-22T21:11:46.410256Z",
    "country": "pt",
    "parent": null,
    "longitude": -9.23332977294922,
    "latitude": 38.7000007629395,
    "regions": [
      "1434"
    ]
  },
  {
    "code": "128e8",
    "name": "Algoceira",
    "updated_at": "2014-09-22T21:11:46.393451Z",
    "country": "pt",
    "parent": null,
    "longitude": -8.69999980926514,
    "latitude": 37.5999984741211,
    "regions": [
      "1233"
    ]
  },
  {
    "code": "128e7",
    "name": "Algoz",
    "updated_at": "2014-09-22T21:11:46.375077Z",
    "country": "pt",
    "parent": null,
    "longitude": -8.30000019073486,
    "latitude": 37.1666984558105,
    "regions": []
  },
  {
    "code": "128e6",
    "name": "Alijó",
    "updated_at": "2014-09-22T21:11:46.348953Z",
    "country": "pt",
    "parent": null,
    "longitude": -7.46667003631592,
    "latitude": 41.2667007446289,
    "regions": [
      "1432"
    ]
  },
  {
    "code": "128e5",
    "name": "Aljezur",
    "updated_at": "2014-09-22T21:11:46.323182Z",
    "country": "pt",
    "parent": null,
    "longitude": -8.80000019073486,
    "latitude": 37.3166999816895,
    "regions": [
      "10cd"
    ]
  },
  {
    "code": "128e4",
    "name": "Aljubarrota",
    "updated_at": "2014-09-22T21:11:46.292891Z",
    "country": "pt",
    "parent": null,
    "longitude": -8.93332958221436,
    "latitude": 39.5666999816895,
    "regions": [
      "1433"
    ]
  },
  {
    "code": "128e3",
    "name": "Aljustrel",
    "updated_at": "2014-09-22T21:11:46.258775Z",
    "country": "pt",
    "parent": null,
    "longitude": -8.16666984558105,
    "latitude": 37.86669921875,
    "regions": [
      "1233"
    ]
  },
  {
    "code": "128e2",
    "name": "Almaça",
    "updated_at": "2014-09-22T21:11:46.224597Z",
    "country": "pt",
    "parent": null,
    "longitude": -8.21667003631592,
    "latitude": 40.3333015441895,
    "regions": [
      "1433"
    ]
  },
  {
    "code": "128e1",
    "name": "Almacinha",
    "updated_at": "2014-09-22T21:11:46.204152Z",
    "country": "pt",
    "parent": null,
    "longitude": -8.18332958221436,
    "latitude": 40.3499984741211,
    "regions": [
      "1433"
    ]
  },
  {
    "code": "128e0",
    "name": "Almada",
    "updated_at": "2014-09-22T21:11:46.188337Z",
    "country": "pt",
    "parent": null,
    "longitude": -9.16358184884302,
    "latitude": 38.6768463359583,
    "regions": [
      "1434"
    ]
  },
  {
    "code": "128df",
    "name": "Almádena",
    "updated_at": "2014-09-22T21:11:46.172105Z",
    "country": "pt",
    "parent": null,
    "longitude": -8.76667022705078,
    "latitude": 37.0999984741211,
    "regions": [
      "10cd"
    ]
  },
  {
    "code": "128de",
    "name": "Almancil",
    "updated_at": "2014-09-22T21:11:46.155288Z",
    "country": "pt",
    "parent": null,
    "longitude": -8.03332996368408,
    "latitude": 37.0833015441895,
    "regions": [
      "10cd"
    ]
  },
  {
    "code": "128dd",
    "name": "Almargem",
    "updated_at": "2014-09-22T21:11:46.138388Z",
    "country": "pt",
    "parent": null,
    "longitude": -9.26667022705078,
    "latitude": 38.8333015441895,
    "regions": [
      "1434"
    ]
  },
  {
    "code": "128dc",
    "name": "Almeida",
    "updated_at": "2014-09-22T21:11:46.118829Z",
    "country": "pt",
    "parent": null,
    "longitude": -6.90000009536743,
    "latitude": 40.7167015075684,
    "regions": [
      "1433"
    ]
  },
  {
    "code": "128db",
    "name": "Almeirim",
    "updated_at": "2014-09-22T21:11:46.092883Z",
    "country": "pt",
    "parent": null,
    "longitude": -8.63333034515381,
    "latitude": 39.2000007629395,
    "regions": []
  },
  {
    "code": "128da",
    "name": "Almoçageme",
    "updated_at": "2014-09-22T21:11:46.066905Z",
    "country": "pt",
    "parent": null,
    "longitude": -9.46667003631592,
    "latitude": 38.7999992370605,
    "regions": [
      "1434"
    ]
  },
  {
    "code": "128d9",
    "name": "Almodôvar",
    "updated_at": "2014-09-22T21:11:46.035202Z",
    "country": "pt",
    "parent": null,
    "longitude": -8.06667041778564,
    "latitude": 37.5167007446289,
    "regions": [
      "1233"
    ]
  },
  {
    "code": "128d8",
    "name": "Almograve",
    "updated_at": "2014-09-22T21:11:46.001731Z",
    "country": "pt",
    "parent": null,
    "longitude": -8.80000019073486,
    "latitude": 37.6500015258789,
    "regions": [
      "1233"
    ]
  },
  {
    "code": "128d7",
    "name": "Alpalhão",
    "updated_at": "2014-09-22T21:11:45.967520Z",
    "country": "pt",
    "parent": null,
    "longitude": -7.61667013168335,
    "latitude": 39.4166984558105,
    "regions": [
      "1233"
    ]
  },
  {
    "code": "128d6",
    "name": "Alpiarça",
    "updated_at": "2014-09-22T21:11:45.951450Z",
    "country": "pt",
    "parent": null,
    "longitude": -8.58333015441895,
    "latitude": 39.25,
    "regions": []
  },
  {
    "code": "128d5",
    "name": "Alqueidão",
    "updated_at": "2014-09-22T21:11:45.935098Z",
    "country": "pt",
    "parent": null,
    "longitude": -8.28332996368408,
    "latitude": 39.63330078125,
    "regions": [
      "1433"
    ]
  },
  {
    "code": "128d4",
    "name": "Alquerubim",
    "updated_at": "2014-09-22T21:11:45.918795Z",
    "country": "pt",
    "parent": null,
    "longitude": -8.5,
    "latitude": 40.61669921875,
    "regions": [
      "1433"
    ]
  },
  {
    "code": "128d3",
    "name": "Alqueva",
    "updated_at": "2014-09-22T21:11:45.902073Z",
    "country": "pt",
    "parent": null,
    "longitude": -7.53332996368408,
    "latitude": 38.2167015075684,
    "regions": [
      "1233"
    ]
  },
  {
    "code": "128d2",
    "name": "Alte",
    "updated_at": "2014-09-22T21:11:45.885763Z",
    "country": "pt",
    "parent": null,
    "longitude": -8.18332958221436,
    "latitude": 37.2332992553711,
    "regions": [
      "10cd"
    ]
  },
  {
    "code": "128d1",
    "name": "Alter do Chão",
    "updated_at": "2014-09-22T21:11:45.865147Z",
    "country": "pt",
    "parent": null,
    "longitude": -7.65747022628784,
    "latitude": 39.195499420166,
    "regions": [
      "1233"
    ]
  },
  {
    "code": "128d0",
    "name": "Altura",
    "updated_at": "2014-09-22T21:11:45.840988Z",
    "country": "pt",
    "parent": null,
    "longitude": -7.5,
    "latitude": 37.1833000183105,
    "regions": [
      "10cd"
    ]
  },
  {
    "code": "128cf",
    "name": "Alvados",
    "updated_at": "2014-09-22T21:11:45.817464Z",
    "country": "pt",
    "parent": null,
    "longitude": -8.76667022705078,
    "latitude": 39.5499992370605,
    "regions": [
      "1433"
    ]
  },
  {
    "code": "128ce",
    "name": "Alvaiázere",
    "updated_at": "2014-09-22T21:11:45.793099Z",
    "country": "pt",
    "parent": null,
    "longitude": -8.38333034515381,
    "latitude": 39.8166999816895,
    "regions": [
      "1433"
    ]
  },
  {
    "code": "128cd",
    "name": "Alvaredo",
    "updated_at": "2014-09-22T21:11:45.766151Z",
    "country": "pt",
    "parent": null,
    "longitude": -8.23332977294922,
    "latitude": 41.6500015258789,
    "regions": [
      "1432"
    ]
  },
  {
    "code": "128cc",
    "name": "Alvarenga",
    "updated_at": "2014-09-22T21:11:45.736037Z",
    "country": "pt",
    "parent": null,
    "longitude": -8.16666984558105,
    "latitude": 40.9667015075684,
    "regions": [
      "1432"
    ]
  },
  {
    "code": "128cb",
    "name": "Alvaro",
    "updated_at": "2014-09-22T21:11:45.709228Z",
    "country": "pt",
    "parent": null,
    "longitude": -7.96667003631592,
    "latitude": 39.9667015075684,
    "regions": [
      "1433"
    ]
  },
  {
    "code": "128ca",
    "name": "Alvega",
    "updated_at": "2014-09-22T21:11:45.693160Z",
    "country": "pt",
    "parent": null,
    "longitude": -8.05000019073486,
    "latitude": 39.4667015075684,
    "regions": [
      "1433"
    ]
  },
  {
    "code": "128c9",
    "name": "Alvito",
    "updated_at": "2014-09-22T21:11:45.677796Z",
    "country": "pt",
    "parent": null,
    "longitude": -7.98332977294922,
    "latitude": 38.25,
    "regions": [
      "1233"
    ]
  },
  {
    "code": "128c8",
    "name": "Alvoco da Serra",
    "updated_at": "2014-09-22T21:11:45.661781Z",
    "country": "pt",
    "parent": null,
    "longitude": -7.66666984558105,
    "latitude": 40.2999992370605,
    "regions": [
      "1433"
    ]
  },
  {
    "code": "128c7",
    "name": "Alvoco das Várzeas",
    "updated_at": "2014-09-22T21:11:45.645790Z",
    "country": "pt",
    "parent": null,
    "longitude": -7.83333015441895,
    "latitude": 40.2999992370605,
    "regions": [
      "1433"
    ]
  },
  {
    "code": "128c6",
    "name": "Amadora",
    "updated_at": "2014-09-22T21:11:45.629681Z",
    "country": "pt",
    "parent": null,
    "longitude": -9.22623825143091,
    "latitude": 38.7578448781252,
    "regions": [
      "1434"
    ]
  },
  {
    "code": "128c5",
    "name": "Amarante",
    "updated_at": "2014-09-22T21:11:45.613868Z",
    "country": "pt",
    "parent": null,
    "longitude": -8.08333015441895,
    "latitude": 41.2667007446289,
    "regions": [
      "1432"
    ]
  },
  {
    "code": "128c4",
    "name": "Amares",
    "updated_at": "2014-09-22T21:11:45.594456Z",
    "country": "pt",
    "parent": null,
    "longitude": -8.35000038146973,
    "latitude": 41.63330078125,
    "regions": [
      "1432"
    ]
  },
  {
    "code": "128c3",
    "name": "Amiães de Cima",
    "updated_at": "2014-09-22T21:11:45.570507Z",
    "country": "pt",
    "parent": null,
    "longitude": -8.76667022705078,
    "latitude": 39.4500007629395,
    "regions": []
  },
  {
    "code": "128c2",
    "name": "Ameal",
    "updated_at": "2014-09-22T21:11:45.546313Z",
    "country": "pt",
    "parent": null,
    "longitude": -9.23332977294922,
    "latitude": 39.13330078125,
    "regions": [
      "1433"
    ]
  },
  {
    "code": "128c1",
    "name": "Amieira",
    "updated_at": "2014-09-22T21:11:45.520839Z",
    "country": "pt",
    "parent": null,
    "longitude": -7.56666994094849,
    "latitude": 38.2832984924316,
    "regions": [
      "1233"
    ]
  },
  {
    "code": "128c0",
    "name": "Amieira",
    "updated_at": "2014-09-22T21:11:45.492208Z",
    "country": "pt",
    "parent": null,
    "longitude": -8.61666965484619,
    "latitude": 38.9500007629395,
    "regions": []
  },
  {
    "code": "128bf",
    "name": "Anadia",
    "updated_at": "2014-09-22T21:11:45.434601Z",
    "country": "pt",
    "parent": null,
    "longitude": -8.43332958221436,
    "latitude": 40.4333000183105,
    "regions": [
      "1433"
    ]
  },
  {
    "code": "128be",
    "name": "Anciães",
    "updated_at": "2014-09-22T21:11:45.400396Z",
    "country": "pt",
    "parent": null,
    "longitude": -7.94999980926514,
    "latitude": 41.25,
    "regions": [
      "1432"
    ]
  },
  {
    "code": "128bd",
    "name": "Angra do Heroísmo",
    "updated_at": "2014-09-22T21:11:45.384234Z",
    "country": "pt",
    "parent": null,
    "longitude": -27.2166996002197,
    "latitude": 38.6500015258789,
    "regions": [
      "117c",
      "1356"
    ]
  },
  {
    "code": "128bc",
    "name": "Anha",
    "updated_at": "2014-09-22T21:11:45.368183Z",
    "country": "pt",
    "parent": null,
    "longitude": -8.80000019073486,
    "latitude": 41.6666984558105,
    "regions": [
      "1432"
    ]
  },
  {
    "code": "128bb",
    "name": "Anjos",
    "updated_at": "2014-09-22T21:11:45.351508Z",
    "country": "pt",
    "parent": null,
    "longitude": -8.06667041778564,
    "latitude": 41.5999984741211,
    "regions": [
      "1432"
    ]
  },
  {
    "code": "128ba",
    "name": "Aranhas",
    "updated_at": "2014-09-22T21:11:45.334779Z",
    "country": "pt",
    "parent": null,
    "longitude": -7.11667013168335,
    "latitude": 40.11669921875,
    "regions": [
      "1433"
    ]
  },
  {
    "code": "128b9",
    "name": "Arco da Calheta",
    "updated_at": "2014-09-22T21:11:45.289603Z",
    "country": "pt",
    "parent": null,
    "longitude": -17.1499996185303,
    "latitude": 32.7000007629395,
    "regions": [
      "11da"
    ]
  },
  {
    "code": "128b8",
    "name": "Arco de São Jorge",
    "updated_at": "2014-09-22T21:11:45.267934Z",
    "country": "pt",
    "parent": null,
    "longitude": -16.9500007629395,
    "latitude": 32.8166999816895,
    "regions": [
      "11da"
    ]
  },
  {
    "code": "128b7",
    "name": "Arcos",
    "updated_at": "2014-09-22T21:11:45.240042Z",
    "country": "pt",
    "parent": null,
    "longitude": -8.66666984558105,
    "latitude": 41.4000015258789,
    "regions": [
      "1432"
    ]
  },
  {
    "code": "128b6",
    "name": "Arcos de Valdevez",
    "updated_at": "2014-09-22T21:11:45.181321Z",
    "country": "pt",
    "parent": null,
    "longitude": -8.41666984558105,
    "latitude": 41.8499984741211,
    "regions": [
      "1432"
    ]
  },
  {
    "code": "128b5",
    "name": "Arcozelo",
    "updated_at": "2014-09-22T21:11:45.157058Z",
    "country": "pt",
    "parent": null,
    "longitude": -8.64933013916016,
    "latitude": 41.0536003112793,
    "regions": [
      "1432"
    ]
  },
  {
    "code": "128b4",
    "name": "Areia Branca",
    "updated_at": "2014-09-22T21:11:45.140749Z",
    "country": "pt",
    "parent": null,
    "longitude": -9.33333015441895,
    "latitude": 39.25,
    "regions": [
      "1433"
    ]
  },
  {
    "code": "128b3",
    "name": "Arelho",
    "updated_at": "2014-09-22T21:11:45.124885Z",
    "country": "pt",
    "parent": null,
    "longitude": -9.18332958221436,
    "latitude": 39.38330078125,
    "regions": [
      "1433"
    ]
  },
  {
    "code": "128b2",
    "name": "Argemil",
    "updated_at": "2014-09-22T21:11:45.106554Z",
    "country": "pt",
    "parent": null,
    "longitude": -7.41666984558105,
    "latitude": 41.5833015441895,
    "regions": [
      "1432"
    ]
  },
  {
    "code": "128b1",
    "name": "Aricera",
    "updated_at": "2014-09-22T21:11:45.090398Z",
    "country": "pt",
    "parent": null,
    "longitude": -7.65000009536743,
    "latitude": 41.0999984741211,
    "regions": [
      "1432"
    ]
  },
  {
    "code": "128b0",
    "name": "Armação de Pêra",
    "updated_at": "2014-09-22T21:11:45.074254Z",
    "country": "pt",
    "parent": null,
    "longitude": -8.35000038146973,
    "latitude": 37.0999984741211,
    "regions": [
      "10cd"
    ]
  },
  {
    "code": "128af",
    "name": "Armamar",
    "updated_at": "2014-09-22T21:11:45.057775Z",
    "country": "pt",
    "parent": null,
    "longitude": -7.69999980926514,
    "latitude": 41.0999984741211,
    "regions": [
      "1432"
    ]
  },
  {
    "code": "128ae",
    "name": "Arouca",
    "updated_at": "2014-09-22T21:11:45.012252Z",
    "country": "pt",
    "parent": null,
    "longitude": -8.25,
    "latitude": 40.9333000183105,
    "regions": [
      "1432"
    ]
  },
  {
    "code": "128ad",
    "name": "Arraiolos",
    "updated_at": "2014-09-22T21:11:44.988377Z",
    "country": "pt",
    "parent": null,
    "longitude": -7.98332977294922,
    "latitude": 38.7167015075684,
    "regions": [
      "1233"
    ]
  },
  {
    "code": "128ac",
    "name": "Arrentela",
    "updated_at": "2014-09-22T21:11:44.962118Z",
    "country": "pt",
    "parent": null,
    "longitude": -9.10000038146973,
    "latitude": 38.61669921875,
    "regions": [
      "1434"
    ]
  },
  {
    "code": "128ab",
    "name": "Arronches",
    "updated_at": "2014-09-22T21:11:44.933652Z",
    "country": "pt",
    "parent": null,
    "longitude": -7.28332996368408,
    "latitude": 39.11669921875,
    "regions": [
      "1233"
    ]
  },
  {
    "code": "128aa",
    "name": "Arruda dos Vinhos",
    "updated_at": "2014-09-22T21:11:44.902835Z",
    "country": "pt",
    "parent": null,
    "longitude": -9.08333015441895,
    "latitude": 38.9832992553711,
    "regions": [
      "1433"
    ]
  },
  {
    "code": "128a9",
    "name": "Ataíde",
    "updated_at": "2014-09-22T21:11:44.874435Z",
    "country": "pt",
    "parent": null,
    "longitude": -8.19999980926514,
    "latitude": 41.25,
    "regions": [
      "1432"
    ]
  },
  {
    "code": "128a8",
    "name": "Atalaia",
    "updated_at": "2014-09-22T21:11:44.859432Z",
    "country": "pt",
    "parent": null,
    "longitude": -8.44999980926514,
    "latitude": 39.4832992553711,
    "regions": [
      "1433"
    ]
  },
  {
    "code": "128a7",
    "name": "Atalaia de Cima",
    "updated_at": "2014-09-22T21:11:44.844156Z",
    "country": "pt",
    "parent": null,
    "longitude": -9.33333015441895,
    "latitude": 39.2332992553711,
    "regions": [
      "1433"
    ]
  },
  {
    "code": "128a6",
    "name": "Atouguia da Baleia",
    "updated_at": "2014-09-22T21:11:44.828123Z",
    "country": "pt",
    "parent": null,
    "longitude": -9.32738971710205,
    "latitude": 39.3358993530273,
    "regions": [
      "1433"
    ]
  },
  {
    "code": "128a5",
    "name": "Aveiro",
    "updated_at": "2014-09-22T21:11:44.811148Z",
    "country": "pt",
    "parent": null,
    "longitude": -8.64999961853027,
    "latitude": 40.63330078125,
    "regions": [
      "1433"
    ]
  },
  {
    "code": "128a4",
    "name": "Aveleda",
    "updated_at": "2014-09-22T21:11:44.794497Z",
    "country": "pt",
    "parent": null,
    "longitude": -8.68332958221436,
    "latitude": 41.2667007446289,
    "regions": []
  },
  {
    "code": "128a3",
    "name": "Aves",
    "updated_at": "2014-09-22T21:11:44.778254Z",
    "country": "pt",
    "parent": null,
    "longitude": -8.39999961853027,
    "latitude": 41.36669921875,
    "regions": [
      "1432"
    ]
  },
  {
    "code": "128a2",
    "name": "Avis",
    "updated_at": "2014-09-22T21:11:44.759279Z",
    "country": "pt",
    "parent": null,
    "longitude": -7.88332986831665,
    "latitude": 39.0499992370605,
    "regions": [
      "1233"
    ]
  },
  {
    "code": "128a1",
    "name": "Azaruja",
    "updated_at": "2014-09-22T21:11:44.737884Z",
    "country": "pt",
    "parent": null,
    "longitude": -7.78332996368408,
    "latitude": 38.7000007629395,
    "regions": [
      "1233"
    ]
  },
  {
    "code": "128a0",
    "name": "Azenhas do Mar",
    "updated_at": "2014-09-22T21:11:44.714340Z",
    "country": "pt",
    "parent": null,
    "longitude": -9.44999980926514,
    "latitude": 38.8333015441895,
    "regions": [
      "1434"
    ]
  },
  {
    "code": "1289f",
    "name": "Azinhaga",
    "updated_at": "2014-09-22T21:11:44.693819Z",
    "country": "pt",
    "parent": null,
    "longitude": -8.53332996368408,
    "latitude": 39.3499984741211,
    "regions": []
  },
  {
    "code": "1289e",
    "name": "Bairros",
    "updated_at": "2014-09-22T21:11:44.670413Z",
    "country": "pt",
    "parent": null,
    "longitude": -8.41666984558105,
    "latitude": 38.0666999816895,
    "regions": [
      "1233"
    ]
  },
  {
    "code": "1289d",
    "name": "Azoia",
    "updated_at": "2014-09-22T21:11:44.638142Z",
    "country": "pt",
    "parent": null,
    "longitude": -9.18332958221436,
    "latitude": 38.4333000183105,
    "regions": [
      "1434"
    ]
  },
  {
    "code": "1289c",
    "name": "Azoia",
    "updated_at": "2014-09-22T21:11:44.616063Z",
    "country": "pt",
    "parent": null,
    "longitude": -9.48332977294922,
    "latitude": 38.7667007446289,
    "regions": [
      "1434"
    ]
  },
  {
    "code": "1289b",
    "name": "Azurara",
    "updated_at": "2014-09-22T21:11:44.593350Z",
    "country": "pt",
    "parent": null,
    "longitude": -8.73332977294922,
    "latitude": 41.3499984741211,
    "regions": [
      "1432"
    ]
  },
  {
    "code": "1289a",
    "name": "Baião",
    "updated_at": "2014-09-22T21:11:44.577482Z",
    "country": "pt",
    "parent": null,
    "longitude": -8.03332996368408,
    "latitude": 41.1500015258789,
    "regions": [
      "1432"
    ]
  },
  {
    "code": "12899",
    "name": "Bajolo",
    "updated_at": "2014-09-22T21:11:44.563233Z",
    "country": "pt",
    "parent": null,
    "longitude": -7.69999980926514,
    "latitude": 38.7832984924316,
    "regions": [
      "1233"
    ]
  },
  {
    "code": "12898",
    "name": "Baleal",
    "updated_at": "2014-09-22T21:11:44.547289Z",
    "country": "pt",
    "parent": null,
    "longitude": -9.35000038146973,
    "latitude": 39.36669921875,
    "regions": []
  },
  {
    "code": "12897",
    "name": "Balteiro",
    "updated_at": "2014-09-22T21:11:44.533033Z",
    "country": "pt",
    "parent": null,
    "longitude": -8.69999980926514,
    "latitude": 41.75,
    "regions": [
      "1432"
    ]
  },
  {
    "code": "12896",
    "name": "Bandeiras",
    "updated_at": "2014-09-22T21:11:44.518856Z",
    "country": "pt",
    "parent": null,
    "longitude": -28.4500007629395,
    "latitude": 38.5332984924316,
    "regions": [
      "117c",
      "1357"
    ]
  },
  {
    "code": "12895",
    "name": "Barcelos",
    "updated_at": "2014-09-22T21:11:44.486850Z",
    "country": "pt",
    "parent": null,
    "longitude": -8.61666965484619,
    "latitude": 41.5332984924316,
    "regions": [
      "1432"
    ]
  },
  {
    "code": "12894",
    "name": "Barra",
    "updated_at": "2016-02-09T09:32:29.691782Z",
    "country": "pt",
    "parent": null,
    "longitude": -8.75,
    "latitude": 40.63330078125,
    "regions": [
      "1433"
    ]
  },
  {
    "code": "12893",
    "name": "Barra Cheia",
    "updated_at": "2014-09-22T21:11:44.454253Z",
    "country": "pt",
    "parent": null,
    "longitude": -9.0,
    "latitude": 38.5999984741211,
    "regions": [
      "1434"
    ]
  },
  {
    "code": "12892",
    "name": "Barrancos",
    "updated_at": "2014-09-22T21:11:44.437302Z",
    "country": "pt",
    "parent": null,
    "longitude": -6.98332977294922,
    "latitude": 38.13330078125,
    "regions": [
      "1233"
    ]
  },
  {
    "code": "12891",
    "name": "Barreiro",
    "updated_at": "2014-09-22T21:11:44.420548Z",
    "country": "pt",
    "parent": null,
    "longitude": -9.06667041778564,
    "latitude": 38.6666984558105,
    "regions": [
      "1434"
    ]
  },
  {
    "code": "12890",
    "name": "Barrosinha",
    "updated_at": "2014-09-22T21:11:44.399949Z",
    "country": "pt",
    "parent": null,
    "longitude": -8.48332977294922,
    "latitude": 38.36669921875,
    "regions": [
      "1233"
    ]
  },
  {
    "code": "1288f",
    "name": "Santo Estêvão",
    "updated_at": "2014-09-22T21:11:44.375299Z",
    "country": "pt",
    "parent": null,
    "longitude": -8.51667022705078,
    "latitude": 41.5167007446289,
    "regions": [
      "1432"
    ]
  },
  {
    "code": "1288e",
    "name": "Batalha",
    "updated_at": "2014-09-22T21:11:44.355114Z",
    "country": "pt",
    "parent": null,
    "longitude": -8.83333015441895,
    "latitude": 39.6500015258789,
    "regions": [
      "1433"
    ]
  },
  {
    "code": "1288d",
    "name": "Beirã",
    "updated_at": "2014-09-22T21:11:44.328894Z",
    "country": "pt",
    "parent": null,
    "longitude": -7.36667013168335,
    "latitude": 39.4500007629395,
    "regions": [
      "1233"
    ]
  },
  {
    "code": "1288c",
    "name": "Beja",
    "updated_at": "2014-09-22T21:11:41.198013Z",
    "country": "pt",
    "parent": null,
    "longitude": -7.86312103271484,
    "latitude": 38.0153541564941,
    "regions": [
      "1233"
    ]
  },
  {
    "code": "1288b",
    "name": "Belmonte",
    "updated_at": "2014-09-22T21:11:41.181968Z",
    "country": "pt",
    "parent": null,
    "longitude": -7.34985017776489,
    "latitude": 40.3609008789062,
    "regions": [
      "1433"
    ]
  },
  {
    "code": "1288a",
    "name": "Belver",
    "updated_at": "2014-09-22T21:11:41.165306Z",
    "country": "pt",
    "parent": null,
    "longitude": -7.94999980926514,
    "latitude": 39.5,
    "regions": [
      "1233",
      "1433"
    ]
  },
  {
    "code": "12889",
    "name": "Benfica",
    "updated_at": "2014-09-22T21:11:41.147756Z",
    "country": "pt",
    "parent": null,
    "longitude": -8.68332958221436,
    "latitude": 39.13330078125,
    "regions": []
  },
  {
    "code": "12888",
    "name": "Bemposta",
    "updated_at": "2014-09-22T21:11:41.131249Z",
    "country": "pt",
    "parent": null,
    "longitude": -6.5,
    "latitude": 41.3166999816895,
    "regions": [
      "1432"
    ]
  },
  {
    "code": "12887",
    "name": "Benavente",
    "updated_at": "2014-09-22T21:11:41.072722Z",
    "country": "pt",
    "parent": null,
    "longitude": -8.80000019073486,
    "latitude": 38.9832992553711,
    "regions": []
  },
  {
    "code": "12886",
    "name": "Benedita",
    "updated_at": "2014-09-22T21:11:41.049231Z",
    "country": "pt",
    "parent": null,
    "longitude": -8.98332977294922,
    "latitude": 39.4166984558105,
    "regions": [
      "1433"
    ]
  },
  {
    "code": "12885",
    "name": "Bensafrim",
    "updated_at": "2014-09-22T21:11:41.019370Z",
    "country": "pt",
    "parent": null,
    "longitude": -8.73332977294922,
    "latitude": 37.1500015258789,
    "regions": [
      "10cd"
    ]
  },
  {
    "code": "12884",
    "name": "Beringel",
    "updated_at": "2014-09-22T21:11:40.990166Z",
    "country": "pt",
    "parent": null,
    "longitude": -7.98332977294922,
    "latitude": 38.0499992370605,
    "regions": [
      "1233"
    ]
  },
  {
    "code": "12883",
    "name": "Boas Eiras",
    "updated_at": "2014-09-22T21:11:40.935489Z",
    "country": "pt",
    "parent": null,
    "longitude": -8.28332996368408,
    "latitude": 40.2999992370605,
    "regions": [
      "1433"
    ]
  },
  {
    "code": "12882",
    "name": "Boaventura",
    "updated_at": "2014-09-22T21:11:40.919293Z",
    "country": "pt",
    "parent": null,
    "longitude": -16.9666996002197,
    "latitude": 32.8166999816895,
    "regions": [
      "11da"
    ]
  },
  {
    "code": "12881",
    "name": "Boliqueime",
    "updated_at": "2014-09-22T21:11:40.884844Z",
    "country": "pt",
    "parent": null,
    "longitude": -8.14999961853027,
    "latitude": 37.13330078125,
    "regions": [
      "10cd"
    ]
  },
  {
    "code": "12880",
    "name": "Bombarral",
    "updated_at": "2014-09-22T21:11:40.870036Z",
    "country": "pt",
    "parent": null,
    "longitude": -9.14999961853027,
    "latitude": 39.2667007446289,
    "regions": [
      "1433"
    ]
  },
  {
    "code": "1287f",
    "name": "Borba",
    "updated_at": "2014-09-22T21:11:40.854195Z",
    "country": "pt",
    "parent": null,
    "longitude": -7.44999980926514,
    "latitude": 38.7999992370605,
    "regions": [
      "1233"
    ]
  },
  {
    "code": "1287e",
    "name": "Borba de Godim",
    "updated_at": "2014-09-22T21:11:40.839443Z",
    "country": "pt",
    "parent": null,
    "longitude": -8.14999961853027,
    "latitude": 41.3166999816895,
    "regions": [
      "1432"
    ]
  },
  {
    "code": "1287d",
    "name": "Bordeira",
    "updated_at": "2014-09-22T21:11:40.822532Z",
    "country": "pt",
    "parent": null,
    "longitude": -8.86666965484619,
    "latitude": 37.2000007629395,
    "regions": [
      "10cd"
    ]
  },
  {
    "code": "1287c",
    "name": "Bornes",
    "updated_at": "2014-09-22T21:11:40.799135Z",
    "country": "pt",
    "parent": null,
    "longitude": -7.0,
    "latitude": 41.4500007629395,
    "regions": [
      "1432"
    ]
  },
  {
    "code": "1287b",
    "name": "Boticas",
    "updated_at": "2014-09-22T21:11:40.777641Z",
    "country": "pt",
    "parent": null,
    "longitude": -7.66666984558105,
    "latitude": 41.6833000183105,
    "regions": [
      "1432"
    ]
  },
  {
    "code": "1287a",
    "name": "Bouro",
    "updated_at": "2014-09-22T21:11:40.757239Z",
    "country": "pt",
    "parent": null,
    "longitude": -8.26667022705078,
    "latitude": 41.6500015258789,
    "regions": [
      "1432"
    ]
  },
  {
    "code": "12879",
    "name": "Braga",
    "updated_at": "2014-09-22T21:11:40.733520Z",
    "country": "pt",
    "parent": null,
    "longitude": -8.42827033996582,
    "latitude": 41.5510940551758,
    "regions": [
      "1432"
    ]
  },
  {
    "code": "12878",
    "name": "Bragança",
    "updated_at": "2014-09-22T21:11:40.707726Z",
    "country": "pt",
    "parent": null,
    "longitude": -6.75,
    "latitude": 41.8166999816895,
    "regions": [
      "1432"
    ]
  },
  {
    "code": "12877",
    "name": "Branda da Aveleira",
    "updated_at": "2014-09-22T21:11:40.681425Z",
    "country": "pt",
    "parent": null,
    "longitude": -8.28332996368408,
    "latitude": 41.9832992553711,
    "regions": [
      "1432"
    ]
  },
  {
    "code": "12876",
    "name": "Brotas",
    "updated_at": "2014-09-22T21:11:40.637702Z",
    "country": "pt",
    "parent": null,
    "longitude": -8.14999961853027,
    "latitude": 38.86669921875,
    "regions": [
      "1233"
    ]
  },
  {
    "code": "12875",
    "name": "Budens",
    "updated_at": "2014-09-22T21:11:40.605343Z",
    "country": "pt",
    "parent": null,
    "longitude": -8.83333015441895,
    "latitude": 37.0833015441895,
    "regions": [
      "10cd"
    ]
  },
  {
    "code": "12874",
    "name": "Burgau",
    "updated_at": "2014-09-22T21:11:40.589283Z",
    "country": "pt",
    "parent": null,
    "longitude": -8.77493000030518,
    "latitude": 37.0737991333008,
    "regions": [
      "10cd"
    ]
  },
  {
    "code": "12873",
    "name": "Burgo",
    "updated_at": "2014-09-22T21:11:40.573871Z",
    "country": "pt",
    "parent": null,
    "longitude": -8.26667022705078,
    "latitude": 40.9333000183105,
    "regions": [
      "1432"
    ]
  },
  {
    "code": "12872",
    "name": "Cabanas de Tavira",
    "updated_at": "2014-09-22T21:11:40.558386Z",
    "country": "pt",
    "parent": null,
    "longitude": -7.59999990463257,
    "latitude": 37.13330078125,
    "regions": [
      "10cd"
    ]
  },
  {
    "code": "12871",
    "name": "Cabanas de Torres",
    "updated_at": "2014-09-22T21:11:40.533726Z",
    "country": "pt",
    "parent": null,
    "longitude": -9.06667041778564,
    "latitude": 39.1500015258789,
    "regions": [
      "1433"
    ]
  },
  {
    "code": "12870",
    "name": "Cabeça de Carneiro",
    "updated_at": "2014-09-22T21:11:40.512970Z",
    "country": "pt",
    "parent": null,
    "longitude": -7.38332986831665,
    "latitude": 38.5332984924316,
    "regions": [
      "1233"
    ]
  },
  {
    "code": "1286f",
    "name": "Cabeção",
    "updated_at": "2014-09-22T21:11:40.465995Z",
    "country": "pt",
    "parent": null,
    "longitude": -8.06667041778564,
    "latitude": 38.9500007629395,
    "regions": [
      "1233"
    ]
  },
  {
    "code": "1286e",
    "name": "Cabeceiras de Basto",
    "updated_at": "2014-09-22T21:11:40.439676Z",
    "country": "pt",
    "parent": null,
    "longitude": -7.98332977294922,
    "latitude": 41.5167007446289,
    "regions": [
      "1432"
    ]
  },
  {
    "code": "1286d",
    "name": "Cabeço de Vide",
    "updated_at": "2014-09-22T21:11:40.410821Z",
    "country": "pt",
    "parent": null,
    "longitude": -7.58333015441895,
    "latitude": 39.13330078125,
    "regions": [
      "1233"
    ]
  },
  {
    "code": "1286c",
    "name": "Cabrela",
    "updated_at": "2014-09-22T21:11:40.383811Z",
    "country": "pt",
    "parent": null,
    "longitude": -8.46667003631592,
    "latitude": 38.5999984741211,
    "regions": [
      "1233"
    ]
  },
  {
    "code": "1286b",
    "name": "Caçarelhos",
    "updated_at": "2014-09-22T21:11:40.368443Z",
    "country": "pt",
    "parent": null,
    "longitude": -6.43333005905151,
    "latitude": 41.5666999816895,
    "regions": [
      "1432"
    ]
  },
  {
    "code": "1286a",
    "name": "Cachopos",
    "updated_at": "2014-09-22T21:11:40.353124Z",
    "country": "pt",
    "parent": null,
    "longitude": -8.64999961853027,
    "latitude": 38.4000015258789,
    "regions": [
      "1233"
    ]
  },
  {
    "code": "12869",
    "name": "Cadaval",
    "updated_at": "2014-09-22T21:11:40.337837Z",
    "country": "pt",
    "parent": null,
    "longitude": -9.10000038146973,
    "latitude": 39.2332992553711,
    "regions": [
      "1433"
    ]
  },
  {
    "code": "12868",
    "name": "Caldas da Felgueira",
    "updated_at": "2014-09-22T21:11:40.305397Z",
    "country": "pt",
    "parent": null,
    "longitude": -7.86667013168335,
    "latitude": 40.4832992553711,
    "regions": [
      "1433"
    ]
  },
  {
    "code": "12867",
    "name": "Caldas da Rainha",
    "updated_at": "2014-09-22T21:11:40.288264Z",
    "country": "pt",
    "parent": null,
    "longitude": -9.13333034515381,
    "latitude": 39.4000015258789,
    "regions": [
      "1433"
    ]
  },
  {
    "code": "12866",
    "name": "Caldas de Aregos",
    "updated_at": "2014-09-22T21:11:40.266682Z",
    "country": "pt",
    "parent": null,
    "longitude": -8.01667022705078,
    "latitude": 41.0999984741211,
    "regions": []
  },
  {
    "code": "12865",
    "name": "Caldelas",
    "updated_at": "2014-09-22T21:11:40.245953Z",
    "country": "pt",
    "parent": null,
    "longitude": -8.38333034515381,
    "latitude": 41.6666984558105,
    "regions": [
      "1432"
    ]
  },
  {
    "code": "12864",
    "name": "Calheta",
    "updated_at": "2014-09-22T21:11:40.225140Z",
    "country": "pt",
    "parent": null,
    "longitude": -17.1833000183105,
    "latitude": 32.7167015075684,
    "regions": [
      "11da"
    ]
  },
  {
    "code": "12863",
    "name": "Calheta",
    "updated_at": "2014-09-22T21:11:40.201309Z",
    "country": "pt",
    "parent": null,
    "longitude": -28.0167007446289,
    "latitude": 38.5999984741211,
    "regions": [
      "117c",
      "1412"
    ]
  },
  {
    "code": "12862",
    "name": "Calvos",
    "updated_at": "2014-09-22T21:11:40.146637Z",
    "country": "pt",
    "parent": null,
    "longitude": -8.25,
    "latitude": 41.4000015258789,
    "regions": []
  },
  {
    "code": "12861",
    "name": "Camacha",
    "updated_at": "2014-09-22T21:11:40.121022Z",
    "country": "pt",
    "parent": null,
    "longitude": -16.8500003814697,
    "latitude": 32.6666984558105,
    "regions": [
      "11da"
    ]
  },
  {
    "code": "12860",
    "name": "Camachos",
    "updated_at": "2014-09-22T21:11:40.104793Z",
    "country": "pt",
    "parent": null,
    "longitude": -8.63333034515381,
    "latitude": 37.5332984924316,
    "regions": []
  },
  {
    "code": "1285f",
    "name": "Caminha",
    "updated_at": "2014-09-22T21:11:40.088408Z",
    "country": "pt",
    "parent": null,
    "longitude": -8.83333015441895,
    "latitude": 41.86669921875,
    "regions": [
      "1432"
    ]
  },
  {
    "code": "1285e",
    "name": "Campanário",
    "updated_at": "2014-09-22T21:11:40.073222Z",
    "country": "pt",
    "parent": null,
    "longitude": -17.0333003997803,
    "latitude": 32.6500015258789,
    "regions": [
      "11da"
    ]
  },
  {
    "code": "1285d",
    "name": "Campelo",
    "updated_at": "2014-09-22T21:11:40.057799Z",
    "country": "pt",
    "parent": null,
    "longitude": -8.26667022705078,
    "latitude": 40.0,
    "regions": [
      "1433"
    ]
  },
  {
    "code": "1285c",
    "name": "Campo Maior",
    "updated_at": "2014-09-22T21:11:40.042515Z",
    "country": "pt",
    "parent": null,
    "longitude": -7.06666994094849,
    "latitude": 39.0167007446289,
    "regions": [
      "1233"
    ]
  },
  {
    "code": "1285b",
    "name": "Campos",
    "updated_at": "2014-09-22T21:11:40.027047Z",
    "country": "pt",
    "parent": null,
    "longitude": -8.69999980926514,
    "latitude": 41.9667015075684,
    "regions": [
      "1432"
    ]
  },
  {
    "code": "1285a",
    "name": "Canas de Senhorim",
    "updated_at": "2014-09-22T21:11:40.010070Z",
    "country": "pt",
    "parent": null,
    "longitude": -7.90000009536743,
    "latitude": 40.5,
    "regions": [
      "1433"
    ]
  },
  {
    "code": "12859",
    "name": "Canedo",
    "updated_at": "2014-09-22T21:11:39.962537Z",
    "country": "pt",
    "parent": null,
    "longitude": -7.94999980926514,
    "latitude": 41.4333000183105,
    "regions": [
      "1432"
    ]
  },
  {
    "code": "12858",
    "name": "Canelas",
    "updated_at": "2014-09-22T21:11:39.939482Z",
    "country": "pt",
    "parent": null,
    "longitude": -8.31667041778564,
    "latitude": 41.0666999816895,
    "regions": [
      "1432"
    ]
  },
  {
    "code": "12857",
    "name": "Canha",
    "updated_at": "2014-09-22T21:11:39.912859Z",
    "country": "pt",
    "parent": null,
    "longitude": -8.61666965484619,
    "latitude": 38.7667007446289,
    "regions": [
      "1434"
    ]
  },
  {
    "code": "12856",
    "name": "Canhestros",
    "updated_at": "2014-09-22T21:11:39.887130Z",
    "country": "pt",
    "parent": null,
    "longitude": -8.28332996368408,
    "latitude": 38.0332984924316,
    "regions": [
      "1233"
    ]
  },
  {
    "code": "12855",
    "name": "Caniçada",
    "updated_at": "2014-09-22T21:11:39.861173Z",
    "country": "pt",
    "parent": null,
    "longitude": -8.18332958221436,
    "latitude": 41.6500015258789,
    "regions": [
      "1432"
    ]
  },
  {
    "code": "12854",
    "name": "Caniçal",
    "updated_at": "2014-09-22T21:11:39.842921Z",
    "country": "pt",
    "parent": null,
    "longitude": -16.7332992553711,
    "latitude": 32.7332992553711,
    "regions": [
      "11da"
    ]
  },
  {
    "code": "12853",
    "name": "Caniço",
    "updated_at": "2014-09-22T21:11:39.827146Z",
    "country": "pt",
    "parent": null,
    "longitude": -16.8500003814697,
    "latitude": 32.63330078125,
    "regions": [
      "11da"
    ]
  },
  {
    "code": "12852",
    "name": "Cano",
    "updated_at": "2014-09-22T21:11:39.811071Z",
    "country": "pt",
    "parent": null,
    "longitude": -7.76667022705078,
    "latitude": 38.9667015075684,
    "regions": [
      "1233"
    ]
  },
  {
    "code": "12851",
    "name": "Cantanhede",
    "updated_at": "2014-09-22T21:11:39.794231Z",
    "country": "pt",
    "parent": null,
    "longitude": -8.60000038146973,
    "latitude": 40.3499984741211,
    "regions": [
      "1433"
    ]
  },
  {
    "code": "12850",
    "name": "Cantelães",
    "updated_at": "2014-09-22T21:11:39.777459Z",
    "country": "pt",
    "parent": null,
    "longitude": -8.13333034515381,
    "latitude": 41.63330078125,
    "regions": []
  },
  {
    "code": "1284f",
    "name": "Capelas",
    "updated_at": "2014-09-22T21:11:39.758783Z",
    "country": "pt",
    "parent": null,
    "longitude": -25.6833000183105,
    "latitude": 37.8333015441895,
    "regions": [
      "117c",
      "1358"
    ]
  },
  {
    "code": "1284e",
    "name": "Capelo",
    "updated_at": "2014-09-22T21:11:39.732008Z",
    "country": "pt",
    "parent": null,
    "longitude": -28.7833003997803,
    "latitude": 38.5833015441895,
    "regions": [
      "117c",
      "1359"
    ]
  },
  {
    "code": "1284d",
    "name": "Caramulo",
    "updated_at": "2014-09-22T21:11:39.705414Z",
    "country": "pt",
    "parent": null,
    "longitude": -8.16666984558105,
    "latitude": 40.5666999816895,
    "regions": [
      "1433"
    ]
  },
  {
    "code": "1284c",
    "name": "Carcavelos",
    "updated_at": "2014-09-22T21:11:39.677156Z",
    "country": "pt",
    "parent": null,
    "longitude": -9.33333015441895,
    "latitude": 38.6833000183105,
    "regions": [
      "1434"
    ]
  },
  {
    "code": "1284b",
    "name": "Cardielos",
    "updated_at": "2014-09-22T21:11:39.643169Z",
    "country": "pt",
    "parent": null,
    "longitude": -8.73332977294922,
    "latitude": 41.7167015075684,
    "regions": [
      "1432"
    ]
  },
  {
    "code": "1284a",
    "name": "Caria",
    "updated_at": "2014-09-22T21:11:39.589532Z",
    "country": "pt",
    "parent": null,
    "longitude": -7.36667013168335,
    "latitude": 40.2999992370605,
    "regions": [
      "1433"
    ]
  },
  {
    "code": "12849",
    "name": "Caria",
    "updated_at": "2014-09-22T21:11:39.572077Z",
    "country": "pt",
    "parent": null,
    "longitude": -8.03332996368408,
    "latitude": 40.7000007629395,
    "regions": [
      "1433"
    ]
  },
  {
    "code": "12848",
    "name": "Carocha",
    "updated_at": "2014-09-22T21:11:39.554565Z",
    "country": "pt",
    "parent": null,
    "longitude": -8.69999980926514,
    "latitude": 37.9000015258789,
    "regions": [
      "1233"
    ]
  },
  {
    "code": "12847",
    "name": "Carrapateira",
    "updated_at": "2014-09-22T21:11:39.536563Z",
    "country": "pt",
    "parent": null,
    "longitude": -8.89999961853027,
    "latitude": 37.1833000183105,
    "regions": [
      "10cd"
    ]
  },
  {
    "code": "12846",
    "name": "Carrazedo",
    "updated_at": "2014-09-22T21:11:39.518721Z",
    "country": "pt",
    "parent": null,
    "longitude": -8.05000019073486,
    "latitude": 41.5833015441895,
    "regions": [
      "1432"
    ]
  },
  {
    "code": "12845",
    "name": "Carregal do Sal",
    "updated_at": "2014-09-22T21:11:39.498389Z",
    "country": "pt",
    "parent": null,
    "longitude": -8.0,
    "latitude": 40.4333000183105,
    "regions": [
      "1433"
    ]
  },
  {
    "code": "12844",
    "name": "Carvalhal",
    "updated_at": "2014-09-22T21:11:39.446616Z",
    "country": "pt",
    "parent": null,
    "longitude": -8.75,
    "latitude": 38.2999992370605,
    "regions": [
      "1233"
    ]
  },
  {
    "code": "12843",
    "name": "Carvalhal Bemfeito",
    "updated_at": "2014-09-22T21:11:39.380732Z",
    "country": "pt",
    "parent": null,
    "longitude": -9.05000019073486,
    "latitude": 39.4333000183105,
    "regions": [
      "1433"
    ]
  },
  {
    "code": "12842",
    "name": "Carvoeiro",
    "updated_at": "2014-09-22T21:11:39.328636Z",
    "country": "pt",
    "parent": null,
    "longitude": -8.46667003631592,
    "latitude": 37.0999984741211,
    "regions": [
      "10cd"
    ]
  },
  {
    "code": "12841",
    "name": "Casa Branca",
    "updated_at": "2014-09-22T21:11:39.310553Z",
    "country": "pt",
    "parent": null,
    "longitude": -7.80000019073486,
    "latitude": 38.9500007629395,
    "regions": [
      "1233"
    ]
  },
  {
    "code": "12840",
    "name": "Casa do Cordeiro",
    "updated_at": "2014-09-22T21:11:39.274478Z",
    "country": "pt",
    "parent": null,
    "longitude": -9.39999961853027,
    "latitude": 38.9667015075684,
    "regions": []
  },
  {
    "code": "1283f",
    "name": "Casal de Ermio",
    "updated_at": "2014-09-22T21:11:39.209462Z",
    "country": "pt",
    "parent": null,
    "longitude": -8.25,
    "latitude": 40.1500015258789,
    "regions": [
      "1433"
    ]
  },
  {
    "code": "1283e",
    "name": "Casal de Loivos",
    "updated_at": "2014-09-22T21:11:39.183881Z",
    "country": "pt",
    "parent": null,
    "longitude": -7.53332996368408,
    "latitude": 41.2000007629395,
    "regions": [
      "1432"
    ]
  },
  {
    "code": "1283d",
    "name": "Casas Novas",
    "updated_at": "2014-09-22T21:11:39.066711Z",
    "country": "pt",
    "parent": null,
    "longitude": -7.56606006622314,
    "latitude": 41.7092018127441,
    "regions": [
      "1432"
    ]
  },
  {
    "code": "1283c",
    "name": "Cascais",
    "updated_at": "2014-09-22T21:11:39.049036Z",
    "country": "pt",
    "parent": null,
    "longitude": -9.41666984558105,
    "latitude": 38.7000007629395,
    "regions": [
      "1434"
    ]
  },
  {
    "code": "1283b",
    "name": "Castanheira de Pêra",
    "updated_at": "2014-09-22T21:11:39.031019Z",
    "country": "pt",
    "parent": null,
    "longitude": -8.21667003631592,
    "latitude": 40.0,
    "regions": [
      "1433"
    ]
  },
  {
    "code": "1283a",
    "name": "Castelo Branco",
    "updated_at": "2014-09-22T21:11:39.012974Z",
    "country": "pt",
    "parent": null,
    "longitude": -7.5,
    "latitude": 39.8166999816895,
    "regions": [
      "1433"
    ]
  },
  {
    "code": "12839",
    "name": "Castelo de Vide",
    "updated_at": "2014-09-22T21:11:38.994845Z",
    "country": "pt",
    "parent": null,
    "longitude": -7.44999980926514,
    "latitude": 39.4166984558105,
    "regions": [
      "1233"
    ]
  },
  {
    "code": "12838",
    "name": "Castelo do Bode",
    "updated_at": "2014-09-22T21:11:38.969098Z",
    "country": "pt",
    "parent": null,
    "longitude": -8.31667041778564,
    "latitude": 39.5499992370605,
    "regions": []
  },
  {
    "code": "12837",
    "name": "Castelo do Neiva",
    "updated_at": "2014-09-22T21:11:38.943098Z",
    "country": "pt",
    "parent": null,
    "longitude": -8.80000019073486,
    "latitude": 41.63330078125,
    "regions": [
      "1432"
    ]
  },
  {
    "code": "12836",
    "name": "Castelo Mendo",
    "updated_at": "2014-09-22T21:11:38.914381Z",
    "country": "pt",
    "parent": null,
    "longitude": -6.94999980926514,
    "latitude": 40.5999984741211,
    "regions": [
      "1433"
    ]
  },
  {
    "code": "12835",
    "name": "Castelo Novo",
    "updated_at": "2014-09-22T21:11:38.880026Z",
    "country": "pt",
    "parent": null,
    "longitude": -7.5,
    "latitude": 40.0833015441895,
    "regions": [
      "1433"
    ]
  },
  {
    "code": "12834",
    "name": "Castelo Rodrigo",
    "updated_at": "2014-09-22T21:11:38.845765Z",
    "country": "pt",
    "parent": null,
    "longitude": -6.96667003631592,
    "latitude": 40.86669921875,
    "regions": [
      "1433"
    ]
  },
  {
    "code": "12833",
    "name": "Castrelos",
    "updated_at": "2014-09-22T21:11:38.820672Z",
    "country": "pt",
    "parent": null,
    "longitude": -6.88332986831665,
    "latitude": 41.8333015441895,
    "regions": [
      "1432"
    ]
  },
  {
    "code": "12832",
    "name": "Castro Daire",
    "updated_at": "2014-09-22T21:11:38.803069Z",
    "country": "pt",
    "parent": null,
    "longitude": -7.93333005905151,
    "latitude": 40.9000015258789,
    "regions": [
      "1433"
    ]
  },
  {
    "code": "12831",
    "name": "Castro Laboreiro",
    "updated_at": "2014-09-22T21:11:38.785315Z",
    "country": "pt",
    "parent": null,
    "longitude": -8.15837955474854,
    "latitude": 42.0303993225098,
    "regions": [
      "1432"
    ]
  },
  {
    "code": "12830",
    "name": "Castro Marim",
    "updated_at": "2014-09-22T21:11:38.767188Z",
    "country": "pt",
    "parent": null,
    "longitude": -7.43333005905151,
    "latitude": 37.2167015075684,
    "regions": [
      "10cd"
    ]
  },
  {
    "code": "1282f",
    "name": "Castro Verde",
    "updated_at": "2014-09-22T21:11:38.750127Z",
    "country": "pt",
    "parent": null,
    "longitude": -8.08333015441895,
    "latitude": 37.7000007629395,
    "regions": [
      "1233"
    ]
  },
  {
    "code": "1282e",
    "name": "Cavadoude",
    "updated_at": "2014-09-22T21:11:38.730730Z",
    "country": "pt",
    "parent": null,
    "longitude": -7.28332996368408,
    "latitude": 40.5833015441895,
    "regions": [
      "1433"
    ]
  },
  {
    "code": "1282d",
    "name": "Caxias",
    "updated_at": "2014-09-22T21:11:38.709045Z",
    "country": "pt",
    "parent": null,
    "longitude": -9.28332996368408,
    "latitude": 38.7000007629395,
    "regions": [
      "1434"
    ]
  },
  {
    "code": "1282c",
    "name": "Cedrim",
    "updated_at": "2014-09-22T21:11:38.687785Z",
    "country": "pt",
    "parent": null,
    "longitude": -8.33333015441895,
    "latitude": 40.7167015075684,
    "regions": [
      "1433"
    ]
  },
  {
    "code": "1282b",
    "name": "Cela",
    "updated_at": "2014-09-22T21:11:38.631988Z",
    "country": "pt",
    "parent": null,
    "longitude": -9.03332996368408,
    "latitude": 39.5332984924316,
    "regions": [
      "1433"
    ]
  },
  {
    "code": "1282a",
    "name": "Celorico da Beira",
    "updated_at": "2014-09-22T21:11:38.575798Z",
    "country": "pt",
    "parent": null,
    "longitude": -7.38332986831665,
    "latitude": 40.63330078125,
    "regions": [
      "1433"
    ]
  },
  {
    "code": "12829",
    "name": "Celorico de Basto",
    "updated_at": "2014-09-22T21:11:38.556259Z",
    "country": "pt",
    "parent": null,
    "longitude": -8.0,
    "latitude": 41.38330078125,
    "regions": [
      "1432"
    ]
  },
  {
    "code": "12828",
    "name": "Cercal",
    "updated_at": "2014-09-22T21:11:38.539928Z",
    "country": "pt",
    "parent": null,
    "longitude": -8.66666984558105,
    "latitude": 37.7999992370605,
    "regions": [
      "1233"
    ]
  },
  {
    "code": "12827",
    "name": "Cerdeira",
    "updated_at": "2014-09-22T21:11:38.523621Z",
    "country": "pt",
    "parent": null,
    "longitude": -7.93333005905151,
    "latitude": 40.25,
    "regions": [
      "1433"
    ]
  },
  {
    "code": "12826",
    "name": "Cerva",
    "updated_at": "2014-09-22T21:11:38.506810Z",
    "country": "pt",
    "parent": null,
    "longitude": -7.84999990463257,
    "latitude": 41.4667015075684,
    "regions": [
      "1432"
    ]
  },
  {
    "code": "12825",
    "name": "Chacim",
    "updated_at": "2014-09-22T21:11:38.489736Z",
    "country": "pt",
    "parent": null,
    "longitude": -6.90000009536743,
    "latitude": 41.4667015075684,
    "regions": [
      "1432"
    ]
  },
  {
    "code": "12824",
    "name": "Chança",
    "updated_at": "2014-09-22T21:11:38.469582Z",
    "country": "pt",
    "parent": null,
    "longitude": -7.81666994094849,
    "latitude": 39.25,
    "regions": [
      "1233"
    ]
  },
  {
    "code": "12823",
    "name": "Charneca",
    "updated_at": "2014-09-22T21:11:38.443020Z",
    "country": "pt",
    "parent": null,
    "longitude": -9.18332958221436,
    "latitude": 38.61669921875,
    "regions": [
      "1434"
    ]
  },
  {
    "code": "12822",
    "name": "Chaves",
    "updated_at": "2014-09-22T21:11:38.416367Z",
    "country": "pt",
    "parent": null,
    "longitude": -7.46667003631592,
    "latitude": 41.7332992553711,
    "regions": [
      "1432"
    ]
  },
  {
    "code": "12821",
    "name": "Ciborro",
    "updated_at": "2014-09-22T21:11:38.387722Z",
    "country": "pt",
    "parent": null,
    "longitude": -8.23332977294922,
    "latitude": 38.7999992370605,
    "regions": [
      "1233"
    ]
  },
  {
    "code": "12820",
    "name": "Coimbra",
    "updated_at": "2014-09-22T21:11:38.322062Z",
    "country": "pt",
    "parent": null,
    "longitude": -8.41666984558105,
    "latitude": 40.2000007629395,
    "regions": [
      "1433"
    ]
  },
  {
    "code": "1281f",
    "name": "Coimbrão",
    "updated_at": "2014-09-22T21:11:38.300511Z",
    "country": "pt",
    "parent": null,
    "longitude": -8.88333034515381,
    "latitude": 39.9000015258789,
    "regions": [
      "1433"
    ]
  },
  {
    "code": "1281e",
    "name": "Coito",
    "updated_at": "2014-09-22T21:11:38.282862Z",
    "country": "pt",
    "parent": null,
    "longitude": -7.94999980926514,
    "latitude": 40.38330078125,
    "regions": [
      "1433"
    ]
  },
  {
    "code": "1281d",
    "name": "Coja",
    "updated_at": "2014-09-22T21:11:38.266219Z",
    "country": "pt",
    "parent": null,
    "longitude": -7.98332977294922,
    "latitude": 40.2667007446289,
    "regions": [
      "1433"
    ]
  },
  {
    "code": "1281c",
    "name": "Colares",
    "updated_at": "2014-09-22T21:11:38.249389Z",
    "country": "pt",
    "parent": null,
    "longitude": -9.44999980926514,
    "latitude": 38.7999992370605,
    "regions": [
      "1434"
    ]
  },
  {
    "code": "1281b",
    "name": "Comporta",
    "updated_at": "2014-09-22T21:11:38.210507Z",
    "country": "pt",
    "parent": null,
    "longitude": -8.78332996368408,
    "latitude": 38.38330078125,
    "regions": [
      "1233"
    ]
  },
  {
    "code": "1281a",
    "name": "Conceição",
    "updated_at": "2014-09-22T21:11:38.185787Z",
    "country": "pt",
    "parent": null,
    "longitude": -7.59999990463257,
    "latitude": 37.1500015258789,
    "regions": [
      "10cd"
    ]
  },
  {
    "code": "12819",
    "name": "Constância",
    "updated_at": "2014-09-22T21:11:38.130202Z",
    "country": "pt",
    "parent": null,
    "longitude": -8.33333015441895,
    "latitude": 39.4667015075684,
    "regions": [
      "1433"
    ]
  },
  {
    "code": "12818",
    "name": "Corte do Gafo de Cima",
    "updated_at": "2014-09-22T21:11:38.095764Z",
    "country": "pt",
    "parent": null,
    "longitude": -7.71667003631592,
    "latitude": 37.7167015075684,
    "regions": [
      "1233"
    ]
  },
  {
    "code": "12817",
    "name": "Cortes",
    "updated_at": "2014-09-22T21:11:38.042238Z",
    "country": "pt",
    "parent": null,
    "longitude": -8.33333015441895,
    "latitude": 37.2332992553711,
    "regions": []
  },
  {
    "code": "12816",
    "name": "Cortes do Meio",
    "updated_at": "2014-09-22T21:11:38.023528Z",
    "country": "pt",
    "parent": null,
    "longitude": -7.58333015441895,
    "latitude": 40.25,
    "regions": [
      "1433"
    ]
  },
  {
    "code": "12815",
    "name": "Cortesia",
    "updated_at": "2014-09-22T21:11:38.006759Z",
    "country": "pt",
    "parent": null,
    "longitude": -9.41666984558105,
    "latitude": 38.9000015258789,
    "regions": [
      "1434"
    ]
  },
  {
    "code": "12814",
    "name": "Corte Sines",
    "updated_at": "2014-09-22T21:11:37.989733Z",
    "country": "pt",
    "parent": null,
    "longitude": -7.61667013168335,
    "latitude": 37.7167015075684,
    "regions": [
      "1233"
    ]
  },
  {
    "code": "12813",
    "name": "Corte Vidreiro",
    "updated_at": "2014-09-22T21:11:37.972595Z",
    "country": "pt",
    "parent": null,
    "longitude": -7.75,
    "latitude": 37.1833000183105,
    "regions": [
      "10cd"
    ]
  },
  {
    "code": "12812",
    "name": "Coruche",
    "updated_at": "2014-09-22T21:11:37.953548Z",
    "country": "pt",
    "parent": null,
    "longitude": -8.51667022705078,
    "latitude": 38.9500007629395,
    "regions": []
  },
  {
    "code": "12811",
    "name": "Cossourado",
    "updated_at": "2014-09-22T21:11:37.932222Z",
    "country": "pt",
    "parent": null,
    "longitude": -8.63333034515381,
    "latitude": 41.63330078125,
    "regions": [
      "1432"
    ]
  },
  {
    "code": "12810",
    "name": "Costa da Caparica",
    "updated_at": "2014-09-22T21:11:37.887699Z",
    "country": "pt",
    "parent": null,
    "longitude": -9.23332977294922,
    "latitude": 38.63330078125,
    "regions": [
      "1434"
    ]
  },
  {
    "code": "1280f",
    "name": "Costa Nova",
    "updated_at": "2014-09-22T21:11:37.857428Z",
    "country": "pt",
    "parent": null,
    "longitude": -8.75,
    "latitude": 40.61669921875,
    "regions": [
      "1433"
    ]
  },
  {
    "code": "1280e",
    "name": "Coura",
    "updated_at": "2014-09-22T21:11:37.828013Z",
    "country": "pt",
    "parent": null,
    "longitude": -8.81667041778564,
    "latitude": 41.88330078125,
    "regions": []
  },
  {
    "code": "1280d",
    "name": "Couto de Baixo",
    "updated_at": "2014-09-22T21:11:37.784136Z",
    "country": "pt",
    "parent": null,
    "longitude": -8.30000019073486,
    "latitude": 40.75,
    "regions": [
      "1433"
    ]
  },
  {
    "code": "1280c",
    "name": "Covas",
    "updated_at": "2014-09-22T21:11:37.751282Z",
    "country": "pt",
    "parent": null,
    "longitude": -7.93333005905151,
    "latitude": 40.3499984741211,
    "regions": [
      "1433"
    ]
  },
  {
    "code": "1280b",
    "name": "Covas",
    "updated_at": "2014-09-22T21:11:37.734954Z",
    "country": "pt",
    "parent": null,
    "longitude": -8.41666984558105,
    "latitude": 41.75,
    "regions": [
      "1432"
    ]
  },
  {
    "code": "1280a",
    "name": "Covas do Douro",
    "updated_at": "2014-09-22T21:11:37.718355Z",
    "country": "pt",
    "parent": null,
    "longitude": -7.59999990463257,
    "latitude": 41.1833000183105,
    "regions": [
      "1432"
    ]
  },
  {
    "code": "12809",
    "name": "Covelas",
    "updated_at": "2014-09-22T21:11:37.701302Z",
    "country": "pt",
    "parent": null,
    "longitude": -8.05000019073486,
    "latitude": 41.0499992370605,
    "regions": [
      "1432"
    ]
  },
  {
    "code": "12808",
    "name": "Covilhã",
    "updated_at": "2014-09-22T21:11:37.661309Z",
    "country": "pt",
    "parent": null,
    "longitude": -7.5,
    "latitude": 40.2832984924316,
    "regions": [
      "1433"
    ]
  },
  {
    "code": "12807",
    "name": "Crato",
    "updated_at": "2014-09-22T21:11:37.639776Z",
    "country": "pt",
    "parent": null,
    "longitude": -7.65000009536743,
    "latitude": 39.2832984924316,
    "regions": [
      "1233"
    ]
  },
  {
    "code": "12806",
    "name": "Criaz",
    "updated_at": "2014-09-22T21:11:37.616333Z",
    "country": "pt",
    "parent": null,
    "longitude": -8.75,
    "latitude": 41.4667015075684,
    "regions": [
      "1432"
    ]
  },
  {
    "code": "12805",
    "name": "Cuba",
    "updated_at": "2014-09-22T21:11:37.587108Z",
    "country": "pt",
    "parent": null,
    "longitude": -7.88332986831665,
    "latitude": 38.1666984558105,
    "regions": [
      "1233"
    ]
  },
  {
    "code": "12804",
    "name": "Cumeada",
    "updated_at": "2014-09-22T21:11:37.558403Z",
    "country": "pt",
    "parent": null,
    "longitude": -8.35000038146973,
    "latitude": 37.2332992553711,
    "regions": []
  },
  {
    "code": "12803",
    "name": "Cumieira",
    "updated_at": "2014-09-22T21:11:37.530506Z",
    "country": "pt",
    "parent": null,
    "longitude": -7.76667022705078,
    "latitude": 41.25,
    "regions": [
      "1432"
    ]
  },
  {
    "code": "12802",
    "name": "Curia",
    "updated_at": "2014-09-22T21:11:37.507851Z",
    "country": "pt",
    "parent": null,
    "longitude": -8.48332977294922,
    "latitude": 40.4166984558105,
    "regions": [
      "1433"
    ]
  },
  {
    "code": "12801",
    "name": "Curral das Freiras",
    "updated_at": "2014-09-22T21:11:37.491775Z",
    "country": "pt",
    "parent": null,
    "longitude": -16.9666996002197,
    "latitude": 32.7167015075684,
    "regions": [
      "11da"
    ]
  },
  {
    "code": "12800",
    "name": "Curvaceiras Grandes",
    "updated_at": "2014-09-22T21:11:37.474530Z",
    "country": "pt",
    "parent": null,
    "longitude": -8.43332958221436,
    "latitude": 39.5332984924316,
    "regions": [
      "1433"
    ]
  },
  {
    "code": "127ff",
    "name": "Curvatos",
    "updated_at": "2014-09-22T21:11:37.458394Z",
    "country": "pt",
    "parent": null,
    "longitude": -8.06667041778564,
    "latitude": 37.4500007629395,
    "regions": [
      "1233"
    ]
  },
  {
    "code": "127fe",
    "name": "Degolados",
    "updated_at": "2014-09-22T21:11:37.442031Z",
    "country": "pt",
    "parent": null,
    "longitude": -7.11667013168335,
    "latitude": 39.0666999816895,
    "regions": [
      "1233"
    ]
  },
  {
    "code": "127fd",
    "name": "Dem",
    "updated_at": "2014-09-22T21:11:37.425532Z",
    "country": "pt",
    "parent": null,
    "longitude": -8.76667022705078,
    "latitude": 41.8333015441895,
    "regions": [
      "1432"
    ]
  },
  {
    "code": "127fc",
    "name": "Durrães",
    "updated_at": "2014-09-22T21:11:37.409272Z",
    "country": "pt",
    "parent": null,
    "longitude": -8.66666984558105,
    "latitude": 41.63330078125,
    "regions": [
      "1432"
    ]
  },
  {
    "code": "127fb",
    "name": "Ega",
    "updated_at": "2014-09-22T21:11:37.390660Z",
    "country": "pt",
    "parent": null,
    "longitude": -8.55000019073486,
    "latitude": 40.0999984741211,
    "regions": [
      "1433"
    ]
  },
  {
    "code": "127fa",
    "name": "Elvas",
    "updated_at": "2014-09-22T21:11:37.366693Z",
    "country": "pt",
    "parent": null,
    "longitude": -7.16666984558105,
    "latitude": 38.88330078125,
    "regions": [
      "1233"
    ]
  },
  {
    "code": "127f9",
    "name": "Entre -os- Rios",
    "updated_at": "2014-09-22T21:11:37.348660Z",
    "country": "pt",
    "parent": null,
    "longitude": -8.30000019073486,
    "latitude": 41.0833015441895,
    "regions": [
      "1432"
    ]
  },
  {
    "code": "127f8",
    "name": "Entroncamento",
    "updated_at": "2014-09-22T21:11:37.327055Z",
    "country": "pt",
    "parent": null,
    "longitude": -8.46667003631592,
    "latitude": 39.4667015075684,
    "regions": [
      "1433"
    ]
  },
  {
    "code": "127f7",
    "name": "Ericeira",
    "updated_at": "2014-09-22T21:11:37.298191Z",
    "country": "pt",
    "parent": null,
    "longitude": -9.41666984558105,
    "latitude": 38.9832992553711,
    "regions": []
  },
  {
    "code": "127f6",
    "name": "Ermesinde",
    "updated_at": "2014-09-22T21:11:37.269932Z",
    "country": "pt",
    "parent": null,
    "longitude": -8.55000019073486,
    "latitude": 41.2167015075684,
    "regions": [
      "1432"
    ]
  },
  {
    "code": "127f5",
    "name": "Ermidas",
    "updated_at": "2014-09-22T21:11:37.216024Z",
    "country": "pt",
    "parent": null,
    "longitude": -8.38333034515381,
    "latitude": 38.0,
    "regions": [
      "1233"
    ]
  },
  {
    "code": "127f4",
    "name": "Ervedosa do Douro",
    "updated_at": "2014-09-22T21:11:37.199853Z",
    "country": "pt",
    "parent": null,
    "longitude": -7.46667003631592,
    "latitude": 41.1666984558105,
    "regions": [
      "1432"
    ]
  },
  {
    "code": "127f3",
    "name": "Escoural",
    "updated_at": "2014-09-22T21:11:37.167542Z",
    "country": "pt",
    "parent": null,
    "longitude": -8.16666984558105,
    "latitude": 38.5332984924316,
    "regions": [
      "1233"
    ]
  },
  {
    "code": "127f2",
    "name": "Escravelheira",
    "updated_at": "2014-09-22T21:11:37.151163Z",
    "country": "pt",
    "parent": null,
    "longitude": -9.39999961853027,
    "latitude": 39.0666999816895,
    "regions": [
      "1433"
    ]
  },
  {
    "code": "127f1",
    "name": "Esmoriz",
    "updated_at": "2014-09-22T21:11:37.134821Z",
    "country": "pt",
    "parent": null,
    "longitude": -8.61666965484619,
    "latitude": 40.9500007629395,
    "regions": [
      "1432"
    ]
  },
  {
    "code": "127f0",
    "name": "Espadanedo",
    "updated_at": "2014-09-22T21:11:37.118999Z",
    "country": "pt",
    "parent": null,
    "longitude": -8.19999980926514,
    "latitude": 41.0833015441895,
    "regions": [
      "1432"
    ]
  },
  {
    "code": "127ef",
    "name": "Espinhel",
    "updated_at": "2014-09-22T21:11:37.043066Z",
    "country": "pt",
    "parent": null,
    "longitude": -8.49320030212402,
    "latitude": 40.5662002563477,
    "regions": [
      "1433"
    ]
  },
  {
    "code": "127ee",
    "name": "Espinho",
    "updated_at": "2014-09-22T21:11:37.011705Z",
    "country": "pt",
    "parent": null,
    "longitude": -7.80000019073486,
    "latitude": 40.5666999816895,
    "regions": [
      "1433"
    ]
  },
  {
    "code": "127ed",
    "name": "Espinho",
    "updated_at": "2014-09-22T21:11:36.982124Z",
    "country": "pt",
    "parent": null,
    "longitude": -8.64375019073486,
    "latitude": 41.0055999755859,
    "regions": [
      "1432"
    ]
  },
  {
    "code": "127ec",
    "name": "Esposende",
    "updated_at": "2014-09-22T21:11:36.954187Z",
    "country": "pt",
    "parent": null,
    "longitude": -8.78332996368408,
    "latitude": 41.5332984924316,
    "regions": [
      "1432"
    ]
  },
  {
    "code": "127eb",
    "name": "Estação do Mogadouro",
    "updated_at": "2014-09-22T21:11:36.935024Z",
    "country": "pt",
    "parent": null,
    "longitude": -6.65000009536743,
    "latitude": 41.3333015441895,
    "regions": [
      "1432"
    ]
  },
  {
    "code": "127ea",
    "name": "Estarreja",
    "updated_at": "2014-09-22T21:11:36.918821Z",
    "country": "pt",
    "parent": null,
    "longitude": -8.56667041778564,
    "latitude": 40.75,
    "regions": [
      "1433"
    ]
  },
  {
    "code": "127e9",
    "name": "Estói",
    "updated_at": "2014-09-22T21:11:36.900791Z",
    "country": "pt",
    "parent": null,
    "longitude": -7.90000009536743,
    "latitude": 37.0999984741211,
    "regions": [
      "10cd"
    ]
  },
  {
    "code": "127e8",
    "name": "Estômbar",
    "updated_at": "2014-09-22T21:11:36.884175Z",
    "country": "pt",
    "parent": null,
    "longitude": -8.48332977294922,
    "latitude": 37.1500015258789,
    "regions": [
      "10cd"
    ]
  },
  {
    "code": "127e7",
    "name": "Estoril",
    "updated_at": "2014-09-22T21:11:36.867708Z",
    "country": "pt",
    "parent": null,
    "longitude": -9.39768981933594,
    "latitude": 38.7066993713379,
    "regions": [
      "1434"
    ]
  },
  {
    "code": "127e6",
    "name": "Estreito",
    "updated_at": "2014-09-22T21:11:36.851269Z",
    "country": "pt",
    "parent": null,
    "longitude": -7.81666994094849,
    "latitude": 39.9500007629395,
    "regions": [
      "1433"
    ]
  },
  {
    "code": "127e5",
    "name": "Estreito da Calheta",
    "updated_at": "2014-09-22T21:11:36.834250Z",
    "country": "pt",
    "parent": null,
    "longitude": -17.2000007629395,
    "latitude": 32.7167015075684,
    "regions": [
      "11da"
    ]
  },
  {
    "code": "127e4",
    "name": "Estreito de Câmara de Lobos",
    "updated_at": "2014-09-22T21:11:36.810595Z",
    "country": "pt",
    "parent": null,
    "longitude": -16.9832992553711,
    "latitude": 32.6666984558105,
    "regions": [
      "11da"
    ]
  },
  {
    "code": "127e3",
    "name": "Estremoz",
    "updated_at": "2014-09-22T21:11:36.788628Z",
    "country": "pt",
    "parent": null,
    "longitude": -7.58333015441895,
    "latitude": 38.8499984741211,
    "regions": [
      "1233"
    ]
  },
  {
    "code": "127e2",
    "name": "Évora",
    "updated_at": "2014-09-22T21:11:36.769500Z",
    "country": "pt",
    "parent": null,
    "longitude": -7.90966129302979,
    "latitude": 38.5710487365723,
    "regions": [
      "1233"
    ]
  },
  {
    "code": "127e1",
    "name": "Fafe",
    "updated_at": "2014-09-22T21:11:36.746969Z",
    "country": "pt",
    "parent": null,
    "longitude": -8.16666984558105,
    "latitude": 41.4500007629395,
    "regions": [
      "1432"
    ]
  },
  {
    "code": "127e0",
    "name": "Faia",
    "updated_at": "2014-09-22T21:11:36.718028Z",
    "country": "pt",
    "parent": null,
    "longitude": -7.31666994094849,
    "latitude": 40.5666999816895,
    "regions": []
  },
  {
    "code": "127df",
    "name": "Fajã da Ovelha",
    "updated_at": "2014-09-22T21:11:36.688628Z",
    "country": "pt",
    "parent": null,
    "longitude": -17.2332992553711,
    "latitude": 32.7667007446289,
    "regions": [
      "11da"
    ]
  },
  {
    "code": "127de",
    "name": "Fajozes",
    "updated_at": "2014-09-22T21:11:36.657657Z",
    "country": "pt",
    "parent": null,
    "longitude": -8.69999980926514,
    "latitude": 41.3166999816895,
    "regions": [
      "1432"
    ]
  },
  {
    "code": "127dd",
    "name": "Falca",
    "updated_at": "2014-09-22T21:11:36.636553Z",
    "country": "pt",
    "parent": null,
    "longitude": -9.06667041778564,
    "latitude": 39.6500015258789,
    "regions": []
  },
  {
    "code": "127dc",
    "name": "Faro",
    "updated_at": "2014-09-22T21:11:36.618780Z",
    "country": "pt",
    "parent": null,
    "longitude": -7.93384981155396,
    "latitude": 37.013500213623,
    "regions": [
      "10cd"
    ]
  },
  {
    "code": "127db",
    "name": "Fatima",
    "updated_at": "2016-02-09T09:32:30.844668Z",
    "country": "pt",
    "parent": null,
    "longitude": -8.64999961853027,
    "latitude": 39.61669921875,
    "regions": [
      "1433"
    ]
  },
  {
    "code": "127da",
    "name": "Felgar",
    "updated_at": "2014-09-22T21:11:36.582498Z",
    "country": "pt",
    "parent": null,
    "longitude": -6.96667003631592,
    "latitude": 41.2167015075684,
    "regions": [
      "1432"
    ]
  },
  {
    "code": "127d9",
    "name": "Felgueiras",
    "updated_at": "2014-09-22T21:11:36.563831Z",
    "country": "pt",
    "parent": null,
    "longitude": -8.19999980926514,
    "latitude": 41.36669921875,
    "regions": [
      "1432"
    ]
  },
  {
    "code": "127d8",
    "name": "Fermentelos",
    "updated_at": "2014-09-22T21:11:36.516064Z",
    "country": "pt",
    "parent": null,
    "longitude": -8.51667022705078,
    "latitude": 40.5666999816895,
    "regions": [
      "1433"
    ]
  },
  {
    "code": "127d7",
    "name": "Ferragudo",
    "updated_at": "2014-09-22T21:11:36.489619Z",
    "country": "pt",
    "parent": null,
    "longitude": -8.51667022705078,
    "latitude": 37.11669921875,
    "regions": [
      "10cd"
    ]
  },
  {
    "code": "127d6",
    "name": "Ferraria de São João",
    "updated_at": "2014-09-22T21:11:36.425692Z",
    "country": "pt",
    "parent": null,
    "longitude": -8.33333015441895,
    "latitude": 39.9667015075684,
    "regions": [
      "1433"
    ]
  },
  {
    "code": "127d5",
    "name": "Ferreira do Alentejo",
    "updated_at": "2014-09-22T21:11:36.391488Z",
    "country": "pt",
    "parent": null,
    "longitude": -8.11649036407471,
    "latitude": 38.0578002929688,
    "regions": [
      "1233"
    ]
  },
  {
    "code": "127d4",
    "name": "Ferreira do Zêzere",
    "updated_at": "2014-09-22T21:11:36.375119Z",
    "country": "pt",
    "parent": null,
    "longitude": -8.30000019073486,
    "latitude": 39.7000007629395,
    "regions": [
      "1433"
    ]
  },
  {
    "code": "127d3",
    "name": "Ferreiras",
    "updated_at": "2014-09-22T21:11:36.358849Z",
    "country": "pt",
    "parent": null,
    "longitude": -8.23332977294922,
    "latitude": 37.13330078125,
    "regions": []
  },
  {
    "code": "127d2",
    "name": "Ferrel",
    "updated_at": "2014-09-22T21:11:36.342216Z",
    "country": "pt",
    "parent": null,
    "longitude": -9.31667041778564,
    "latitude": 39.36669921875,
    "regions": [
      "1433"
    ]
  },
  {
    "code": "127d1",
    "name": "Figueira da Foz",
    "updated_at": "2014-09-22T21:11:36.283317Z",
    "country": "pt",
    "parent": null,
    "longitude": -8.8563404083252,
    "latitude": 40.1537017822266,
    "regions": [
      "1433"
    ]
  },
  {
    "code": "127d0",
    "name": "Figueira de Castelo Rodrigo",
    "updated_at": "2014-09-22T21:11:36.256733Z",
    "country": "pt",
    "parent": null,
    "longitude": -6.96224021911621,
    "latitude": 40.8947982788086,
    "regions": [
      "1433"
    ]
  },
  {
    "code": "127cf",
    "name": "Figueiredo das Donas",
    "updated_at": "2014-09-22T21:11:36.199838Z",
    "country": "pt",
    "parent": null,
    "longitude": -8.05000019073486,
    "latitude": 40.7332992553711,
    "regions": [
      "1433"
    ]
  },
  {
    "code": "127ce",
    "name": "Figueiro da Serra",
    "updated_at": "2014-09-22T21:11:36.165426Z",
    "country": "pt",
    "parent": null,
    "longitude": -7.48332977294922,
    "latitude": 40.5332984924316,
    "regions": [
      "1433"
    ]
  },
  {
    "code": "127cd",
    "name": "Figueiró dos Vinhos",
    "updated_at": "2014-09-22T21:11:36.134997Z",
    "country": "pt",
    "parent": null,
    "longitude": -8.28332996368408,
    "latitude": 39.9000015258789,
    "regions": [
      "1433"
    ]
  },
  {
    "code": "127cc",
    "name": "Folgosa",
    "updated_at": "2014-09-22T21:11:36.118015Z",
    "country": "pt",
    "parent": null,
    "longitude": -7.68333005905151,
    "latitude": 41.1500015258789,
    "regions": [
      "1432"
    ]
  },
  {
    "code": "127cb",
    "name": "Folgosinho",
    "updated_at": "2014-09-22T21:11:36.100236Z",
    "country": "pt",
    "parent": null,
    "longitude": -7.51667022705078,
    "latitude": 40.5,
    "regions": [
      "1433"
    ]
  },
  {
    "code": "127ca",
    "name": "Fonte Salgada",
    "updated_at": "2014-09-22T21:11:36.082107Z",
    "country": "pt",
    "parent": null,
    "longitude": -7.63332986831665,
    "latitude": 37.1666984558105,
    "regions": []
  },
  {
    "code": "127c9",
    "name": "Fontes de Transbaceiro",
    "updated_at": "2014-09-22T21:11:36.063982Z",
    "country": "pt",
    "parent": null,
    "longitude": -6.88332986831665,
    "latitude": 41.9000015258789,
    "regions": []
  },
  {
    "code": "127c8",
    "name": "Fornos",
    "updated_at": "2014-09-22T21:11:36.045628Z",
    "country": "pt",
    "parent": null,
    "longitude": -8.61666965484619,
    "latitude": 40.2667007446289,
    "regions": [
      "1433"
    ]
  },
  {
    "code": "127c7",
    "name": "Fornos de Algodres",
    "updated_at": "2014-09-22T21:11:36.018669Z",
    "country": "pt",
    "parent": null,
    "longitude": -7.53332996368408,
    "latitude": 40.61669921875,
    "regions": [
      "1433"
    ]
  },
  {
    "code": "127c6",
    "name": "Fortios",
    "updated_at": "2014-09-22T21:11:35.991706Z",
    "country": "pt",
    "parent": null,
    "longitude": -7.5,
    "latitude": 39.3166999816895,
    "regions": [
      "1233"
    ]
  },
  {
    "code": "127c5",
    "name": "Foz de Alvares",
    "updated_at": "2014-09-22T21:11:35.963356Z",
    "country": "pt",
    "parent": null,
    "longitude": -8.05000019073486,
    "latitude": 40.0167007446289,
    "regions": [
      "1433"
    ]
  },
  {
    "code": "127c4",
    "name": "Foz do Arelho",
    "updated_at": "2014-09-22T21:11:35.931912Z",
    "country": "pt",
    "parent": null,
    "longitude": -9.21667003631592,
    "latitude": 39.4333000183105,
    "regions": [
      "1433"
    ]
  },
  {
    "code": "127c3",
    "name": "Foz do Cobrão",
    "updated_at": "2014-09-22T21:11:35.897640Z",
    "country": "pt",
    "parent": null,
    "longitude": -7.76667022705078,
    "latitude": 39.7332992553711,
    "regions": [
      "1433"
    ]
  },
  {
    "code": "127c2",
    "name": "Foz Tua",
    "updated_at": "2014-09-22T21:11:35.870700Z",
    "country": "pt",
    "parent": null,
    "longitude": -7.43333005905151,
    "latitude": 41.2167015075684,
    "regions": [
      "1432"
    ]
  },
  {
    "code": "127c1",
    "name": "Freamunde",
    "updated_at": "2014-09-22T21:11:35.852720Z",
    "country": "pt",
    "parent": null,
    "longitude": -8.35000038146973,
    "latitude": 41.2832984924316,
    "regions": [
      "1432"
    ]
  },
  {
    "code": "127c0",
    "name": "Frechas",
    "updated_at": "2014-09-22T21:11:35.834952Z",
    "country": "pt",
    "parent": null,
    "longitude": -7.16666984558105,
    "latitude": 41.4166984558105,
    "regions": [
      "1432"
    ]
  },
  {
    "code": "127bf",
    "name": "Freixinho",
    "updated_at": "2014-09-22T21:11:35.800486Z",
    "country": "pt",
    "parent": null,
    "longitude": -7.53332996368408,
    "latitude": 40.9333000183105,
    "regions": [
      "1432"
    ]
  },
  {
    "code": "127be",
    "name": "Freixo",
    "updated_at": "2014-09-22T21:11:35.781663Z",
    "country": "pt",
    "parent": null,
    "longitude": -8.58333015441895,
    "latitude": 41.6500015258789,
    "regions": [
      "1432"
    ]
  },
  {
    "code": "127bd",
    "name": "Freixo de Cima",
    "updated_at": "2014-09-22T21:11:35.754654Z",
    "country": "pt",
    "parent": null,
    "longitude": -8.13333034515381,
    "latitude": 41.2999992370605,
    "regions": []
  },
  {
    "code": "127bc",
    "name": "Freixo de Espada à Cinta",
    "updated_at": "2014-09-22T21:11:35.732776Z",
    "country": "pt",
    "parent": null,
    "longitude": -6.81666994094849,
    "latitude": 41.0833015441895,
    "regions": [
      "1432"
    ]
  },
  {
    "code": "127bb",
    "name": "Frende",
    "updated_at": "2014-09-22T21:11:35.705472Z",
    "country": "pt",
    "parent": null,
    "longitude": -7.91666984558105,
    "latitude": 41.11669921875,
    "regions": [
      "1432"
    ]
  },
  {
    "code": "127ba",
    "name": "Friães",
    "updated_at": "2014-09-22T21:11:35.670588Z",
    "country": "pt",
    "parent": null,
    "longitude": -7.88332986831665,
    "latitude": 41.7332992553711,
    "regions": [
      "1432"
    ]
  },
  {
    "code": "127b9",
    "name": "Fronteira",
    "updated_at": "2014-09-22T21:11:35.635858Z",
    "country": "pt",
    "parent": null,
    "longitude": -7.65000009536743,
    "latitude": 39.0499992370605,
    "regions": [
      "1233"
    ]
  },
  {
    "code": "127b8",
    "name": "Funchal",
    "updated_at": "2014-09-22T21:11:35.610473Z",
    "country": "pt",
    "parent": null,
    "longitude": -16.9138584136963,
    "latitude": 32.64697265625,
    "regions": [
      "11da"
    ]
  },
  {
    "code": "127b7",
    "name": "Fundão",
    "updated_at": "2014-09-22T21:11:35.592737Z",
    "country": "pt",
    "parent": null,
    "longitude": -7.5,
    "latitude": 40.13330078125,
    "regions": [
      "1433"
    ]
  },
  {
    "code": "127b6",
    "name": "Furadouro",
    "updated_at": "2014-09-22T21:11:35.575112Z",
    "country": "pt",
    "parent": null,
    "longitude": -8.66666984558105,
    "latitude": 40.86669921875,
    "regions": [
      "1433"
    ]
  },
  {
    "code": "127b5",
    "name": "Furnas",
    "updated_at": "2014-09-22T21:11:35.556956Z",
    "country": "pt",
    "parent": null,
    "longitude": -25.3166999816895,
    "latitude": 37.7667007446289,
    "regions": [
      "117c",
      "1358"
    ]
  },
  {
    "code": "127b4",
    "name": "Fuzeta",
    "updated_at": "2014-09-22T21:11:35.539039Z",
    "country": "pt",
    "parent": null,
    "longitude": -7.75,
    "latitude": 37.0499992370605,
    "regions": [
      "10cd"
    ]
  },
  {
    "code": "127b3",
    "name": "Gafanha da Boa Hora",
    "updated_at": "2014-09-22T21:11:35.518843Z",
    "country": "pt",
    "parent": null,
    "longitude": -8.76667022705078,
    "latitude": 40.5332984924316,
    "regions": [
      "1433"
    ]
  },
  {
    "code": "127b2",
    "name": "Gafanha da Nazaré",
    "updated_at": "2014-09-22T21:11:35.493106Z",
    "country": "pt",
    "parent": null,
    "longitude": -8.71667003631592,
    "latitude": 40.63330078125,
    "regions": [
      "1433"
    ]
  },
  {
    "code": "127b1",
    "name": "Gaifar",
    "updated_at": "2014-09-22T21:11:35.467044Z",
    "country": "pt",
    "parent": null,
    "longitude": -8.56667041778564,
    "latitude": 41.6500015258789,
    "regions": [
      "1432"
    ]
  },
  {
    "code": "127b0",
    "name": "Gaula",
    "updated_at": "2014-09-22T21:11:35.400600Z",
    "country": "pt",
    "parent": null,
    "longitude": -16.8166999816895,
    "latitude": 32.6666984558105,
    "regions": [
      "11da"
    ]
  },
  {
    "code": "127af",
    "name": "Gavião",
    "updated_at": "2014-09-22T21:11:35.365844Z",
    "country": "pt",
    "parent": null,
    "longitude": -7.93333005905151,
    "latitude": 39.4667015075684,
    "regions": [
      "1233",
      "1433"
    ]
  },
  {
    "code": "127ae",
    "name": "Gavieira",
    "updated_at": "2014-09-22T21:11:35.348251Z",
    "country": "pt",
    "parent": null,
    "longitude": -8.25,
    "latitude": 41.9500007629395,
    "regions": [
      "1432"
    ]
  },
  {
    "code": "127ad",
    "name": "Geraz do Minho",
    "updated_at": "2014-09-22T21:11:35.312621Z",
    "country": "pt",
    "parent": null,
    "longitude": -8.30000019073486,
    "latitude": 41.5999984741211,
    "regions": [
      "1432"
    ]
  },
  {
    "code": "127ac",
    "name": "Gimonde",
    "updated_at": "2014-09-22T21:11:35.257554Z",
    "country": "pt",
    "parent": null,
    "longitude": -6.69999980926514,
    "latitude": 41.7999992370605,
    "regions": [
      "1432"
    ]
  },
  {
    "code": "127ab",
    "name": "Góis",
    "updated_at": "2014-09-22T21:11:35.208696Z",
    "country": "pt",
    "parent": null,
    "longitude": -8.11666965484619,
    "latitude": 40.1500015258789,
    "regions": [
      "1433"
    ]
  },
  {
    "code": "127aa",
    "name": "Goldra",
    "updated_at": "2014-09-22T21:11:35.176175Z",
    "country": "pt",
    "parent": null,
    "longitude": -8.0,
    "latitude": 37.13330078125,
    "regions": [
      "10cd"
    ]
  },
  {
    "code": "127a9",
    "name": "Golegã",
    "updated_at": "2014-09-22T21:11:35.142140Z",
    "country": "pt",
    "parent": null,
    "longitude": -8.48332977294922,
    "latitude": 39.4000015258789,
    "regions": []
  },
  {
    "code": "127a8",
    "name": "Gonça",
    "updated_at": "2014-09-22T21:11:35.106752Z",
    "country": "pt",
    "parent": null,
    "longitude": -8.25,
    "latitude": 41.5,
    "regions": [
      "1432"
    ]
  },
  {
    "code": "127a7",
    "name": "Gondarém",
    "updated_at": "2014-09-22T21:11:35.089265Z",
    "country": "pt",
    "parent": null,
    "longitude": -8.75,
    "latitude": 41.9166984558105,
    "regions": [
      "1432"
    ]
  },
  {
    "code": "127a6",
    "name": "Gondesende",
    "updated_at": "2014-09-22T21:11:35.071564Z",
    "country": "pt",
    "parent": null,
    "longitude": -6.86667013168335,
    "latitude": 41.8499984741211,
    "regions": [
      "1432"
    ]
  },
  {
    "code": "127a5",
    "name": "Gondomar",
    "updated_at": "2014-09-22T21:11:35.053573Z",
    "country": "pt",
    "parent": null,
    "longitude": -8.53332996368408,
    "latitude": 41.1500015258789,
    "regions": [
      "1432"
    ]
  },
  {
    "code": "127a4",
    "name": "Gouveia",
    "updated_at": "2014-09-22T21:11:35.017179Z",
    "country": "pt",
    "parent": null,
    "longitude": -7.59999990463257,
    "latitude": 40.5,
    "regions": [
      "1433"
    ]
  },
  {
    "code": "127a3",
    "name": "Gradil",
    "updated_at": "2014-09-22T21:11:34.992777Z",
    "country": "pt",
    "parent": null,
    "longitude": -9.28332996368408,
    "latitude": 38.9832992553711,
    "regions": [
      "1433"
    ]
  },
  {
    "code": "127a2",
    "name": "Grândola",
    "updated_at": "2014-09-22T21:11:34.939579Z",
    "country": "pt",
    "parent": null,
    "longitude": -8.56667041778564,
    "latitude": 38.1666984558105,
    "regions": [
      "1233"
    ]
  },
  {
    "code": "127a1",
    "name": "Granja",
    "updated_at": "2014-09-22T21:11:34.905567Z",
    "country": "pt",
    "parent": null,
    "longitude": -7.40000009536743,
    "latitude": 41.0167007446289,
    "regions": [
      "1432"
    ]
  },
  {
    "code": "127a0",
    "name": "Granja de Oleiros",
    "updated_at": "2014-09-22T21:11:34.870918Z",
    "country": "pt",
    "parent": null,
    "longitude": -7.56666994094849,
    "latitude": 40.9500007629395,
    "regions": [
      "1432"
    ]
  },
  {
    "code": "1279f",
    "name": "Grimancelos",
    "updated_at": "2014-09-22T21:11:34.844248Z",
    "country": "pt",
    "parent": null,
    "longitude": -8.58333015441895,
    "latitude": 41.4500007629395,
    "regions": [
      "1432"
    ]
  },
  {
    "code": "1279e",
    "name": "Guadramil",
    "updated_at": "2014-09-22T21:11:34.827846Z",
    "country": "pt",
    "parent": null,
    "longitude": -6.56666994094849,
    "latitude": 41.9166984558105,
    "regions": [
      "1432"
    ]
  },
  {
    "code": "1279d",
    "name": "Guarda",
    "updated_at": "2014-09-22T21:11:34.811547Z",
    "country": "pt",
    "parent": null,
    "longitude": -7.26667022705078,
    "latitude": 40.5332984924316,
    "regions": [
      "1433"
    ]
  },
  {
    "code": "1279c",
    "name": "Guerreiro",
    "updated_at": "2014-09-22T21:11:34.794768Z",
    "country": "pt",
    "parent": null,
    "longitude": -7.88332986831665,
    "latitude": 37.6666984558105,
    "regions": [
      "1233"
    ]
  },
  {
    "code": "1279b",
    "name": "Guia",
    "updated_at": "2014-09-22T21:11:34.777645Z",
    "country": "pt",
    "parent": null,
    "longitude": -8.30000019073486,
    "latitude": 37.11669921875,
    "regions": [
      "10cd"
    ]
  },
  {
    "code": "1279a",
    "name": "Guimarães",
    "updated_at": "2014-09-22T21:11:34.734416Z",
    "country": "pt",
    "parent": null,
    "longitude": -8.29552459717888,
    "latitude": 41.441740356503,
    "regions": [
      "1432"
    ]
  },
  {
    "code": "12799",
    "name": "Horta",
    "updated_at": "2014-09-22T21:11:34.709158Z",
    "country": "pt",
    "parent": null,
    "longitude": -28.63330078125,
    "latitude": 38.5332984924316,
    "regions": [
      "117c",
      "1359"
    ]
  },
  {
    "code": "12798",
    "name": "Idanha-a-Nova",
    "updated_at": "2014-09-22T21:11:34.680734Z",
    "country": "pt",
    "parent": null,
    "longitude": -7.23332977294922,
    "latitude": 39.9166984558105,
    "regions": [
      "1433"
    ]
  },
  {
    "code": "12797",
    "name": "Ifanes",
    "updated_at": "2014-09-22T21:11:34.646097Z",
    "country": "pt",
    "parent": null,
    "longitude": -6.26667022705078,
    "latitude": 41.5833015441895,
    "regions": [
      "1432"
    ]
  },
  {
    "code": "12796",
    "name": "Igreja Nova",
    "updated_at": "2014-09-22T21:11:34.610372Z",
    "country": "pt",
    "parent": null,
    "longitude": -8.80000019073486,
    "latitude": 37.3166999816895,
    "regions": []
  },
  {
    "code": "12795",
    "name": "Ílhavo",
    "updated_at": "2014-09-22T21:11:34.584897Z",
    "country": "pt",
    "parent": null,
    "longitude": -8.66666984558105,
    "latitude": 40.5999984741211,
    "regions": [
      "1433"
    ]
  },
  {
    "code": "12794",
    "name": "Janeiro de Cima",
    "updated_at": "2014-09-22T21:11:34.567458Z",
    "country": "pt",
    "parent": null,
    "longitude": -7.80000019073486,
    "latitude": 40.0666999816895,
    "regions": [
      "1433"
    ]
  },