[
  {
    "code": "1ec75",
    "name": "Pine Forest",
    "updated_at": "2014-09-22T21:41:26.987893Z",
    "country": "us",
    "parent": null,
    "longitude": -82.3056030273438,
    "latitude": 34.8175010681152,
    "regions": []
  },
  {
    "code": "1ec74",
    "name": "Piedmont",
    "updated_at": "2014-09-22T21:41:26.948816Z",
    "country": "us",
    "parent": null,
    "longitude": -82.4646987915039,
    "latitude": 34.7022018432617,
    "regions": [
      "12f3"
    ]
  },
  {
    "code": "1ec73",
    "name": "Pawleys Island",
    "updated_at": "2014-09-22T21:41:26.908271Z",
    "country": "us",
    "parent": null,
    "longitude": -79.121696472168,
    "latitude": 33.4331016540527,
    "regions": [
      "12f3"
    ]
  },
  {
    "code": "1ec72",
    "name": "Pageland",
    "updated_at": "2014-09-22T21:41:26.885231Z",
    "country": "us",
    "parent": null,
    "longitude": -80.3918991088867,
    "latitude": 34.7731018066406,
    "regions": [
      "12f3"
    ]
  },
  {
    "code": "1ec71",
    "name": "Orchard Park",
    "updated_at": "2014-09-22T21:41:26.861823Z",
    "country": "us",
    "parent": null,
    "longitude": -82.323600769043,
    "latitude": 34.8541984558105,
    "regions": [
      "12f3"
    ]
  },
  {
    "code": "1ec70",
    "name": "Orangeburg",
    "updated_at": "2014-09-22T21:41:26.838432Z",
    "country": "us",
    "parent": null,
    "longitude": -80.8557968139648,
    "latitude": 33.49169921875,
    "regions": [
      "12f3"
    ]
  },
  {
    "code": "1ec6f",
    "name": "Northlake",
    "updated_at": "2014-09-22T21:41:26.792138Z",
    "country": "us",
    "parent": null,
    "longitude": -82.684196472168,
    "latitude": 34.5661010742188,
    "regions": [
      "12f3"
    ]
  },
  {
    "code": "1ec6e",
    "name": "North Charleston",
    "updated_at": "2014-09-22T21:41:26.734014Z",
    "country": "us",
    "parent": null,
    "longitude": -80.0100021362305,
    "latitude": 32.8862991333008,
    "regions": []
  },
  {
    "code": "1ec6d",
    "name": "North Augusta",
    "updated_at": "2014-09-22T21:41:26.704012Z",
    "country": "us",
    "parent": null,
    "longitude": -81.9653015136719,
    "latitude": 33.5017013549805,
    "regions": [
      "12f3"
    ]
  },
  {
    "code": "1ec6c",
    "name": "Newberry",
    "updated_at": "2014-09-22T21:41:26.663172Z",
    "country": "us",
    "parent": null,
    "longitude": -81.618896484375,
    "latitude": 34.2743988037109,
    "regions": [
      "12f3"
    ]
  },
  {
    "code": "1ec6b",
    "name": "Myrtle Beach",
    "updated_at": "2014-09-22T21:41:26.628317Z",
    "country": "us",
    "parent": null,
    "longitude": -78.8621826171875,
    "latitude": 33.7140350341797,
    "regions": [
      "12f3"
    ]
  },
  {
    "code": "1ec6a",
    "name": "Mount Pleasant",
    "updated_at": "2014-09-22T21:41:26.570211Z",
    "country": "us",
    "parent": null,
    "longitude": -79.8628005981445,
    "latitude": 32.7938995361328,
    "regions": [
      "12f3"
    ]
  },
  {
    "code": "1ec69",
    "name": "Moncks Corner",
    "updated_at": "2014-09-22T21:41:26.547501Z",
    "country": "us",
    "parent": null,
    "longitude": -80.013298034668,
    "latitude": 33.19580078125,
    "regions": [
      "12f3"
    ]
  },
  {
    "code": "1ec68",
    "name": "Mauldin",
    "updated_at": "2014-09-22T21:41:26.524501Z",
    "country": "us",
    "parent": null,
    "longitude": -82.310302734375,
    "latitude": 34.7785987854004,
    "regions": [
      "12f3"
    ]
  },
  {
    "code": "1ec67",
    "name": "Manning",
    "updated_at": "2014-09-22T21:41:26.501471Z",
    "country": "us",
    "parent": null,
    "longitude": -80.2110977172852,
    "latitude": 33.6949996948242,
    "regions": [
      "12f3"
    ]
  },
  {
    "code": "1ec66",
    "name": "Lynwood",
    "updated_at": "2014-09-22T21:41:26.478019Z",
    "country": "us",
    "parent": null,
    "longitude": -81.8930969238281,
    "latitude": 35.0250015258789,
    "regions": [
      "12f3"
    ]
  },
  {
    "code": "1ec65",
    "name": "Lugoff",
    "updated_at": "2014-09-22T21:41:26.446522Z",
    "country": "us",
    "parent": null,
    "longitude": -80.6893997192383,
    "latitude": 34.2271995544434,
    "regions": [
      "12f3"
    ]
  },
  {
    "code": "1ec64",
    "name": "Little River",
    "updated_at": "2014-09-22T21:41:26.413386Z",
    "country": "us",
    "parent": null,
    "longitude": -78.6144027709961,
    "latitude": 33.8731002807617,
    "regions": [
      "12f3"
    ]
  },
  {
    "code": "1ec63",
    "name": "Lexington",
    "updated_at": "2014-09-22T21:41:26.379644Z",
    "country": "us",
    "parent": null,
    "longitude": -81.2363967895508,
    "latitude": 33.9813995361328,
    "regions": [
      "12f3"
    ]
  },
  {
    "code": "1ec62",
    "name": "Laurens",
    "updated_at": "2014-09-22T21:41:26.339417Z",
    "country": "us",
    "parent": null,
    "longitude": -82.0143966674805,
    "latitude": 34.4989013671875,
    "regions": [
      "12f3"
    ]
  },
  {
    "code": "1ec61",
    "name": "Lancaster",
    "updated_at": "2014-09-22T21:41:26.273080Z",
    "country": "us",
    "parent": null,
    "longitude": -80.7711029052734,
    "latitude": 34.7202987670898,
    "regions": [
      "12f3"
    ]
  },
  {
    "code": "1ec60",
    "name": "Lake City",
    "updated_at": "2014-09-22T21:41:26.248812Z",
    "country": "us",
    "parent": null,
    "longitude": -79.7555999755859,
    "latitude": 33.8708000183105,
    "regions": [
      "12f3"
    ]
  },
  {
    "code": "1ec5f",
    "name": "Ladson",
    "updated_at": "2014-09-22T21:41:26.224748Z",
    "country": "us",
    "parent": null,
    "longitude": -80.1100006103516,
    "latitude": 32.9855995178223,
    "regions": [
      "12f3"
    ]
  },
  {
    "code": "1ec5e",
    "name": "Kingstree",
    "updated_at": "2014-09-22T21:41:26.200353Z",
    "country": "us",
    "parent": null,
    "longitude": -79.8308029174805,
    "latitude": 33.6674995422363,
    "regions": [
      "12f3"
    ]
  },
  {
    "code": "1ec5d",
    "name": "Kiawah Island",
    "updated_at": "2014-09-22T21:41:26.177683Z",
    "country": "us",
    "parent": null,
    "longitude": -80.0849990844727,
    "latitude": 32.6081008911133,
    "regions": [
      "12f3"
    ]
  },
  {
    "code": "1ec5c",
    "name": "Isle of Palms",
    "updated_at": "2014-09-22T21:41:26.154452Z",
    "country": "us",
    "parent": null,
    "longitude": -79.7949981689453,
    "latitude": 32.7867012023926,
    "regions": [
      "12f3"
    ]
  },
  {
    "code": "1ec5b",
    "name": "Irmo",
    "updated_at": "2014-09-22T21:41:26.127039Z",
    "country": "us",
    "parent": null,
    "longitude": -81.1832962036133,
    "latitude": 34.0858001708984,
    "regions": [
      "12f3"
    ]
  },
  {
    "code": "1ec5a",
    "name": "Hilton Head Island",
    "updated_at": "2014-09-22T21:41:26.098708Z",
    "country": "us",
    "parent": null,
    "longitude": -80.7452011108398,
    "latitude": 32.1944007873535,
    "regions": [
      "12f3"
    ]
  },
  {
    "code": "1ec59",
    "name": "Hartsville",
    "updated_at": "2014-09-22T21:41:26.065540Z",
    "country": "us",
    "parent": null,
    "longitude": -80.073600769043,
    "latitude": 34.3739013671875,
    "regions": [
      "12f3"
    ]
  },
  {
    "code": "1ec58",
    "name": "Harleyville",
    "updated_at": "2014-09-22T21:41:26.025110Z",
    "country": "us",
    "parent": null,
    "longitude": -80.4480972290039,
    "latitude": 33.2144012451172,
    "regions": [
      "12f3"
    ]
  },
  {
    "code": "1ec57",
    "name": "Hardeeville",
    "updated_at": "2014-09-22T21:41:25.984726Z",
    "country": "us",
    "parent": null,
    "longitude": -81.0808029174805,
    "latitude": 32.2868995666504,
    "regions": [
      "12f3"
    ]
  },
  {
    "code": "1ec56",
    "name": "Greer",
    "updated_at": "2014-09-22T21:41:25.950468Z",
    "country": "us",
    "parent": null,
    "longitude": -82.2272033691406,
    "latitude": 34.9385986328125,
    "regions": [
      "12f3"
    ]
  },
  {
    "code": "1ec55",
    "name": "Greenwood",
    "updated_at": "2014-09-22T21:41:25.926954Z",
    "country": "us",
    "parent": null,
    "longitude": -82.1619033813477,
    "latitude": 34.1953010559082,
    "regions": [
      "12f3"
    ]
  },
  {
    "code": "1ec54",
    "name": "Greenville",
    "updated_at": "2014-09-22T21:41:25.904073Z",
    "country": "us",
    "parent": null,
    "longitude": -82.3942031860352,
    "latitude": 34.8525009155273,
    "regions": [
      "12f3"
    ]
  },
  {
    "code": "1ec53",
    "name": "Goose Creek",
    "updated_at": "2014-09-22T21:41:25.880853Z",
    "country": "us",
    "parent": null,
    "longitude": -80.0327987670898,
    "latitude": 32.9808006286621,
    "regions": [
      "12f3"
    ]
  },
  {
    "code": "1ec52",
    "name": "Georgetown",
    "updated_at": "2014-09-22T21:41:25.857569Z",
    "country": "us",
    "parent": null,
    "longitude": -79.2947006225586,
    "latitude": 33.3767013549805,
    "regions": [
      "12f3"
    ]
  },
  {
    "code": "1ec51",
    "name": "Gaffney",
    "updated_at": "2014-09-22T21:41:25.834438Z",
    "country": "us",
    "parent": null,
    "longitude": -81.6500015258789,
    "latitude": 35.0717010498047,
    "regions": [
      "12f3"
    ]
  },
  {
    "code": "1ec50",
    "name": "Fort Mill",
    "updated_at": "2014-09-22T21:41:25.805101Z",
    "country": "us",
    "parent": null,
    "longitude": -80.9452972412109,
    "latitude": 35.0071983337402,
    "regions": [
      "12f3"
    ]
  },
  {
    "code": "1ec4f",
    "name": "Folly Beach",
    "updated_at": "2014-09-22T21:41:25.745677Z",
    "country": "us",
    "parent": null,
    "longitude": -79.9405975341797,
    "latitude": 32.6549987792969,
    "regions": [
      "12f3"
    ]
  },
  {
    "code": "1ec4e",
    "name": "Florence",
    "updated_at": "2014-09-22T21:41:25.707505Z",
    "country": "us",
    "parent": null,
    "longitude": -79.7628021240234,
    "latitude": 34.1953010559082,
    "regions": [
      "12f3"
    ]
  },
  {
    "code": "1ec4d",
    "name": "Edisto Island",
    "updated_at": "2014-09-22T21:41:25.668014Z",
    "country": "us",
    "parent": null,
    "longitude": -80.2799987792969,
    "latitude": 32.560001373291,
    "regions": [
      "12f3"
    ]
  },
  {
    "code": "1ec4c",
    "name": "Easley",
    "updated_at": "2014-09-22T21:41:25.632318Z",
    "country": "us",
    "parent": null,
    "longitude": -82.6016998291016,
    "latitude": 34.8297004699707,
    "regions": [
      "12f3"
    ]
  },
  {
    "code": "1ec4b",
    "name": "Duncan",
    "updated_at": "2014-09-22T21:41:25.609510Z",
    "country": "us",
    "parent": null,
    "longitude": -82.1453018188477,
    "latitude": 34.937801361084,
    "regions": [
      "12f3"
    ]
  },
  {
    "code": "1ec4a",
    "name": "Dillon",
    "updated_at": "2014-09-22T21:41:25.586681Z",
    "country": "us",
    "parent": null,
    "longitude": -79.3713989257812,
    "latitude": 34.4164009094238,
    "regions": [
      "12f3"
    ]
  },
  {
    "code": "1ec49",
    "name": "Deerfield",
    "updated_at": "2014-09-22T21:41:25.540343Z",
    "country": "us",
    "parent": null,
    "longitude": -82.2705993652344,
    "latitude": 34.8708000183105,
    "regions": []
  },
  {
    "code": "1ec48",
    "name": "Darlington",
    "updated_at": "2014-09-22T21:41:25.516943Z",
    "country": "us",
    "parent": null,
    "longitude": -79.8764038085938,
    "latitude": 34.2997016906738,
    "regions": [
      "12f3"
    ]
  },
  {
    "code": "1ec47",
    "name": "Country Club Estates",
    "updated_at": "2014-09-22T21:41:25.484210Z",
    "country": "us",
    "parent": null,
    "longitude": -79.371696472168,
    "latitude": 34.1800003051758,
    "regions": [
      "12f3"
    ]
  },
  {
    "code": "1ec46",
    "name": "Conway",
    "updated_at": "2014-09-22T21:41:25.452362Z",
    "country": "us",
    "parent": null,
    "longitude": -79.0481033325195,
    "latitude": 33.8358001708984,
    "regions": [
      "12f3"
    ]
  },
  {
    "code": "1ec45",
    "name": "Columbia",
    "updated_at": "2014-09-22T21:41:25.416272Z",
    "country": "us",
    "parent": null,
    "longitude": -81.0350036621094,
    "latitude": 34.0005989074707,
    "regions": [
      "12f3"
    ]
  },
  {
    "code": "1ec44",
    "name": "Clinton",
    "updated_at": "2014-09-22T21:41:25.382014Z",
    "country": "us",
    "parent": null,
    "longitude": -81.8807983398438,
    "latitude": 34.4724998474121,
    "regions": [
      "12f3"
    ]
  },
  {
    "code": "1ec43",
    "name": "Clemson",
    "updated_at": "2014-09-22T21:41:25.341346Z",
    "country": "us",
    "parent": null,
    "longitude": -82.8375015258789,
    "latitude": 34.6833000183105,
    "regions": [
      "12f3"
    ]
  },
  {
    "code": "1ec42",
    "name": "Cheraw",
    "updated_at": "2014-09-22T21:41:25.312008Z",
    "country": "us",
    "parent": null,
    "longitude": -79.8835983276367,
    "latitude": 34.6974983215332,
    "regions": [
      "12f3"
    ]
  },
  {
    "code": "1ec41",
    "name": "Charleston",
    "updated_at": "2014-09-22T21:41:25.287742Z",
    "country": "us",
    "parent": null,
    "longitude": -79.9358139038086,
    "latitude": 32.7804641723633,
    "regions": [
      "12f3"
    ]
  },
  {
    "code": "1ec40",
    "name": "Cayce",
    "updated_at": "2014-09-22T21:41:25.263425Z",
    "country": "us",
    "parent": null,
    "longitude": -81.0742034912109,
    "latitude": 33.9655990600586,
    "regions": [
      "12f3"
    ]
  },
  {
    "code": "1ec3f",
    "name": "Camden",
    "updated_at": "2014-09-22T21:41:25.239414Z",
    "country": "us",
    "parent": null,
    "longitude": -80.6072006225586,
    "latitude": 34.2463989257812,
    "regions": [
      "12f3"
    ]
  },
  {
    "code": "1ec3e",
    "name": "Blythewood",
    "updated_at": "2014-09-22T21:41:25.214764Z",
    "country": "us",
    "parent": null,
    "longitude": -80.9741973876953,
    "latitude": 34.2141990661621,
    "regions": [
      "12f3"
    ]
  },
  {
    "code": "1ec3d",
    "name": "Bluffton",
    "updated_at": "2014-09-22T21:41:25.190031Z",
    "country": "us",
    "parent": null,
    "longitude": -80.8606033325195,
    "latitude": 32.2369003295898,
    "regions": [
      "12f3"
    ]
  },
  {
    "code": "1ec3c",
    "name": "Bishopville",
    "updated_at": "2014-09-22T21:41:25.160414Z",
    "country": "us",
    "parent": null,
    "longitude": -80.2485961914062,
    "latitude": 34.2181015014648,
    "regions": [
      "12f3"
    ]
  },
  {
    "code": "1ec3b",
    "name": "Berrys Crossroads",
    "updated_at": "2014-09-22T21:41:25.129734Z",
    "country": "us",
    "parent": null,
    "longitude": -79.4914016723633,
    "latitude": 34.3189010620117,
    "regions": [
      "12f3"
    ]
  },
  {
    "code": "1ec3a",
    "name": "Beaufort",
    "updated_at": "2014-09-22T21:41:25.057043Z",
    "country": "us",
    "parent": null,
    "longitude": -80.6699981689453,
    "latitude": 32.4314002990723,
    "regions": [
      "12f3"
    ]
  },
  {
    "code": "1ec39",
    "name": "Barnwell",
    "updated_at": "2014-09-22T21:41:25.016477Z",
    "country": "us",
    "parent": null,
    "longitude": -81.3589019775391,
    "latitude": 33.244701385498,
    "regions": [
      "12f3"
    ]
  },
  {
    "code": "1ec38",
    "name": "Ashley Heights",
    "updated_at": "2014-09-22T21:41:24.988736Z",
    "country": "us",
    "parent": null,
    "longitude": -80.0543975830078,
    "latitude": 32.9324989318848,
    "regions": []
  },
  {
    "code": "1ec37",
    "name": "Anderson",
    "updated_at": "2014-09-22T21:41:24.966282Z",
    "country": "us",
    "parent": null,
    "longitude": -82.6502990722656,
    "latitude": 34.5032997131348,
    "regions": [
      "12f3"
    ]
  },
  {
    "code": "1ec36",
    "name": "Aiken",
    "updated_at": "2014-09-22T21:41:24.943445Z",
    "country": "us",
    "parent": null,
    "longitude": -81.7197036743164,
    "latitude": 33.5602989196777,
    "regions": [
      "12f3"
    ]
  },
  {
    "code": "1ec35",
    "name": "Woonsocket",
    "updated_at": "2014-09-22T21:41:24.896649Z",
    "country": "us",
    "parent": null,
    "longitude": -71.5152969360352,
    "latitude": 42.002799987793,
    "regions": [
      "12f2"
    ]
  },
  {
    "code": "1ec34",
    "name": "Westerly",
    "updated_at": "2014-09-22T21:41:24.871027Z",
    "country": "us",
    "parent": null,
    "longitude": -71.8277969360352,
    "latitude": 41.377498626709,
    "regions": [
      "12f2"
    ]
  },
  {
    "code": "1ec33",
    "name": "West Warwick",
    "updated_at": "2014-09-22T21:41:24.843799Z",
    "country": "us",
    "parent": null,
    "longitude": -71.5235977172852,
    "latitude": 41.7061004638672,
    "regions": [
      "12f2"
    ]
  },
  {
    "code": "1ec32",
    "name": "Warwick",
    "updated_at": "2014-09-22T21:41:24.814109Z",
    "country": "us",
    "parent": null,
    "longitude": -71.4167022705078,
    "latitude": 41.7000007629395,
    "regions": [
      "12f2"
    ]
  },
  {
    "code": "1ec31",
    "name": "Spring Lake",
    "updated_at": "2014-09-22T21:41:24.782203Z",
    "country": "us",
    "parent": null,
    "longitude": -71.5764007568359,
    "latitude": 41.6796989440918,
    "regions": [
      "12f2"
    ]
  },
  {
    "code": "1ec30",
    "name": "Smithfield",
    "updated_at": "2014-09-22T21:41:24.744654Z",
    "country": "us",
    "parent": null,
    "longitude": -71.5500030517578,
    "latitude": 41.9219017028809,
    "regions": [
      "12f2"
    ]
  },
  {
    "code": "1ec2f",
    "name": "Rumford",
    "updated_at": "2014-09-22T21:41:24.706703Z",
    "country": "us",
    "parent": null,
    "longitude": -71.3525009155273,
    "latitude": 41.8452987670898,
    "regions": [
      "12f2"
    ]
  },
  {
    "code": "1ec2e",
    "name": "Providence",
    "updated_at": "2014-09-22T21:41:24.681043Z",
    "country": "us",
    "parent": null,
    "longitude": -71.4132995605469,
    "latitude": 41.8238983154297,
    "regions": [
      "12f2"
    ]
  },
  {
    "code": "1ec2d",
    "name": "Portsmouth",
    "updated_at": "2014-09-22T21:41:24.656560Z",
    "country": "us",
    "parent": null,
    "longitude": -71.2508010864258,
    "latitude": 41.6021995544434,
    "regions": [
      "12f2"
    ]
  },
  {
    "code": "1ec2c",
    "name": "Pawtucket",
    "updated_at": "2014-09-22T21:41:24.632311Z",
    "country": "us",
    "parent": null,
    "longitude": -71.3831024169922,
    "latitude": 41.8786010742188,
    "regions": [
      "12f2"
    ]
  },
  {
    "code": "1ec2b",
    "name": "North Smithfield",
    "updated_at": "2014-09-22T21:41:24.606319Z",
    "country": "us",
    "parent": null,
    "longitude": -71.5500030517578,
    "latitude": 41.9667015075684,
    "regions": [
      "12f2"
    ]
  },
  {
    "code": "1ec2a",
    "name": "North Scituate",
    "updated_at": "2014-09-22T21:41:24.581696Z",
    "country": "us",
    "parent": null,
    "longitude": -71.5877990722656,
    "latitude": 41.8316993713379,
    "regions": [
      "12f2"
    ]
  },
  {
    "code": "1ec29",
    "name": "North Kingstown",
    "updated_at": "2014-09-22T21:41:24.554678Z",
    "country": "us",
    "parent": null,
    "longitude": -71.4666976928711,
    "latitude": 41.5499992370605,
    "regions": [
      "12f2"
    ]
  },
  {
    "code": "1ec28",
    "name": "New Shoreham",
    "updated_at": "2014-09-22T21:41:24.525072Z",
    "country": "us",
    "parent": null,
    "longitude": -71.5582962036133,
    "latitude": 41.1721992492676,
    "regions": [
      "12f2",
      "13fb"
    ]
  },
  {
    "code": "1ec27",
    "name": "Narragansett",
    "updated_at": "2014-09-22T21:41:24.495896Z",
    "country": "us",
    "parent": null,
    "longitude": -71.4499969482422,
    "latitude": 41.4500007629395,
    "regions": [
      "12f2"
    ]
  },
  {
    "code": "1ec26",
    "name": "Middletown",
    "updated_at": "2014-09-22T21:41:24.464014Z",
    "country": "us",
    "parent": null,
    "longitude": -71.2919006347656,
    "latitude": 41.5456008911133,
    "regions": [
      "12f2"
    ]
  },
  {
    "code": "1ec25",
    "name": "Jamestown",
    "updated_at": "2014-09-22T21:41:24.424231Z",
    "country": "us",
    "parent": null,
    "longitude": -71.3677978515625,
    "latitude": 41.496898651123,
    "regions": [
      "12f2"
    ]
  },
  {
    "code": "1ec24",
    "name": "East Providence",
    "updated_at": "2014-09-22T21:41:24.384810Z",
    "country": "us",
    "parent": null,
    "longitude": -71.3705978393555,
    "latitude": 41.8135986328125,
    "regions": [
      "12f2"
    ]
  },
  {
    "code": "1ec23",
    "name": "Cranston",
    "updated_at": "2014-09-22T21:41:24.360492Z",
    "country": "us",
    "parent": null,
    "longitude": -71.4716033935547,
    "latitude": 41.7272987365723,
    "regions": [
      "12f2"
    ]
  },
  {
    "code": "1ec22",
    "name": "Coventry",
    "updated_at": "2014-09-22T21:41:24.336267Z",
    "country": "us",
    "parent": null,
    "longitude": -71.5645141601562,
    "latitude": 41.6887626647949,
    "regions": [
      "12f2"
    ]
  },
  {
    "code": "1ec21",
    "name": "Bristol",
    "updated_at": "2014-09-22T21:41:24.311956Z",
    "country": "us",
    "parent": null,
    "longitude": -71.2667007446289,
    "latitude": 41.6768989562988,
    "regions": [
      "12f2"
    ]
  },
  {
    "code": "1ec20",
    "name": "York",
    "updated_at": "2014-09-22T21:41:24.287527Z",
    "country": "us",
    "parent": null,
    "longitude": -76.7281036376953,
    "latitude": 39.9625015258789,
    "regions": [
      "1236"
    ]
  },
  {
    "code": "1ec1f",
    "name": "Yardley",
    "updated_at": "2014-09-22T21:41:24.263087Z",
    "country": "us",
    "parent": null,
    "longitude": -74.8463973999023,
    "latitude": 40.2456016540527,
    "regions": [
      "1236"
    ]
  },
  {
    "code": "1ec1e",
    "name": "Wyomissing",
    "updated_at": "2014-09-22T21:41:24.235800Z",
    "country": "us",
    "parent": null,
    "longitude": -75.9655990600586,
    "latitude": 40.3293991088867,
    "regions": [
      "1236"
    ]
  },
  {
    "code": "1ec1d",
    "name": "Wormleysburg",
    "updated_at": "2014-09-22T21:41:24.208753Z",
    "country": "us",
    "parent": null,
    "longitude": -76.9141998291016,
    "latitude": 40.2627983093262,
    "regions": [
      "1236"
    ]
  },
  {
    "code": "1ec1c",
    "name": "Winona Lakes",
    "updated_at": "2014-09-22T21:41:24.179009Z",
    "country": "us",
    "parent": null,
    "longitude": -75.0297012329102,
    "latitude": 41.0682983398438,
    "regions": []
  },
  {
    "code": "1ec1b",
    "name": "Wind Gap",
    "updated_at": "2014-09-22T21:41:24.137894Z",
    "country": "us",
    "parent": null,
    "longitude": -75.2919006347656,
    "latitude": 40.8480987548828,
    "regions": [
      "1236"
    ]
  },
  {
    "code": "1ec1a",
    "name": "Willow Grove",
    "updated_at": "2014-09-22T21:41:24.097047Z",
    "country": "us",
    "parent": null,
    "longitude": -75.116096496582,
    "latitude": 40.1439018249512,
    "regions": [
      "1236"
    ]
  },
  {
    "code": "1ec19",
    "name": "Willock",
    "updated_at": "2014-09-22T21:41:24.059083Z",
    "country": "us",
    "parent": null,
    "longitude": -79.9618988037109,
    "latitude": 40.3513984680176,
    "regions": [
      "1236"
    ]
  },
  {
    "code": "1ec18",
    "name": "Williamsport",
    "updated_at": "2014-09-22T21:41:24.036243Z",
    "country": "us",
    "parent": null,
    "longitude": -77.0014038085938,
    "latitude": 41.2411003112793,
    "regions": [
      "1236"
    ]
  },
  {
    "code": "1ec17",
    "name": "Wilkes-Barre",
    "updated_at": "2014-09-22T21:41:24.011863Z",
    "country": "us",
    "parent": null,
    "longitude": -75.8816986083984,
    "latitude": 41.2458000183105,
    "regions": [
      "1236"
    ]
  },
  {
    "code": "1ec16",
    "name": "White Haven",
    "updated_at": "2014-09-22T21:41:23.988958Z",
    "country": "us",
    "parent": null,
    "longitude": -75.7743988037109,
    "latitude": 41.0606002807617,
    "regions": [
      "1236"
    ]
  },
  {
    "code": "1ec15",
    "name": "Wexford",
    "updated_at": "2014-09-22T21:41:23.965893Z",
    "country": "us",
    "parent": null,
    "longitude": -80.0560989379883,
    "latitude": 40.6263999938965,
    "regions": [
      "1236"
    ]
  },
  {
    "code": "1ec14",
    "name": "West Mifflin",
    "updated_at": "2014-09-22T21:41:23.942700Z",
    "country": "us",
    "parent": null,
    "longitude": -79.86669921875,
    "latitude": 40.3633003234863,
    "regions": [
      "1236"
    ]
  },
  {
    "code": "1ec13",
    "name": "West Middlesex",
    "updated_at": "2014-09-22T21:41:23.913298Z",
    "country": "us",
    "parent": null,
    "longitude": -80.4535980224609,
    "latitude": 41.1741981506348,
    "regions": [
      "1236"
    ]
  },
  {
    "code": "1ec12",
    "name": "West Homestead",
    "updated_at": "2014-09-22T21:41:23.883809Z",
    "country": "us",
    "parent": null,
    "longitude": -79.9122009277344,
    "latitude": 40.3939018249512,
    "regions": [
      "1236"
    ]
  },
  {
    "code": "1ec11",
    "name": "West Hazleton",
    "updated_at": "2014-09-22T21:41:23.853083Z",
    "country": "us",
    "parent": null,
    "longitude": -75.9963989257812,
    "latitude": 40.9585990905762,
    "regions": [
      "1236"
    ]
  },
  {
    "code": "1ec10",
    "name": "West Conshohocken",
    "updated_at": "2014-09-22T21:41:23.815305Z",
    "country": "us",
    "parent": null,
    "longitude": -75.3167037963867,
    "latitude": 40.0696983337402,
    "regions": [
      "1236"
    ]
  },
  {
    "code": "1ec0f",
    "name": "West Chester",
    "updated_at": "2014-09-22T21:41:23.775126Z",
    "country": "us",
    "parent": null,
    "longitude": -75.6057968139648,
    "latitude": 39.9606018066406,
    "regions": [
      "1236"
    ]
  },
  {
    "code": "1ec0e",
    "name": "Wellsboro",
    "updated_at": "2014-09-22T21:41:23.739854Z",
    "country": "us",
    "parent": null,
    "longitude": -77.3007965087891,
    "latitude": 41.7486000061035,
    "regions": [
      "1236"
    ]
  },
  {
    "code": "1ec0d",
    "name": "Waynesburg",
    "updated_at": "2014-09-22T21:41:23.716911Z",
    "country": "us",
    "parent": null,
    "longitude": -80.1793975830078,
    "latitude": 39.8964004516602,
    "regions": [
      "1236"
    ]
  },
  {
    "code": "1ec0c",
    "name": "Wayne",
    "updated_at": "2014-09-22T21:41:23.694170Z",
    "country": "us",
    "parent": null,
    "longitude": -75.3880996704102,
    "latitude": 40.0438995361328,
    "regions": [
      "1236"
    ]
  },
  {
    "code": "1ec0b",
    "name": "Washington",
    "updated_at": "2014-09-22T21:41:23.671034Z",
    "country": "us",
    "parent": null,
    "longitude": -80.2463989257812,
    "latitude": 40.173900604248,
    "regions": [
      "1236"
    ]
  },
  {
    "code": "1ec0a",
    "name": "Warrington",
    "updated_at": "2014-09-22T21:41:23.647647Z",
    "country": "us",
    "parent": null,
    "longitude": -75.1343994140625,
    "latitude": 40.2491989135742,
    "regions": [
      "1236"
    ]
  },
  {
    "code": "1ec09",
    "name": "Warren",
    "updated_at": "2014-09-22T21:41:23.624526Z",
    "country": "us",
    "parent": null,
    "longitude": -79.1453018188477,
    "latitude": 41.8438987731934,
    "regions": [
      "1236"
    ]
  },
  {
    "code": "1ec08",
    "name": "Warminster",
    "updated_at": "2014-09-22T21:41:23.591821Z",
    "country": "us",
    "parent": null,
    "longitude": -75.0999984741211,
    "latitude": 40.2066993713379,
    "regions": [
      "1236"
    ]
  },
  {
    "code": "1ec07",
    "name": "Valley Green",
    "updated_at": "2014-09-22T21:41:23.564708Z",
    "country": "us",
    "parent": null,
    "longitude": -76.793098449707,
    "latitude": 40.1571998596191,
    "regions": [
      "1236"
    ]
  },
  {
    "code": "1ec06",
    "name": "Uniontown",
    "updated_at": "2014-09-22T21:41:23.533992Z",
    "country": "us",
    "parent": null,
    "longitude": -79.7166976928711,
    "latitude": 39.9000015258789,
    "regions": [
      "1236"
    ]
  },
  {
    "code": "1ec05",
    "name": "Tunkhannock",
    "updated_at": "2014-09-22T21:41:23.456404Z",
    "country": "us",
    "parent": null,
    "longitude": -75.9468994140625,
    "latitude": 41.5386009216309,
    "regions": [
      "1236"
    ]
  },
  {
    "code": "1ec04",
    "name": "Trevose",
    "updated_at": "2014-09-22T21:41:23.425869Z",
    "country": "us",
    "parent": null,
    "longitude": -74.9813995361328,
    "latitude": 40.1391983032227,
    "regions": [
      "1236"
    ]
  },
  {
    "code": "1ec03",
    "name": "Towanda",
    "updated_at": "2014-09-22T21:41:23.403168Z",
    "country": "us",
    "parent": null,
    "longitude": -76.4430999755859,
    "latitude": 41.7675018310547,
    "regions": [
      "1236"
    ]
  },
  {
    "code": "1ec02",
    "name": "Thompson",
    "updated_at": "2014-09-22T21:41:23.380360Z",
    "country": "us",
    "parent": null,
    "longitude": -80.3161010742188,
    "latitude": 40.8111000061035,
    "regions": [
      "1236"
    ]
  },
  {
    "code": "1ec01",
    "name": "Tarentum",
    "updated_at": "2014-09-22T21:41:23.357218Z",
    "country": "us",
    "parent": null,
    "longitude": -79.7600021362305,
    "latitude": 40.6013984680176,
    "regions": [
      "1236"
    ]
  },
  {
    "code": "1ec00",
    "name": "Tannersville",
    "updated_at": "2014-09-22T21:41:23.334023Z",
    "country": "us",
    "parent": null,
    "longitude": -75.3060989379883,
    "latitude": 41.0400009155273,
    "regions": [
      "1236"
    ]
  },
  {
    "code": "1ebff",
    "name": "Stroudsburg",
    "updated_at": "2014-09-22T21:41:23.311118Z",
    "country": "us",
    "parent": null,
    "longitude": -75.1949996948242,
    "latitude": 40.9866981506348,
    "regions": [
      "1236"
    ]
  },
  {
    "code": "1ebfe",
    "name": "Strasburg",
    "updated_at": "2014-09-22T21:41:23.277126Z",
    "country": "us",
    "parent": null,
    "longitude": -76.1844024658203,
    "latitude": 39.9831008911133,
    "regions": [
      "1236"
    ]
  },
  {
    "code": "1ebfd",
    "name": "State College",
    "updated_at": "2014-09-22T21:41:23.209865Z",
    "country": "us",
    "parent": null,
    "longitude": -77.8602981567383,
    "latitude": 40.7868995666504,
    "regions": [
      "1236"
    ]
  },
  {
    "code": "1ebfc",
    "name": "Springfield",
    "updated_at": "2014-09-22T21:41:23.133593Z",
    "country": "us",
    "parent": null,
    "longitude": -75.3206024169922,
    "latitude": 39.9305992126465,
    "regions": [
      "1236"
    ]
  },
  {
    "code": "1ebfb",
    "name": "Somerset",
    "updated_at": "2014-09-22T21:41:23.100713Z",
    "country": "us",
    "parent": null,
    "longitude": -79.0783004760742,
    "latitude": 40.00830078125,
    "regions": [
      "1236"
    ]
  },
  {
    "code": "1ebfa",
    "name": "Smoketown",
    "updated_at": "2014-09-22T21:41:23.076336Z",
    "country": "us",
    "parent": null,
    "longitude": -76.1996994018555,
    "latitude": 40.0391998291016,
    "regions": [
      "1236"
    ]
  },
  {
    "code": "1ebf9",
    "name": "Slippery Rock",
    "updated_at": "2014-09-22T21:41:23.051725Z",
    "country": "us",
    "parent": null,
    "longitude": -80.0567016601562,
    "latitude": 41.0638999938965,
    "regions": [
      "1236"
    ]
  },
  {
    "code": "1ebf8",
    "name": "Skytop",
    "updated_at": "2014-09-22T21:41:23.026742Z",
    "country": "us",
    "parent": null,
    "longitude": -75.2386016845703,
    "latitude": 41.2277984619141,
    "regions": [
      "1236"
    ]
  },
  {
    "code": "1ebf7",
    "name": "Skyline View",
    "updated_at": "2014-09-22T21:41:23.001718Z",
    "country": "us",
    "parent": null,
    "longitude": -76.7257995605469,
    "latitude": 40.3391990661621,
    "regions": [
      "1236"
    ]
  },
  {
    "code": "1ebf6",
    "name": "Shrewsbury",
    "updated_at": "2014-09-22T21:41:22.974387Z",
    "country": "us",
    "parent": null,
    "longitude": -76.6800003051758,
    "latitude": 39.7686004638672,
    "regions": [
      "1236"
    ]
  },
  {
    "code": "1ebf5",
    "name": "Shippensburg",
    "updated_at": "2014-09-22T21:41:22.946806Z",
    "country": "us",
    "parent": null,
    "longitude": -77.5205993652344,
    "latitude": 40.0505981445312,
    "regions": [
      "1236"
    ]
  },
  {
    "code": "1ebf4",
    "name": "Shillington",
    "updated_at": "2014-09-22T21:41:22.917100Z",
    "country": "us",
    "parent": null,
    "longitude": -75.9657974243164,
    "latitude": 40.3078002929688,
    "regions": []
  },
  {
    "code": "1ebf3",
    "name": "Shawnee on Delaware",
    "updated_at": "2014-09-22T21:41:22.837348Z",
    "country": "us",
    "parent": null,
    "longitude": -75.1110992431641,
    "latitude": 41.0121994018555,
    "regions": [
      "1236"
    ]
  },
  {
    "code": "1ebf2",
    "name": "Shartlesville",
    "updated_at": "2014-09-22T21:41:22.760694Z",
    "country": "us",
    "parent": null,
    "longitude": -76.1046981811523,
    "latitude": 40.5127983093262,
    "regions": [
      "1236"
    ]
  },
  {
    "code": "1ebf1",
    "name": "Shamokin Dam",
    "updated_at": "2014-09-22T21:41:22.685796Z",
    "country": "us",
    "parent": null,
    "longitude": -76.8199996948242,
    "latitude": 40.8485984802246,
    "regions": [
      "1236"
    ]
  },
  {
    "code": "1ebf0",
    "name": "Shaffer",
    "updated_at": "2014-09-22T21:41:22.607851Z",
    "country": "us",
    "parent": null,
    "longitude": -78.7343978881836,
    "latitude": 41.1241989135742,
    "regions": [
      "1236"
    ]
  },
  {
    "code": "1ebef",
    "name": "Seneca",
    "updated_at": "2014-09-22T21:41:22.539110Z",
    "country": "us",
    "parent": null,
    "longitude": -79.7042007446289,
    "latitude": 41.3786010742188,
    "regions": [
      "1236"
    ]
  },
  {
    "code": "1ebee",
    "name": "Selinsgrove",
    "updated_at": "2014-09-22T21:41:22.453332Z",
    "country": "us",
    "parent": null,
    "longitude": -76.8625030517578,
    "latitude": 40.798900604248,
    "regions": [
      "1236"
    ]
  },
  {
    "code": "1ebed",
    "name": "Scranton",
    "updated_at": "2014-09-22T21:41:19.076719Z",
    "country": "us",
    "parent": null,
    "longitude": -75.6628036499023,
    "latitude": 41.4089012145996,
    "regions": [
      "1236"
    ]
  },
  {
    "code": "1ebec",
    "name": "Scotland",
    "updated_at": "2014-09-22T21:41:19.010137Z",
    "country": "us",
    "parent": null,
    "longitude": -77.5875015258789,
    "latitude": 39.9686012268066,
    "regions": [
      "1236"
    ]
  },
  {
    "code": "1ebeb",
    "name": "Sayre",
    "updated_at": "2014-09-22T21:41:18.977550Z",
    "country": "us",
    "parent": null,
    "longitude": -76.5158004760742,
    "latitude": 41.9789009094238,
    "regions": [
      "1236"
    ]
  },
  {
    "code": "1ebea",
    "name": "Saint Marys",
    "updated_at": "2014-09-22T21:41:18.937092Z",
    "country": "us",
    "parent": null,
    "longitude": -78.5610961914062,
    "latitude": 41.4277992248535,
    "regions": [
      "1236"
    ]
  },
  {
    "code": "1ebe9",
    "name": "Ruppsville",
    "updated_at": "2014-09-22T21:41:18.897457Z",
    "country": "us",
    "parent": null,
    "longitude": -75.6007995605469,
    "latitude": 40.5802993774414,
    "regions": [
      "1236"
    ]
  },
  {
    "code": "1ebe8",
    "name": "Royersford",
    "updated_at": "2014-09-22T21:41:18.869482Z",
    "country": "us",
    "parent": null,
    "longitude": -75.5382995605469,
    "latitude": 40.1842002868652,
    "regions": [
      "1236"
    ]
  },
  {
    "code": "1ebe7",
    "name": "Ronks",
    "updated_at": "2014-09-22T21:41:18.845187Z",
    "country": "us",
    "parent": null,
    "longitude": -76.1688995361328,
    "latitude": 40.0261001586914,
    "regions": [
      "1236"
    ]
  },
  {
    "code": "1ebe6",
    "name": "Ridley Park",
    "updated_at": "2014-09-22T21:41:18.821752Z",
    "country": "us",
    "parent": null,
    "longitude": -75.3242034912109,
    "latitude": 39.8810997009277,
    "regions": [
      "1236"
    ]
  },
  {
    "code": "1ebe5",
    "name": "Reinholds",
    "updated_at": "2014-09-22T21:41:18.796809Z",
    "country": "us",
    "parent": null,
    "longitude": -76.1157989501953,
    "latitude": 40.2667007446289,
    "regions": [
      "1236"
    ]
  },
  {
    "code": "1ebe4",
    "name": "Red Lion",
    "updated_at": "2014-09-22T21:41:18.771997Z",
    "country": "us",
    "parent": null,
    "longitude": -76.6061019897461,
    "latitude": 39.9007987976074,
    "regions": [
      "1236"
    ]
  },
  {
    "code": "1ebe3",
    "name": "Reading",
    "updated_at": "2014-09-22T21:41:18.744839Z",
    "country": "us",
    "parent": null,
    "longitude": -75.9272003173828,
    "latitude": 40.3356018066406,
    "regions": [
      "1236"
    ]
  },
  {
    "code": "1ebe2",
    "name": "Quakertown",
    "updated_at": "2014-09-22T21:41:18.715327Z",
    "country": "us",
    "parent": null,
    "longitude": -75.3419036865234,
    "latitude": 40.4416999816895,
    "regions": [
      "1236"
    ]
  },
  {
    "code": "1ebe1",
    "name": "Pottsville",
    "updated_at": "2014-09-22T21:41:18.685878Z",
    "country": "us",
    "parent": null,
    "longitude": -76.19580078125,
    "latitude": 40.6856002807617,
    "regions": [
      "1236"
    ]
  },
  {
    "code": "1ebe0",
    "name": "Pottstown",
    "updated_at": "2014-09-22T21:41:18.647515Z",
    "country": "us",
    "parent": null,
    "longitude": -75.6500015258789,
    "latitude": 40.2453002929688,
    "regions": [
      "1236"
    ]
  },
  {
    "code": "1ebdf",
    "name": "Pocono Manor",
    "updated_at": "2014-09-22T21:41:18.607347Z",
    "country": "us",
    "parent": null,
    "longitude": -75.3591995239258,
    "latitude": 41.0999984741211,
    "regions": [
      "1236"
    ]
  },
  {
    "code": "1ebde",
    "name": "Pocono Lake",
    "updated_at": "2014-09-22T21:41:18.571226Z",
    "country": "us",
    "parent": null,
    "longitude": -75.4764022827148,
    "latitude": 41.1053009033203,
    "regions": [
      "1236"
    ]
  },
  {
    "code": "1ebdd",
    "name": "Plymouth Meeting",
    "updated_at": "2014-09-22T21:41:18.546256Z",
    "country": "us",
    "parent": null,
    "longitude": -75.2746963500977,
    "latitude": 40.1021995544434,
    "regions": [
      "1236"
    ]
  },
  {
    "code": "1ebdc",
    "name": "Pittston",
    "updated_at": "2014-09-22T21:41:18.521974Z",
    "country": "us",
    "parent": null,
    "longitude": -75.7897033691406,
    "latitude": 41.3258018493652,
    "regions": [
      "1236"
    ]
  },
  {
    "code": "1ebdb",
    "name": "Pittsburgh",
    "updated_at": "2014-09-22T21:41:18.497406Z",
    "country": "us",
    "parent": null,
    "longitude": -79.9961013793945,
    "latitude": 40.440601348877,
    "regions": [
      "1236"
    ]
  },
  {
    "code": "1ebda",
    "name": "Pine Grove",
    "updated_at": "2014-09-22T21:41:18.472669Z",
    "country": "us",
    "parent": null,
    "longitude": -76.3850021362305,
    "latitude": 40.5483016967773,
    "regions": [
      "1236"
    ]
  },
  {
    "code": "1ebd9",
    "name": "Phoenixville",
    "updated_at": "2014-09-22T21:41:18.445732Z",
    "country": "us",
    "parent": null,
    "longitude": -75.5152969360352,
    "latitude": 40.130298614502,
    "regions": [
      "1236"
    ]
  },
  {
    "code": "1ebd8",
    "name": "Philipsburg",
    "updated_at": "2014-09-22T21:41:18.411987Z",
    "country": "us",
    "parent": null,
    "longitude": -78.2208023071289,
    "latitude": 40.8964004516602,
    "regions": [
      "1236"
    ]
  },
  {
    "code": "1ebd7",
    "name": "Philadelphia",
    "updated_at": "2014-09-22T21:41:18.349844Z",
    "country": "us",
    "parent": null,
    "longitude": -75.1641998291016,
    "latitude": 39.9522018432617,
    "regions": [
      "1236"
    ]
  },
  {
    "code": "1ebd6",
    "name": "Penfield",
    "updated_at": "2014-09-22T21:41:18.279436Z",
    "country": "us",
    "parent": null,
    "longitude": -78.575798034668,
    "latitude": 41.2083015441895,
    "regions": [
      "1236"
    ]
  },
  {
    "code": "1ebd5",
    "name": "Paxinos",
    "updated_at": "2014-09-22T21:41:18.248137Z",
    "country": "us",
    "parent": null,
    "longitude": -76.5808029174805,
    "latitude": 40.8506011962891,
    "regions": [
      "1236"
    ]
  },
  {
    "code": "1ebd4",
    "name": "Paradise",
    "updated_at": "2014-09-22T21:41:18.208654Z",
    "country": "us",
    "parent": null,
    "longitude": -76.1288986206055,
    "latitude": 40.0097007751465,
    "regions": [
      "1236"
    ]
  },
  {
    "code": "1ebd3",
    "name": "Palmyra",
    "updated_at": "2014-09-22T21:41:18.167961Z",
    "country": "us",
    "parent": null,
    "longitude": -76.5935974121094,
    "latitude": 40.3088989257812,
    "regions": [
      "1236"
    ]
  },
  {
    "code": "1ebd2",
    "name": "Option",
    "updated_at": "2014-09-22T21:41:18.127030Z",
    "country": "us",
    "parent": null,
    "longitude": -79.9736022949219,
    "latitude": 40.3464012145996,
    "regions": [
      "1236"
    ]
  },
  {
    "code": "1ebd1",
    "name": "Oil City",
    "updated_at": "2014-09-22T21:41:18.104147Z",
    "country": "us",
    "parent": null,
    "longitude": -79.7067031860352,
    "latitude": 41.4338989257812,
    "regions": [
      "1236"
    ]
  },
  {
    "code": "1ebd0",
    "name": "Oaks",
    "updated_at": "2014-09-22T21:41:18.081258Z",
    "country": "us",
    "parent": null,
    "longitude": -75.4599990844727,
    "latitude": 40.1316986083984,
    "regions": [
      "1236"
    ]
  },
  {
    "code": "1ebcf",
    "name": "Oakdale",
    "updated_at": "2014-09-22T21:41:18.057576Z",
    "country": "us",
    "parent": null,
    "longitude": -80.1857986450195,
    "latitude": 40.3981018066406,
    "regions": [
      "1236"
    ]
  },
  {
    "code": "1ebce",
    "name": "North Wales",
    "updated_at": "2014-09-22T21:41:18.034231Z",
    "country": "us",
    "parent": null,
    "longitude": -75.2786026000977,
    "latitude": 40.2108001708984,
    "regions": [
      "1236"
    ]
  },
  {
    "code": "1ebcd",
    "name": "North East",
    "updated_at": "2014-09-22T21:41:18.010881Z",
    "country": "us",
    "parent": null,
    "longitude": -79.8343963623047,
    "latitude": 42.2155990600586,
    "regions": [
      "1236"
    ]
  },
  {
    "code": "1ebcc",
    "name": "Norristown",
    "updated_at": "2014-09-22T21:41:17.979922Z",
    "country": "us",
    "parent": null,
    "longitude": -75.3403015136719,
    "latitude": 40.1213989257812,
    "regions": [
      "1236"
    ]
  },
  {
    "code": "1ebcb",
    "name": "Newtown",
    "updated_at": "2014-09-22T21:41:17.946656Z",
    "country": "us",
    "parent": null,
    "longitude": -74.9372024536133,
    "latitude": 40.2291984558105,
    "regions": [
      "1236"
    ]
  },
  {
    "code": "1ebca",
    "name": "New Stanton",
    "updated_at": "2014-09-22T21:41:17.913028Z",
    "country": "us",
    "parent": null,
    "longitude": -79.6097030639648,
    "latitude": 40.2192001342773,
    "regions": [
      "1236"
    ]
  },
  {
    "code": "1ebc9",
    "name": "New Morgan",
    "updated_at": "2014-09-22T21:41:17.830199Z",
    "country": "us",
    "parent": null,
    "longitude": -75.8906021118164,
    "latitude": 40.1808013916016,
    "regions": [
      "1236"
    ]
  },
  {
    "code": "1ebc8",
    "name": "New Holland",
    "updated_at": "2014-09-22T21:41:17.774724Z",
    "country": "us",
    "parent": null,
    "longitude": -76.0856018066406,
    "latitude": 40.1016998291016,
    "regions": [
      "1236"
    ]
  },
  {
    "code": "1ebc7",
    "name": "New Cumberland",
    "updated_at": "2014-09-22T21:41:17.751916Z",
    "country": "us",
    "parent": null,
    "longitude": -76.8850021362305,
    "latitude": 40.2322006225586,
    "regions": [
      "1236"
    ]
  },
  {
    "code": "1ebc6",
    "name": "New Columbia",
    "updated_at": "2014-09-22T21:41:17.728179Z",
    "country": "us",
    "parent": null,
    "longitude": -76.8672027587891,
    "latitude": 41.0407981872559,
    "regions": [
      "1236"
    ]
  },
  {
    "code": "1ebc5",
    "name": "New Castle",
    "updated_at": "2014-09-22T21:41:17.704699Z",
    "country": "us",
    "parent": null,
    "longitude": -80.3471984863281,
    "latitude": 41.0036010742188,
    "regions": [
      "1236"
    ]
  },
  {
    "code": "1ebc4",
    "name": "New Berlinville",
    "updated_at": "2014-09-22T21:41:17.654495Z",
    "country": "us",
    "parent": null,
    "longitude": -75.63330078125,
    "latitude": 40.3452987670898,
    "regions": [
      "1236"
    ]
  },
  {
    "code": "1ebc3",
    "name": "Myerstown",
    "updated_at": "2014-09-22T21:41:17.591524Z",
    "country": "us",
    "parent": null,
    "longitude": -76.3031005859375,
    "latitude": 40.3744010925293,
    "regions": [
      "1236"
    ]
  },
  {
    "code": "1ebc2",
    "name": "Munhall",
    "updated_at": "2014-09-22T21:41:17.550855Z",
    "country": "us",
    "parent": null,
    "longitude": -79.9002990722656,
    "latitude": 40.3922004699707,
    "regions": [
      "1236"
    ]
  },
  {
    "code": "1ebc1",
    "name": "Mountville",
    "updated_at": "2014-09-22T21:41:17.509835Z",
    "country": "us",
    "parent": null,
    "longitude": -76.4310989379883,
    "latitude": 40.0391998291016,
    "regions": [
      "1236"
    ]
  },
  {
    "code": "1ebc0",
    "name": "Mountainhome",
    "updated_at": "2014-09-22T21:41:17.475967Z",
    "country": "us",
    "parent": null,
    "longitude": -75.2714004516602,
    "latitude": 41.1735992431641,
    "regions": [
      "1236"
    ]
  },
  {
    "code": "1ebbf",
    "name": "Mount Pocono",
    "updated_at": "2014-09-22T21:41:17.453009Z",
    "country": "us",
    "parent": null,
    "longitude": -75.3649978637695,
    "latitude": 41.121898651123,
    "regions": [
      "1236"
    ]
  },
  {
    "code": "1ebbe",
    "name": "Mount Pleasant",
    "updated_at": "2014-09-22T21:41:17.429949Z",
    "country": "us",
    "parent": null,
    "longitude": -76.3368988037109,
    "latitude": 40.7106018066406,
    "regions": [
      "1236"
    ]
  },
  {
    "code": "1ebbd",
    "name": "Mount Pleasant",
    "updated_at": "2014-09-22T21:41:17.406416Z",
    "country": "us",
    "parent": null,
    "longitude": -79.5413970947266,
    "latitude": 40.1488990783691,
    "regions": [
      "1236"
    ]
  },
  {
    "code": "1ebbc",
    "name": "Morrisville",
    "updated_at": "2014-09-22T21:41:17.359338Z",
    "country": "us",
    "parent": null,
    "longitude": -74.7882995605469,
    "latitude": 40.2113990783691,
    "regions": [
      "1236"
    ]
  },
  {
    "code": "1ebbb",
    "name": "Morrisville",
    "updated_at": "2014-09-22T21:41:17.330109Z",
    "country": "us",
    "parent": null,
    "longitude": -80.1619033813477,
    "latitude": 39.8946990966797,
    "regions": []
  },
  {
    "code": "1ebba",
    "name": "Morgantown",
    "updated_at": "2014-09-22T21:41:17.275248Z",
    "country": "us",
    "parent": null,
    "longitude": -75.8902969360352,
    "latitude": 40.1549987792969,
    "regions": [
      "1236"
    ]
  },
  {
    "code": "1ebb9",
    "name": "Moosic",
    "updated_at": "2014-09-22T21:41:17.204196Z",
    "country": "us",
    "parent": null,
    "longitude": -75.7386016845703,
    "latitude": 41.3532981872559,
    "regions": [
      "1236"
    ]
  },
  {
    "code": "1ebb8",
    "name": "Moon Run",
    "updated_at": "2014-09-22T21:41:17.143682Z",
    "country": "us",
    "parent": null,
    "longitude": -80.1097030639648,
    "latitude": 40.4530982971191,
    "regions": []
  },
  {
    "code": "1ebb7",
    "name": "Montgomeryville",
    "updated_at": "2014-09-22T21:41:17.059450Z",
    "country": "us",
    "parent": null,
    "longitude": -75.2442016601562,
    "latitude": 40.247200012207,
    "regions": [
      "1236"
    ]
  },
  {
    "code": "1ebb6",
    "name": "Monroeville",
    "updated_at": "2014-09-22T21:41:16.983178Z",
    "country": "us",
    "parent": null,
    "longitude": -79.7882995605469,
    "latitude": 40.4211006164551,
    "regions": [
      "1236"
    ]
  },
  {
    "code": "1ebb5",
    "name": "Monaca",
    "updated_at": "2014-09-22T21:41:16.888641Z",
    "country": "us",
    "parent": null,
    "longitude": -80.2716979980469,
    "latitude": 40.687198638916,
    "regions": [
      "1236"
    ]
  },
  {
    "code": "1ebb4",
    "name": "Mohnton",
    "updated_at": "2014-09-22T21:41:16.823530Z",
    "country": "us",
    "parent": null,
    "longitude": -75.9847030639648,
    "latitude": 40.2858009338379,
    "regions": [
      "1236"
    ]
  },
  {
    "code": "1ebb3",
    "name": "Mill Hall",
    "updated_at": "2014-09-22T21:41:16.746811Z",
    "country": "us",
    "parent": null,
    "longitude": -77.4847030639648,
    "latitude": 41.1072006225586,
    "regions": [
      "1236"
    ]
  },
  {
    "code": "1ebb2",
    "name": "Milford",
    "updated_at": "2014-09-22T21:41:16.662664Z",
    "country": "us",
    "parent": null,
    "longitude": -74.8028030395508,
    "latitude": 41.3222007751465,
    "regions": [
      "1236"
    ]
  },
  {
    "code": "1ebb1",
    "name": "Milesburg",
    "updated_at": "2014-09-22T21:41:16.584181Z",
    "country": "us",
    "parent": null,
    "longitude": -77.7853012084961,
    "latitude": 40.9416999816895,
    "regions": [
      "1236"
    ]
  },
  {
    "code": "1ebb0",
    "name": "Mifflinville",
    "updated_at": "2014-09-22T21:41:16.469881Z",
    "country": "us",
    "parent": null,
    "longitude": -76.3082962036133,
    "latitude": 41.0321998596191,
    "regions": [
      "1236"
    ]
  },
  {
    "code": "1ebaf",
    "name": "Mifflintown",
    "updated_at": "2014-09-22T21:41:16.389135Z",
    "country": "us",
    "parent": null,
    "longitude": -77.3972015380859,
    "latitude": 40.5696983337402,
    "regions": [
      "1236"
    ]
  },
  {
    "code": "1ebae",
    "name": "Mercer",
    "updated_at": "2014-09-22T21:41:16.316369Z",
    "country": "us",
    "parent": null,
    "longitude": -80.2399978637695,
    "latitude": 41.2268981933594,
    "regions": [
      "1236"
    ]
  },
  {
    "code": "1ebad",
    "name": "Mendenhall",
    "updated_at": "2014-09-22T21:41:16.235462Z",
    "country": "us",
    "parent": null,
    "longitude": -75.6417007446289,
    "latitude": 39.8539009094238,
    "regions": [
      "1236"
    ]
  },
  {
    "code": "1ebac",
    "name": "Media",
    "updated_at": "2014-09-22T21:41:16.161857Z",
    "country": "us",
    "parent": null,
    "longitude": -75.3880996704102,
    "latitude": 39.9166984558105,
    "regions": [
      "1236"
    ]
  },
  {
    "code": "1ebab",
    "name": "Mechanicsburg",
    "updated_at": "2014-09-22T21:41:16.137479Z",
    "country": "us",
    "parent": null,
    "longitude": -77.008903503418,
    "latitude": 40.2141990661621,
    "regions": [
      "1236"
    ]
  },
  {
    "code": "1ebaa",
    "name": "Meadville",
    "updated_at": "2014-09-22T21:41:16.115110Z",
    "country": "us",
    "parent": null,
    "longitude": -80.1517028808594,
    "latitude": 41.6413993835449,
    "regions": [
      "1236"
    ]
  },
  {
    "code": "1eba9",
    "name": "Meadow Lands",
    "updated_at": "2014-09-22T21:41:16.089252Z",
    "country": "us",
    "parent": null,
    "longitude": -80.2208023071289,
    "latitude": 40.2192001342773,
    "regions": [
      "1236"
    ]
  },
  {
    "code": "1eba8",
    "name": "Matamoras",
    "updated_at": "2014-09-22T21:41:16.055301Z",
    "country": "us",
    "parent": null,
    "longitude": -74.7005996704102,
    "latitude": 41.3685989379883,
    "regions": [
      "1236"
    ]
  },
  {
    "code": "1eba7",
    "name": "Marshalls Creek",
    "updated_at": "2014-09-22T21:41:16.022788Z",
    "country": "us",
    "parent": null,
    "longitude": -75.127799987793,
    "latitude": 41.043098449707,
    "regions": [
      "1236"
    ]
  },
  {
    "code": "1eba6",
    "name": "Marietta",
    "updated_at": "2014-09-22T21:41:15.947502Z",
    "country": "us",
    "parent": null,
    "longitude": -76.5524978637695,
    "latitude": 40.0569000244141,
    "regions": [
      "1236"
    ]
  },
  {
    "code": "1eba5",
    "name": "Mansville",
    "updated_at": "2014-09-22T21:41:15.884987Z",
    "country": "us",
    "parent": null,
    "longitude": -79.3255996704102,
    "latitude": 40.1775016784668,
    "regions": [
      "1236"
    ]
  },
  {
    "code": "1eba4",
    "name": "Mansfield",
    "updated_at": "2014-09-22T21:41:15.859049Z",
    "country": "us",
    "parent": null,
    "longitude": -77.0777969360352,
    "latitude": 41.807201385498,
    "regions": [
      "1236"
    ]
  },
  {
    "code": "1eba3",
    "name": "Manheim",
    "updated_at": "2014-09-22T21:41:15.834029Z",
    "country": "us",
    "parent": null,
    "longitude": -76.3953018188477,
    "latitude": 40.1632995605469,
    "regions": [
      "1236"
    ]
  },
  {
    "code": "1eba2",
    "name": "Malvern",
    "updated_at": "2014-09-22T21:41:15.809021Z",
    "country": "us",
    "parent": null,
    "longitude": -75.5141983032227,
    "latitude": 40.0360984802246,
    "regions": [
      "1236"
    ]
  },
  {
    "code": "1eba1",
    "name": "Mahanoy City",
    "updated_at": "2014-09-22T21:41:15.784534Z",
    "country": "us",
    "parent": null,
    "longitude": -76.1418991088867,
    "latitude": 40.8125,
    "regions": [
      "1236"
    ]
  },
  {
    "code": "1eba0",
    "name": "Lock Haven",
    "updated_at": "2014-09-22T21:41:15.758924Z",
    "country": "us",
    "parent": null,
    "longitude": -77.4471969604492,
    "latitude": 41.1369018554688,
    "regions": [
      "1236"
    ]
  },
  {
    "code": "1eb9f",
    "name": "Lititz",
    "updated_at": "2014-09-22T21:41:15.724423Z",
    "country": "us",
    "parent": null,
    "longitude": -76.3071975708008,
    "latitude": 40.1571998596191,
    "regions": [
      "1236"
    ]
  },
  {
    "code": "1eb9e",
    "name": "Limerick",
    "updated_at": "2014-09-22T21:41:15.694356Z",
    "country": "us",
    "parent": null,
    "longitude": -75.5224990844727,
    "latitude": 40.2308006286621,
    "regions": [
      "1236"
    ]
  },
  {
    "code": "1eb9d",
    "name": "Lime Ridge",
    "updated_at": "2014-09-22T21:41:15.660333Z",
    "country": "us",
    "parent": null,
    "longitude": -76.3396987915039,
    "latitude": 41.0278015136719,
    "regions": [
      "1236"
    ]
  },
  {
    "code": "1eb9c",
    "name": "Liebys Trailer Park",
    "updated_at": "2014-09-22T21:41:15.587484Z",
    "country": "us",
    "parent": null,
    "longitude": -77.1033020019531,
    "latitude": 40.2289009094238,
    "regions": [
      "1236"
    ]
  },
  {
    "code": "1eb9b",
    "name": "Lickdale",
    "updated_at": "2014-09-22T21:41:15.564509Z",
    "country": "us",
    "parent": null,
    "longitude": -76.5121994018555,
    "latitude": 40.4500007629395,
    "regions": [
      "1236"
    ]
  },
  {
    "code": "1eb9a",
    "name": "Lewisburg",
    "updated_at": "2014-09-22T21:41:15.541818Z",
    "country": "us",
    "parent": null,
    "longitude": -76.8846969604492,
    "latitude": 40.9644012451172,
    "regions": [
      "1236"
    ]
  },
  {
    "code": "1eb99",
    "name": "Levittown",
    "updated_at": "2014-09-22T21:41:15.518959Z",
    "country": "us",
    "parent": null,
    "longitude": -74.8292007446289,
    "latitude": 40.1549987792969,
    "regions": [
      "1236"
    ]
  },
  {
    "code": "1eb98",
    "name": "Lester",
    "updated_at": "2014-09-22T21:41:15.495913Z",
    "country": "us",
    "parent": null,
    "longitude": -75.2830963134766,
    "latitude": 39.8708000183105,
    "regions": [
      "1236"
    ]
  },
  {
    "code": "1eb97",
    "name": "Lehighton",
    "updated_at": "2014-09-22T21:41:15.472983Z",
    "country": "us",
    "parent": null,
    "longitude": -75.7142028808594,
    "latitude": 40.8335990905762,
    "regions": [
      "1236"
    ]
  },
  {
    "code": "1eb96",
    "name": "Lebanon",
    "updated_at": "2014-09-22T21:41:15.444853Z",
    "country": "us",
    "parent": null,
    "longitude": -76.4116973876953,
    "latitude": 40.3408012390137,
    "regions": [
      "1236"
    ]
  },
  {
    "code": "1eb95",
    "name": "Latrobe",
    "updated_at": "2014-09-22T21:41:15.411177Z",
    "country": "us",
    "parent": null,
    "longitude": -79.3796997070312,
    "latitude": 40.3210983276367,
    "regions": [
      "1236"
    ]
  },
  {
    "code": "1eb94",
    "name": "Lansdale",
    "updated_at": "2014-09-22T21:41:15.377214Z",
    "country": "us",
    "parent": null,
    "longitude": -75.2842025756836,
    "latitude": 40.2414016723633,
    "regions": [
      "1236"
    ]
  },
  {
    "code": "1eb93",
    "name": "Langhorne",
    "updated_at": "2014-09-22T21:41:15.336739Z",
    "country": "us",
    "parent": null,
    "longitude": -74.9231033325195,
    "latitude": 40.1744003295898,
    "regions": [
      "1236"
    ]
  },
  {
    "code": "1eb92",
    "name": "Lancaster",
    "updated_at": "2014-09-22T21:41:15.297960Z",
    "country": "us",
    "parent": null,
    "longitude": -76.3058013916016,
    "latitude": 40.0377998352051,
    "regions": [
      "1236"
    ]
  },
  {
    "code": "1eb91",
    "name": "Lakeville",
    "updated_at": "2014-09-22T21:41:15.262766Z",
    "country": "us",
    "parent": null,
    "longitude": -75.2769012451172,
    "latitude": 41.4380989074707,
    "regions": [
      "1236"
    ]
  },
  {
    "code": "1eb90",
    "name": "Lake Harmony",
    "updated_at": "2014-09-22T21:41:15.239876Z",
    "country": "us",
    "parent": null,
    "longitude": -75.5914001464844,
    "latitude": 41.0606002807617,
    "regions": [
      "1236"
    ]
  },
  {
    "code": "1eb8f",
    "name": "Lake Ariel",
    "updated_at": "2014-09-22T21:41:15.217501Z",
    "country": "us",
    "parent": null,
    "longitude": -75.3831024169922,
    "latitude": 41.4538993835449,
    "regions": [
      "1236"
    ]
  },
  {
    "code": "1eb8e",
    "name": "Kutztown",
    "updated_at": "2014-09-22T21:41:15.194602Z",
    "country": "us",
    "parent": null,
    "longitude": -75.7778015136719,
    "latitude": 40.5172004699707,
    "regions": [
      "1236"
    ]
  },
  {
    "code": "1eb8d",
    "name": "Kulpsville",
    "updated_at": "2014-09-22T21:41:15.170309Z",
    "country": "us",
    "parent": null,
    "longitude": -75.3368988037109,
    "latitude": 40.2428016662598,
    "regions": [
      "1236"
    ]
  },
  {
    "code": "1eb8c",
    "name": "Kittanning",
    "updated_at": "2014-09-22T21:41:15.145767Z",
    "country": "us",
    "parent": null,
    "longitude": -79.5222015380859,
    "latitude": 40.8163986206055,
    "regions": [
      "1236"
    ]
  },
  {
    "code": "1eb8b",
    "name": "King of Prussia",
    "updated_at": "2014-09-22T21:41:15.115835Z",
    "country": "us",
    "parent": null,
    "longitude": -75.3964004516602,
    "latitude": 40.0891990661621,
    "regions": [
      "1236"
    ]
  },
  {
    "code": "1eb8a",
    "name": "Kennett Square",
    "updated_at": "2014-09-22T21:41:15.085964Z",
    "country": "us",
    "parent": null,
    "longitude": -75.7118988037109,
    "latitude": 39.8466987609863,
    "regions": [
      "1236"
    ]
  },
  {
    "code": "1eb89",
    "name": "Kearsarge",
    "updated_at": "2014-09-22T21:41:15.054006Z",
    "country": "us",
    "parent": null,
    "longitude": -80.0931015014648,
    "latitude": 42.0657997131348,
    "regions": [
      "1236"
    ]
  },
  {
    "code": "1eb88",
    "name": "Jonestown",
    "updated_at": "2014-09-22T21:41:15.013133Z",
    "country": "us",
    "parent": null,
    "longitude": -76.4785995483398,
    "latitude": 40.4136009216309,
    "regions": [
      "1236"
    ]
  },
  {
    "code": "1eb87",
    "name": "Johnstown",
    "updated_at": "2014-09-22T21:41:14.973958Z",
    "country": "us",
    "parent": null,
    "longitude": -78.9222030639648,
    "latitude": 40.3266983032227,
    "regions": [
      "1236"
    ]
  },
  {
    "code": "1eb86",
    "name": "Jim Thorpe",
    "updated_at": "2014-09-22T21:41:14.946156Z",
    "country": "us",
    "parent": null,
    "longitude": -75.7328033447266,
    "latitude": 40.8758010864258,
    "regions": [
      "1236"
    ]
  },
  {
    "code": "1eb85",
    "name": "Irwin",
    "updated_at": "2014-09-22T21:41:14.923348Z",
    "country": "us",
    "parent": null,
    "longitude": -79.7014007568359,
    "latitude": 40.3244018554688,
    "regions": [
      "1236"
    ]
  },
  {
    "code": "1eb84",
    "name": "Intercourse",
    "updated_at": "2014-09-22T21:41:14.900423Z",
    "country": "us",
    "parent": null,
    "longitude": -76.1053009033203,
    "latitude": 40.0374984741211,
    "regions": [
      "1236"
    ]
  },
  {
    "code": "1eb83",
    "name": "Indiana",
    "updated_at": "2014-09-22T21:41:14.877574Z",
    "country": "us",
    "parent": null,
    "longitude": -79.1528015136719,
    "latitude": 40.6213989257812,
    "regions": [
      "1236"
    ]
  },
  {
    "code": "1eb82",
    "name": "Imperial",
    "updated_at": "2014-09-22T21:41:14.854205Z",
    "country": "us",
    "parent": null,
    "longitude": -80.2446975708008,
    "latitude": 40.4494018554688,
    "regions": [
      "1236"
    ]
  },
  {
    "code": "1eb81",
    "name": "Huntingdon",
    "updated_at": "2014-09-22T21:41:14.829466Z",
    "country": "us",
    "parent": null,
    "longitude": -78.0105972290039,
    "latitude": 40.4846992492676,
    "regions": [
      "1236"
    ]
  },
  {
    "code": "1eb80",
    "name": "Hummelstown",
    "updated_at": "2014-09-22T21:41:14.799635Z",
    "country": "us",
    "parent": null,
    "longitude": -76.7086029052734,
    "latitude": 40.2653007507324,
    "regions": [
      "1236"
    ]
  },
  {
    "code": "1eb7f",
    "name": "Horsham",
    "updated_at": "2014-09-22T21:41:14.769481Z",
    "country": "us",
    "parent": null,
    "longitude": -75.1288986206055,
    "latitude": 40.1782989501953,
    "regions": [
      "1236"
    ]
  },
  {
    "code": "1eb7e",
    "name": "Honey Brook",
    "updated_at": "2014-09-22T21:41:14.736635Z",
    "country": "us",
    "parent": null,
    "longitude": -75.9116973876953,
    "latitude": 40.0942001342773,
    "regions": [
      "1236"
    ]
  },
  {
    "code": "1eb7d",
    "name": "Honesdale",
    "updated_at": "2014-09-22T21:41:14.699744Z",
    "country": "us",
    "parent": null,
    "longitude": -75.2592010498047,
    "latitude": 41.5766983032227,
    "regions": [
      "1236"
    ]
  },
  {
    "code": "1eb7c",
    "name": "Homestead",
    "updated_at": "2014-09-22T21:41:14.660552Z",
    "country": "us",
    "parent": null,
    "longitude": -79.9122009277344,
    "latitude": 40.4057998657227,
    "regions": [
      "1236"
    ]
  },
  {
    "code": "1eb7b",
    "name": "Hershey",
    "updated_at": "2014-09-22T21:41:14.610488Z",
    "country": "us",
    "parent": null,
    "longitude": -76.654296875,
    "latitude": 40.2816009521484,
    "regions": [
      "1236"
    ]
  },
  {
    "code": "1eb7a",
    "name": "Hermitage",
    "updated_at": "2014-09-22T21:41:14.587959Z",
    "country": "us",
    "parent": null,
    "longitude": -80.4488983154297,
    "latitude": 41.2332992553711,
    "regions": [
      "1236"
    ]
  },
  {
    "code": "1eb79",
    "name": "Hazleton",
    "updated_at": "2014-09-22T21:41:14.565587Z",
    "country": "us",
    "parent": null,
    "longitude": -75.9749984741211,
    "latitude": 40.9583015441895,
    "regions": [
      "1236"
    ]
  },
  {
    "code": "1eb78",
    "name": "Hawley",
    "updated_at": "2014-09-22T21:41:14.542644Z",
    "country": "us",
    "parent": null,
    "longitude": -75.182502746582,
    "latitude": 41.4757995605469,
    "regions": [
      "1236"
    ]
  },
  {
    "code": "1eb77",
    "name": "Harrisburg",
    "updated_at": "2014-09-22T21:41:14.519762Z",
    "country": "us",
    "parent": null,
    "longitude": -76.8846969604492,
    "latitude": 40.2736015319824,
    "regions": [
      "1236"
    ]
  },
  {
    "code": "1eb76",
    "name": "Harmarville",
    "updated_at": "2014-09-22T21:41:14.486380Z",
    "country": "us",
    "parent": null,
    "longitude": -79.8486022949219,
    "latitude": 40.5311012268066,
    "regions": [
      "1236"
    ]
  },
  {
    "code": "1eb75",
    "name": "Hanover",
    "updated_at": "2014-09-22T21:41:14.459379Z",
    "country": "us",
    "parent": null,
    "longitude": -76.9832992553711,
    "latitude": 39.8005981445312,
    "regions": [
      "1236"
    ]
  },
  {
    "code": "1eb74",
    "name": "Grove City",
    "updated_at": "2014-09-22T21:41:14.433520Z",
    "country": "us",
    "parent": null,
    "longitude": -80.0888977050781,
    "latitude": 41.1577987670898,
    "regions": [
      "1236"
    ]
  },
  {
    "code": "1eb73",
    "name": "Greensburg",
    "updated_at": "2014-09-22T21:41:14.404479Z",
    "country": "us",
    "parent": null,
    "longitude": -79.5391998291016,
    "latitude": 40.301399230957,
    "regions": [
      "1236"
    ]
  },
  {
    "code": "1eb72",
    "name": "Greencastle",
    "updated_at": "2014-09-22T21:41:14.368638Z",
    "country": "us",
    "parent": null,
    "longitude": -77.7281036376953,
    "latitude": 39.7902984619141,
    "regions": [
      "1236"
    ]
  },
  {
    "code": "1eb71",
    "name": "Grantville",
    "updated_at": "2014-09-22T21:41:14.333561Z",
    "country": "us",
    "parent": null,
    "longitude": -76.6443023681641,
    "latitude": 40.3749008178711,
    "regions": [
      "1236"
    ]
  },
  {
    "code": "1eb70",
    "name": "Glen Mills",
    "updated_at": "2014-09-22T21:41:14.308067Z",
    "country": "us",
    "parent": null,
    "longitude": -75.4918975830078,
    "latitude": 39.9192008972168,
    "regions": [
      "1236"
    ]
  },
  {
    "code": "1eb6f",
    "name": "Gibsonia",
    "updated_at": "2014-09-22T21:41:14.286167Z",
    "country": "us",
    "parent": null,
    "longitude": -79.9697036743164,
    "latitude": 40.6300010681152,
    "regions": [
      "1236"
    ]
  },
  {
    "code": "1eb6e",
    "name": "Gettysburg",
    "updated_at": "2014-09-22T21:41:14.264042Z",
    "country": "us",
    "parent": null,
    "longitude": -77.2313995361328,
    "latitude": 39.8307991027832,
    "regions": [
      "1236"
    ]
  },
  {
    "code": "1eb6d",
    "name": "Geistown",
    "updated_at": "2014-09-22T21:41:14.241658Z",
    "country": "us",
    "parent": null,
    "longitude": -78.8692016601562,
    "latitude": 40.2907981872559,
    "regions": [
      "1236"
    ]
  },
  {
    "code": "1eb6c",
    "name": "Frazer",
    "updated_at": "2014-09-22T21:41:14.219398Z",
    "country": "us",
    "parent": null,
    "longitude": -75.556396484375,
    "latitude": 40.0321998596191,
    "regions": [
      "1236"
    ]
  },
  {
    "code": "1eb6b",
    "name": "Franklin",
    "updated_at": "2014-09-22T21:41:14.197185Z",
    "country": "us",
    "parent": null,
    "longitude": -79.8317031860352,
    "latitude": 41.3978004455566,
    "regions": [
      "1236"
    ]
  },
  {
    "code": "1eb6a",
    "name": "Frackville",
    "updated_at": "2014-09-22T21:41:14.175079Z",
    "country": "us",
    "parent": null,
    "longitude": -76.230598449707,
    "latitude": 40.7839012145996,
    "regions": [
      "1236"
    ]
  },
  {
    "code": "1eb69",
    "name": "Fort Washington",
    "updated_at": "2014-09-22T21:41:14.152629Z",
    "country": "us",
    "parent": null,
    "longitude": -75.1854019165039,
    "latitude": 40.1374015808105,
    "regions": [
      "1236"
    ]
  },
  {
    "code": "1eb68",
    "name": "Ford City",
    "updated_at": "2014-09-22T21:41:14.126997Z",
    "country": "us",
    "parent": null,
    "longitude": -79.5299987792969,
    "latitude": 40.7722015380859,
    "regions": [
      "1236"
    ]
  },
  {
    "code": "1eb67",
    "name": "Fogelsville",
    "updated_at": "2014-09-22T21:41:14.103677Z",
    "country": "us",
    "parent": null,
    "longitude": -75.6331024169922,
    "latitude": 40.5830993652344,
    "regions": [
      "1236"
    ]
  },
  {
    "code": "1eb66",
    "name": "Fertility",
    "updated_at": "2014-09-22T21:41:14.082399Z",
    "country": "us",
    "parent": null,
    "longitude": -76.2433013916016,
    "latitude": 40.0269012451172,
    "regions": [
      "1236"
    ]
  },
  {
    "code": "1eb65",
    "name": "Feasterville",
    "updated_at": "2014-09-22T21:41:14.052091Z",
    "country": "us",
    "parent": null,
    "longitude": -75.0055999755859,
    "latitude": 40.1439018249512,
    "regions": [
      "1236"
    ]
  },
  {
    "code": "1eb64",
    "name": "Fayetteville",
    "updated_at": "2014-09-22T21:41:14.022996Z",
    "country": "us",
    "parent": null,
    "longitude": -77.5503005981445,
    "latitude": 39.9110984802246,
    "regions": [
      "1236"
    ]
  },
  {
    "code": "1eb63",
    "name": "Farmington",
    "updated_at": "2014-09-22T21:41:13.995420Z",
    "country": "us",
    "parent": null,
    "longitude": -79.565803527832,
    "latitude": 39.807201385498,
    "regions": [
      "1236"
    ]
  },
  {
    "code": "1eb62",
    "name": "Fairview",
    "updated_at": "2014-09-22T21:41:13.972102Z",
    "country": "us",
    "parent": null,
    "longitude": -80.2555999755859,
    "latitude": 42.0313987731934,
    "regions": [
      "1236"
    ]
  },
  {
    "code": "1eb61",
    "name": "Fairfield",
    "updated_at": "2014-09-22T21:41:13.950758Z",
    "country": "us",
    "parent": null,
    "longitude": -77.368896484375,
    "latitude": 39.7872009277344,
    "regions": [
      "1236"
    ]
  },
  {
    "code": "1eb60",
    "name": "Exton",
    "updated_at": "2014-09-22T21:41:13.929588Z",
    "country": "us",
    "parent": null,
    "longitude": -75.6211013793945,
    "latitude": 40.0289001464844,
    "regions": [
      "1236"
    ]
  },
  {
    "code": "1eb5f",
    "name": "Essington",
    "updated_at": "2014-09-22T21:41:13.884943Z",
    "country": "us",
    "parent": null,
    "longitude": -75.2975006103516,
    "latitude": 39.8619003295898,
    "regions": [
      "1236"
    ]
  },
  {
    "code": "1eb5e",
    "name": "Erie",
    "updated_at": "2014-09-22T21:41:13.862857Z",
    "country": "us",
    "parent": null,
    "longitude": -80.0796890258789,
    "latitude": 42.1214408874512,
    "regions": [
      "1236"
    ]
  },
  {
    "code": "1eb5d",
    "name": "Ephrata",
    "updated_at": "2014-09-22T21:41:13.840411Z",
    "country": "us",
    "parent": null,
    "longitude": -76.17919921875,
    "latitude": 40.1796989440918,
    "regions": [
      "1236"
    ]
  },
  {
    "code": "1eb5c",
    "name": "Enola",
    "updated_at": "2014-09-22T21:41:13.819435Z",
    "country": "us",
    "parent": null,
    "longitude": -76.934196472168,
    "latitude": 40.2900009155273,
    "regions": [
      "1236"
    ]
  },
  {
    "code": "1eb5b",
    "name": "Elizabethtown",
    "updated_at": "2014-09-22T21:41:13.798442Z",
    "country": "us",
    "parent": null,
    "longitude": -76.6031036376953,
    "latitude": 40.1528015136719,
    "regions": [
      "1236"
    ]
  },
  {
    "code": "1eb5a",
    "name": "Edinboro",
    "updated_at": "2014-09-22T21:41:13.776772Z",
    "country": "us",
    "parent": null,
    "longitude": -80.1318969726562,
    "latitude": 41.8741989135742,
    "regions": [
      "1236"
    ]
  },
  {
    "code": "1eb59",
    "name": "Ebensburg",
    "updated_at": "2014-09-22T21:41:13.754641Z",
    "country": "us",
    "parent": null,
    "longitude": -78.7249984741211,
    "latitude": 40.4850006103516,
    "regions": [
      "1236"
    ]
  },
  {
    "code": "1eb58",
    "name": "Eastwick",
    "updated_at": "2014-09-22T21:41:13.733604Z",
    "country": "us",
    "parent": null,
    "longitude": -75.2427978515625,
    "latitude": 39.8903007507324,
    "regions": [
      "1236"
    ]
  },
  {
    "code": "1eb57",
    "name": "East Stroudsburg",
    "updated_at": "2014-09-22T21:41:13.708998Z",
    "country": "us",
    "parent": null,
    "longitude": -75.1817016601562,
    "latitude": 40.9994010925293,
    "regions": [
      "1236"
    ]
  },
  {
    "code": "1eb56",
    "name": "Eagles Mere",
    "updated_at": "2014-09-22T21:41:13.687560Z",
    "country": "us",
    "parent": null,
    "longitude": -76.5821990966797,
    "latitude": 41.4108009338379,
    "regions": [
      "1236"
    ]
  },
  {
    "code": "1eb55",
    "name": "Dushore",
    "updated_at": "2014-09-22T21:41:13.658669Z",
    "country": "us",
    "parent": null,
    "longitude": -76.4011001586914,
    "latitude": 41.5242004394531,
    "regions": [
      "1236"
    ]
  },
  {
    "code": "1eb54",
    "name": "Dunmore",
    "updated_at": "2014-09-22T21:41:13.632169Z",
    "country": "us",
    "parent": null,
    "longitude": -75.6327972412109,
    "latitude": 41.4197006225586,
    "regions": [
      "1236"
    ]
  },
  {
    "code": "1eb53",
    "name": "Duncansville",
    "updated_at": "2014-09-22T21:41:13.605580Z",
    "country": "us",
    "parent": null,
    "longitude": -78.434196472168,
    "latitude": 40.4233016967773,
    "regions": [
      "1236"
    ]
  },
  {
    "code": "1eb52",
    "name": "Duncannon",
    "updated_at": "2014-09-22T21:41:13.584646Z",
    "country": "us",
    "parent": null,
    "longitude": -77.0233001708984,
    "latitude": 40.3981018066406,
    "regions": [
      "1236"
    ]
  },
  {
    "code": "1eb51",
    "name": "Du Bois",
    "updated_at": "2014-09-22T21:41:13.563713Z",
    "country": "us",
    "parent": null,
    "longitude": -78.7602996826172,
    "latitude": 41.1192016601562,
    "regions": [
      "1236"
    ]
  },
  {
    "code": "1eb50",
    "name": "Drytown",
    "updated_at": "2014-09-22T21:41:13.542516Z",
    "country": "us",
    "parent": null,
    "longitude": -77.1417007446289,
    "latitude": 40.2200012207031,
    "regions": [
      "1236"
    ]
  },
  {
    "code": "1eb4f",
    "name": "Drums",
    "updated_at": "2014-09-22T21:41:13.520435Z",
    "country": "us",
    "parent": null,
    "longitude": -75.9953002929688,
    "latitude": 41.0181007385254,
    "regions": [
      "1236"
    ]
  },
  {
    "code": "1eb4e",
    "name": "Doylestown",
    "updated_at": "2014-09-22T21:41:13.499494Z",
    "country": "us",
    "parent": null,
    "longitude": -75.1303024291992,
    "latitude": 40.310001373291,
    "regions": [
      "1236"
    ]
  },
  {
    "code": "1eb4d",
    "name": "Douglassville",
    "updated_at": "2014-09-22T21:41:13.478138Z",
    "country": "us",
    "parent": null,
    "longitude": -75.7266998291016,
    "latitude": 40.2578010559082,
    "regions": [
      "1236"
    ]
  },
  {
    "code": "1eb4c",
    "name": "Donegal",
    "updated_at": "2014-09-22T21:41:13.457195Z",
    "country": "us",
    "parent": null,
    "longitude": -79.3827972412109,
    "latitude": 40.1124992370605,
    "regions": [
      "1236"
    ]
  },
  {
    "code": "1eb4b",
    "name": "Dilworthtown",
    "updated_at": "2014-09-22T21:41:13.435849Z",
    "country": "us",
    "parent": null,
    "longitude": -75.567497253418,
    "latitude": 39.8992004394531,
    "regions": [
      "1236"
    ]
  },
  {
    "code": "1eb4a",
    "name": "Dickson City",
    "updated_at": "2014-09-22T21:41:13.387380Z",
    "country": "us",
    "parent": null,
    "longitude": -75.6081008911133,
    "latitude": 41.4714012145996,
    "regions": [
      "1236"
    ]
  },
  {
    "code": "1eb49",
    "name": "Denver",
    "updated_at": "2014-09-22T21:41:13.362922Z",
    "country": "us",
    "parent": null,
    "longitude": -76.1374969482422,
    "latitude": 40.2331008911133,
    "regions": [
      "1236"
    ]
  },
  {
    "code": "1eb48",
    "name": "Delmont",
    "updated_at": "2014-09-22T21:41:13.341909Z",
    "country": "us",
    "parent": null,
    "longitude": -79.5706024169922,
    "latitude": 40.4131011962891,
    "regions": [
      "1236"
    ]
  },
  {
    "code": "1eb47",
    "name": "Delaware Water Gap",
    "updated_at": "2014-09-22T21:41:13.316380Z",
    "country": "us",
    "parent": null,
    "longitude": -75.1433029174805,
    "latitude": 40.9791984558105,
    "regions": [
      "1236"
    ]
  },
  {
    "code": "1eb46",
    "name": "Danville",
    "updated_at": "2014-09-22T21:41:13.287926Z",
    "country": "us",
    "parent": null,
    "longitude": -76.6130981445312,
    "latitude": 40.9632987976074,
    "regions": [
      "1236"
    ]
  },
  {
    "code": "1eb45",
    "name": "Cresco",
    "updated_at": "2014-09-22T21:41:13.264534Z",
    "country": "us",
    "parent": null,
    "longitude": -75.2807998657227,
    "latitude": 41.1539001464844,
    "regions": [
      "1236"
    ]
  },
  {
    "code": "1eb44",
    "name": "Coraopolis",
    "updated_at": "2014-09-22T21:41:13.206431Z",
    "country": "us",
    "parent": null,
    "longitude": -80.1669006347656,
    "latitude": 40.5182991027832,
    "regions": [
      "1236"
    ]
  },
  {
    "code": "1eb43",
    "name": "Conshohocken",
    "updated_at": "2014-09-22T21:41:13.158350Z",
    "country": "us",
    "parent": null,
    "longitude": -75.3019027709961,
    "latitude": 40.0792007446289,
    "regions": [
      "1236"
    ]
  },
  {
    "code": "1eb42",
    "name": "Concordville",
    "updated_at": "2014-09-22T21:41:13.136739Z",
    "country": "us",
    "parent": null,
    "longitude": -75.5205993652344,
    "latitude": 39.8849983215332,
    "regions": [
      "1236"
    ]
  },
  {
    "code": "1eb41",
    "name": "Columbia",
    "updated_at": "2014-09-22T21:41:13.114897Z",
    "country": "us",
    "parent": null,
    "longitude": -76.5046997070312,
    "latitude": 40.0335998535156,
    "regions": [
      "1236"
    ]
  },
  {
    "code": "1eb40",
    "name": "Collegeville",
    "updated_at": "2014-09-22T21:41:13.092315Z",
    "country": "us",
    "parent": null,
    "longitude": -75.4518966674805,
    "latitude": 40.1856002807617,
    "regions": [
      "1236"
    ]
  },
  {
    "code": "1eb3f",
    "name": "Coatesville",
    "updated_at": "2014-09-22T21:41:13.069926Z",
    "country": "us",
    "parent": null,
    "longitude": -75.8242034912109,
    "latitude": 39.9831008911133,
    "regions": [
      "1236"
    ]
  },
  {
    "code": "1eb3e",
    "name": "Clintondale",
    "updated_at": "2014-09-22T21:41:13.044622Z",
    "country": "us",
    "parent": null,
    "longitude": -77.5211029052734,
    "latitude": 41.0172004699707,
    "regions": [
      "1236"
    ]
  },
  {
    "code": "1eb3d",
    "name": "Clinton",
    "updated_at": "2014-09-22T21:41:13.016781Z",
    "country": "us",
    "parent": null,
    "longitude": -80.2947006225586,
    "latitude": 40.4893989562988,
    "regions": [
      "1236"
    ]
  },
  {
    "code": "1eb3c",
    "name": "Clearfield",
    "updated_at": "2014-09-22T21:41:12.988823Z",
    "country": "us",
    "parent": null,
    "longitude": -78.4393997192383,
    "latitude": 41.0271987915039,
    "regions": [
      "1236"
    ]
  },
  {
    "code": "1eb3b",
    "name": "Clarks Summit",
    "updated_at": "2014-09-22T21:41:12.959625Z",
    "country": "us",
    "parent": null,
    "longitude": -75.7089004516602,
    "latitude": 41.4886016845703,
    "regions": [
      "1236"
    ]
  },
  {
    "code": "1eb3a",
    "name": "Clarion",
    "updated_at": "2014-09-22T21:41:12.925474Z",
    "country": "us",
    "parent": null,
    "longitude": -79.3855972290039,
    "latitude": 41.2146987915039,
    "regions": [
      "1236"
    ]
  },
  {
    "code": "1eb39",
    "name": "Clairton",
    "updated_at": "2014-09-22T21:41:12.858689Z",
    "country": "us",
    "parent": null,
    "longitude": -79.8818969726562,
    "latitude": 40.2921981811523,
    "regions": [
      "1236"
    ]
  },
  {
    "code": "1eb38",
    "name": "Churchill",
    "updated_at": "2014-09-22T21:41:12.834924Z",
    "country": "us",
    "parent": null,
    "longitude": -79.8432998657227,
    "latitude": 40.4383010864258,
    "regions": [
      "1236"
    ]
  },
  {
    "code": "1eb37",
    "name": "Chester",
    "updated_at": "2014-09-22T21:41:12.766934Z",
    "country": "us",
    "parent": null,
    "longitude": -75.3561019897461,
    "latitude": 39.8493995666504,
    "regions": [
      "1236"
    ]
  },
  {
    "code": "1eb36",
    "name": "Chambersburg",
    "updated_at": "2014-09-22T21:41:12.744152Z",
    "country": "us",
    "parent": null,
    "longitude": -77.6613998413086,
    "latitude": 39.9375,
    "regions": [
      "1236"
    ]
  },
  {
    "code": "1eb35",
    "name": "Chadds Ford",
    "updated_at": "2014-09-22T21:41:12.722816Z",
    "country": "us",
    "parent": null,
    "longitude": -75.5916976928711,
    "latitude": 39.8717002868652,
    "regions": [
      "1236"
    ]
  },
  {
    "code": "1eb34",
    "name": "Carnegie",
    "updated_at": "2014-09-22T21:41:12.699877Z",
    "country": "us",
    "parent": null,
    "longitude": -80.0836029052734,
    "latitude": 40.4085998535156,
    "regions": [
      "1236"
    ]
  },
  {
    "code": "1eb33",
    "name": "Carlisle",
    "updated_at": "2014-09-22T21:41:12.671356Z",
    "country": "us",
    "parent": null,
    "longitude": -77.1892013549805,
    "latitude": 40.2014007568359,
    "regions": [
      "1236"
    ]
  },
  {
    "code": "1eb32",
    "name": "Carbondale",
    "updated_at": "2014-09-22T21:41:12.642783Z",
    "country": "us",
    "parent": null,
    "longitude": -75.502197265625,
    "latitude": 41.573600769043,
    "regions": [
      "1236"
    ]
  },
  {
    "code": "1eb31",
    "name": "Canonsburg",
    "updated_at": "2014-09-22T21:41:12.619469Z",
    "country": "us",
    "parent": null,
    "longitude": -80.1875,
    "latitude": 40.2625007629395,
    "regions": [
      "1236"
    ]
  },
  {
    "code": "1eb30",
    "name": "Canadensis",
    "updated_at": "2014-09-22T21:41:12.595869Z",
    "country": "us",
    "parent": null,
    "longitude": -75.2517013549805,
    "latitude": 41.1918983459473,
    "regions": [
      "1236"
    ]
  },
  {
    "code": "1eb2f",
    "name": "Camp Hill",
    "updated_at": "2014-09-22T21:41:12.571416Z",
    "country": "us",
    "parent": null,
    "longitude": -76.9203033447266,
    "latitude": 40.2397003173828,
    "regions": [
      "1236"
    ]
  },
  {
    "code": "1eb2e",
    "name": "Cambridge Springs",
    "updated_at": "2014-09-22T21:41:12.537460Z",
    "country": "us",
    "parent": null,
    "longitude": -80.0567016601562,
    "latitude": 41.8036003112793,
    "regions": []
  },
  {
    "code": "1eb2d",
    "name": "Butler",
    "updated_at": "2014-09-22T21:41:12.512996Z",
    "country": "us",
    "parent": null,
    "longitude": -79.8955993652344,
    "latitude": 40.8610992431641,
    "regions": [
      "1236"
    ]
  },
  {
    "code": "1eb2c",
    "name": "Bushkill",
    "updated_at": "2014-09-22T21:41:12.486802Z",
    "country": "us",
    "parent": null,
    "longitude": -75.002197265625,
    "latitude": 41.0932998657227,
    "regions": [
      "1236"
    ]
  },
  {
    "code": "1eb2b",
    "name": "Burnham",
    "updated_at": "2014-09-22T21:41:12.459888Z",
    "country": "us",
    "parent": null,
    "longitude": -77.5689010620117,
    "latitude": 40.638599395752,
    "regions": [
      "1236"
    ]
  },
  {
    "code": "1eb2a",
    "name": "Brookville",
    "updated_at": "2014-09-22T21:41:12.437131Z",
    "country": "us",
    "parent": null,
    "longitude": -79.0832977294922,
    "latitude": 41.1610984802246,
    "regions": [
      "1236"
    ]
  },
  {
    "code": "1eb29",
    "name": "Bridgeville",
    "updated_at": "2014-09-22T21:41:12.414514Z",
    "country": "us",
    "parent": null,
    "longitude": -80.1102981567383,
    "latitude": 40.3560981750488,
    "regions": [
      "1236"
    ]
  },
  {
    "code": "1eb28",
    "name": "Breinigsville",
    "updated_at": "2014-09-22T21:41:12.390363Z",
    "country": "us",
    "parent": null,
    "longitude": -75.6316986083984,
    "latitude": 40.5367012023926,
    "regions": [
      "1236"
    ]
  },
  {
    "code": "1eb27",
    "name": "Breezewood",
    "updated_at": "2014-09-22T21:41:12.367500Z",
    "country": "us",
    "parent": null,
    "longitude": -78.238899230957,
    "latitude": 39.9991989135742,
    "regions": [
      "1236"
    ]
  },
  {
    "code": "1eb26",
    "name": "Bradford",
    "updated_at": "2014-09-22T21:41:12.344651Z",
    "country": "us",
    "parent": null,
    "longitude": -78.6442031860352,
    "latitude": 41.9557991027832,
    "regions": [
      "1236"
    ]
  },
  {
    "code": "1eb25",
    "name": "Bloomsburg",
    "updated_at": "2014-09-22T21:41:12.321918Z",
    "country": "us",
    "parent": null,
    "longitude": -76.4552993774414,
    "latitude": 41.0036010742188,
    "regions": [
      "1236"
    ]
  },
  {
    "code": "1eb24",
    "name": "Blairsville",
    "updated_at": "2014-09-22T21:41:12.294091Z",
    "country": "us",
    "parent": null,
    "longitude": -79.261100769043,
    "latitude": 40.4310989379883,
    "regions": [
      "1236"
    ]
  },
  {
    "code": "1eb23",
    "name": "Bird in Hand",
    "updated_at": "2014-09-22T21:41:12.265528Z",
    "country": "us",
    "parent": null,
    "longitude": -76.182502746582,
    "latitude": 40.0386009216309,
    "regions": [
      "1236"
    ]
  },
  {
    "code": "1eb22",
    "name": "Bethlehem",
    "updated_at": "2014-09-22T21:41:12.237884Z",
    "country": "us",
    "parent": null,
    "longitude": -75.3707962036133,
    "latitude": 40.6258010864258,
    "regions": [
      "1236"
    ]
  },
  {
    "code": "1eb21",
    "name": "Berwyn",
    "updated_at": "2014-09-22T21:41:12.174238Z",
    "country": "us",
    "parent": null,
    "longitude": -75.4392013549805,
    "latitude": 40.0447006225586,
    "regions": [
      "1236"
    ]
  },
  {
    "code": "1eb20",
    "name": "Bentleyville",
    "updated_at": "2014-09-22T21:41:12.142714Z",
    "country": "us",
    "parent": null,
    "longitude": -80.0085983276367,
    "latitude": 40.11669921875,
    "regions": [
      "1236"
    ]
  },
  {
    "code": "1eb1f",
    "name": "Bensalem",
    "updated_at": "2014-09-22T21:41:12.113997Z",
    "country": "us",
    "parent": null,
    "longitude": -74.9516983032227,
    "latitude": 40.1044006347656,
    "regions": [
      "1236"
    ]
  },
  {
    "code": "1eb1e",
    "name": "Bellwood",
    "updated_at": "2014-09-22T21:41:12.091023Z",
    "country": "us",
    "parent": null,
    "longitude": -78.3249969482422,
    "latitude": 40.6032981872559,
    "regions": [
      "1236"
    ]
  },
  {
    "code": "1eb1d",
    "name": "Bellefonte",
    "updated_at": "2014-09-22T21:41:12.067441Z",
    "country": "us",
    "parent": null,
    "longitude": -77.7786026000977,
    "latitude": 40.9132995605469,
    "regions": [
      "1236"
    ]
  },
  {
    "code": "1eb1c",
    "name": "Belle Vernon",
    "updated_at": "2014-09-22T21:41:12.044822Z",
    "country": "us",
    "parent": null,
    "longitude": -79.86669921875,
    "latitude": 40.125,
    "regions": [
      "1236"
    ]
  },
  {
    "code": "1eb1b",
    "name": "Bedford",
    "updated_at": "2014-09-22T21:41:12.021714Z",
    "country": "us",
    "parent": null,
    "longitude": -78.5042037963867,
    "latitude": 40.0186004638672,
    "regions": [
      "1236"
    ]
  },
  {
    "code": "1eb1a",
    "name": "Bear Creek Village",
    "updated_at": "2014-09-22T21:41:11.997386Z",
    "country": "us",
    "parent": null,
    "longitude": -75.7566986083984,
    "latitude": 41.1786003112793,
    "regions": [
      "1236"
    ]
  },
  {
    "code": "1eb19",
    "name": "Bartonsville",
    "updated_at": "2014-09-22T21:41:11.974401Z",
    "country": "us",
    "parent": null,
    "longitude": -75.2799987792969,
    "latitude": 41.0050010681152,
    "regions": [
      "1236"
    ]
  },
  {
    "code": "1eb18",
    "name": "Barkeyville",
    "updated_at": "2014-09-22T21:41:11.948884Z",
    "country": "us",
    "parent": null,
    "longitude": -79.9757995605469,
    "latitude": 41.1918983459473,
    "regions": [
      "1236"
    ]
  },
  {
    "code": "1eb17",
    "name": "Bala-Cynwyd",
    "updated_at": "2014-09-22T21:41:11.921801Z",
    "country": "us",
    "parent": null,
    "longitude": -75.2343978881836,
    "latitude": 40.0074996948242,
    "regions": [
      "1236"
    ]
  },
  {
    "code": "1eb16",
    "name": "Audubon",
    "updated_at": "2014-09-22T21:41:11.892501Z",
    "country": "us",
    "parent": null,
    "longitude": -75.4321975708008,
    "latitude": 40.127799987793,
    "regions": [
      "1236"
    ]
  },
  {
    "code": "1eb15",
    "name": "Altoona",
    "updated_at": "2014-09-22T21:41:11.823427Z",
    "country": "us",
    "parent": null,
    "longitude": -78.3949966430664,
    "latitude": 40.5186004638672,
    "regions": [
      "1236"
    ]
  },
  {
    "code": "1eb14",
    "name": "Allentown",
    "updated_at": "2014-09-22T21:41:11.787242Z",
    "country": "us",
    "parent": null,
    "longitude": -75.4906005859375,
    "latitude": 40.6082992553711,
    "regions": [
      "1236"
    ]
  },
  {
    "code": "1eb13",
    "name": "Adrian Furnace",
    "updated_at": "2014-09-22T21:41:11.763729Z",
    "country": "us",
    "parent": null,
    "longitude": -78.7838973999023,
    "latitude": 41.1319007873535,
    "regions": [
      "1236"
    ]
  },
  {
    "code": "1eb12",
    "name": "Abbottstown",
    "updated_at": "2014-09-22T21:41:11.690670Z",
    "country": "us",
    "parent": null,
    "longitude": -76.9850006103516,
    "latitude": 39.8863983154297,
    "regions": [
      "1236"
    ]
  },
  {
    "code": "1eb11",
    "name": "Yachats",
    "updated_at": "2014-09-22T21:41:11.663426Z",
    "country": "us",
    "parent": null,
    "longitude": -124.103996276855,
    "latitude": 44.3114013671875,
    "regions": [
      "12f1"
    ]
  },
  {
    "code": "1eb10",
    "name": "Woodburn",
    "updated_at": "2014-09-22T21:41:11.634233Z",
    "country": "us",
    "parent": null,
    "longitude": -122.853996276855,
    "latitude": 45.1439018249512,
    "regions": [
      "12f1"
    ]
  },
  {
    "code": "1eb0f",
    "name": "Winston",
    "updated_at": "2014-09-22T21:41:11.604248Z",
    "country": "us",
    "parent": null,
    "longitude": -123.411003112793,
    "latitude": 43.122501373291,
    "regions": [
      "12f1"
    ]
  },
  {
    "code": "1eb0e",
    "name": "Wilsonville",
    "updated_at": "2014-09-22T21:41:11.571441Z",
    "country": "us",
    "parent": null,
    "longitude": -122.772003173828,
    "latitude": 45.2999992370605,
    "regions": [
      "12f1"
    ]
  },
  {
    "code": "1eb0d",
    "name": "White City",
    "updated_at": "2014-09-22T21:41:11.537300Z",
    "country": "us",
    "parent": null,
    "longitude": -122.858001708984,
    "latitude": 42.4375,
    "regions": [
      "12f1"
    ]
  },
  {
    "code": "1eb0c",
    "name": "Welches",
    "updated_at": "2014-09-22T21:41:11.507434Z",
    "country": "us",
    "parent": null,
    "longitude": -121.959999084473,
    "latitude": 45.3283004760742,
    "regions": [
      "12f1"
    ]
  },
  {
    "code": "1eb0b",
    "name": "Warrenton",
    "updated_at": "2014-09-22T21:41:11.482952Z",
    "country": "us",
    "parent": null,
    "longitude": -123.922996520996,
    "latitude": 46.1652984619141,
    "regions": [
      "12f1"
    ]
  },
  {
    "code": "1eb0a",
    "name": "Warm Springs",
    "updated_at": "2014-09-22T21:41:11.458743Z",
    "country": "us",
    "parent": null,
    "longitude": -121.264999389648,
    "latitude": 44.763599395752,
    "regions": [
      "12f1"
    ]
  },
  {
    "code": "1eb09",
    "name": "Wallowa",
    "updated_at": "2014-09-22T21:41:11.434251Z",
    "country": "us",
    "parent": null,
    "longitude": -117.527000427246,
    "latitude": 45.5703010559082,
    "regions": [
      "12f1"
    ]
  },
  {
    "code": "1eb08",
    "name": "Umatilla",
    "updated_at": "2014-09-22T21:41:11.384716Z",
    "country": "us",
    "parent": null,
    "longitude": -119.341003417969,
    "latitude": 45.9174995422363,
    "regions": [
      "12f1"
    ]
  },
  {
    "code": "1eb07",
    "name": "Tualatin",
    "updated_at": "2014-09-22T21:41:11.357398Z",
    "country": "us",
    "parent": null,
    "longitude": -122.763000488281,
    "latitude": 45.3842010498047,
    "regions": [
      "12f1"
    ]
  },
  {
    "code": "1eb06",
    "name": "Troutdale",
    "updated_at": "2014-09-22T21:41:11.327987Z",
    "country": "us",
    "parent": null,
    "longitude": -122.386001586914,
    "latitude": 45.5393981933594,
    "regions": [
      "12f1"
    ]
  },
  {
    "code": "1eb05",
    "name": "Tillamook",
    "updated_at": "2014-09-22T21:41:11.296509Z",
    "country": "us",
    "parent": null,
    "longitude": -123.843002319336,
    "latitude": 45.4564018249512,
    "regions": [
      "12f1"
    ]
  },
  {
    "code": "1eb04",
    "name": "Tigard",
    "updated_at": "2014-09-22T21:41:11.260038Z",
    "country": "us",
    "parent": null,
    "longitude": -122.769996643066,
    "latitude": 45.4314002990723,
    "regions": [
      "12f1"
    ]
  },
  {
    "code": "1eb03",
    "name": "The Dalles",
    "updated_at": "2014-09-22T21:41:11.225566Z",
    "country": "us",
    "parent": null,
    "longitude": -121.177001953125,
    "latitude": 45.5946998596191,
    "regions": [
      "12f1"
    ]
  },
  {
    "code": "1eb02",
    "name": "Terminal City",
    "updated_at": "2014-09-22T21:41:11.134885Z",
    "country": "us",
    "parent": null,
    "longitude": -121.809997558594,
    "latitude": 42.2667007446289,
    "regions": [
      "12f1"
    ]
  },
  {
    "code": "1eb01",
    "name": "Tanasbourne",
    "updated_at": "2014-09-22T21:41:11.072660Z",
    "country": "us",
    "parent": null,
    "longitude": -122.863998413086,
    "latitude": 45.5388984680176,
    "regions": [
      "12f1"
    ]
  },
  {
    "code": "1eb00",
    "name": "Sweet Home",
    "updated_at": "2014-09-22T21:41:11.012351Z",
    "country": "us",
    "parent": null,
    "longitude": -122.735000610352,
    "latitude": 44.3978004455566,
    "regions": [
      "12f1"
    ]
  },
  {
    "code": "1eaff",
    "name": "Sutherlin",
    "updated_at": "2014-09-22T21:41:10.957418Z",
    "country": "us",
    "parent": null,
    "longitude": -123.310997009277,
    "latitude": 43.3903007507324,
    "regions": [
      "12f1"
    ]
  },
  {
    "code": "1eafe",
    "name": "Sunriver",
    "updated_at": "2014-09-22T21:41:10.902601Z",
    "country": "us",
    "parent": null,
    "longitude": -121.44100189209,
    "latitude": 43.8819007873535,
    "regions": [
      "12f1"
    ]
  },
  {
    "code": "1eafd",
    "name": "Springfield",
    "updated_at": "2014-09-22T21:41:10.739500Z",
    "country": "us",
    "parent": null,
    "longitude": -123.021003723145,
    "latitude": 44.0463981628418,
    "regions": [
      "12f1"
    ]
  },
  {
    "code": "1eafc",
    "name": "Sisters",
    "updated_at": "2014-09-22T21:41:10.681397Z",
    "country": "us",
    "parent": null,
    "longitude": -121.547996520996,
    "latitude": 44.2910995483398,
    "regions": [
      "12f1"
    ]
  },
  {
    "code": "1eafb",
    "name": "Silverton",
    "updated_at": "2014-09-22T21:41:10.592699Z",
    "country": "us",
    "parent": null,
    "longitude": -122.781997680664,
    "latitude": 45.005298614502,
    "regions": [
      "12f1"
    ]
  },
  {
    "code": "1eafa",
    "name": "Shady Cove",
    "updated_at": "2014-09-22T21:41:10.539018Z",
    "country": "us",
    "parent": null,
    "longitude": -122.810997009277,
    "latitude": 42.6108016967773,
    "regions": [
      "12f1"
    ]
  },
  {
    "code": "1eaf9",
    "name": "Seaside",
    "updated_at": "2014-09-22T21:41:10.512684Z",
    "country": "us",
    "parent": null,
    "longitude": -123.920997619629,
    "latitude": 45.9933013916016,
    "regions": [
      "12f1"
    ]
  },
  {
    "code": "1eaf8",
    "name": "Sandy",
    "updated_at": "2014-09-22T21:41:10.484573Z",
    "country": "us",
    "parent": null,
    "longitude": -122.26000213623,
    "latitude": 45.3974990844727,
    "regions": [
      "12f1"
    ]
  },
  {
    "code": "1eaf7",
    "name": "Salem",
    "updated_at": "2014-09-22T21:41:10.451496Z",
    "country": "us",
    "parent": null,
    "longitude": -123.033996582031,
    "latitude": 44.9430999755859,
    "regions": [
      "12f1"
    ]
  },
  {
    "code": "1eaf6",
    "name": "Saint Helens",
    "updated_at": "2014-09-22T21:41:10.418207Z",
    "country": "us",
    "parent": null,
    "longitude": -122.805000305176,
    "latitude": 45.864200592041,
    "regions": [
      "12f1"
    ]
  },
  {
    "code": "1eaf5",
    "name": "Roseburg",
    "updated_at": "2014-09-22T21:41:10.378189Z",
    "country": "us",
    "parent": null,
    "longitude": -123.341003417969,
    "latitude": 43.2167015075684,
    "regions": [
      "12f1"
    ]
  },
  {
    "code": "1eaf4",
    "name": "Rogue River",
    "updated_at": "2014-09-22T21:41:10.338956Z",
    "country": "us",
    "parent": null,
    "longitude": -123.170997619629,
    "latitude": 42.4361000061035,
    "regions": [
      "12f1"
    ]
  },
  {
    "code": "1eaf3",
    "name": "Rockaway Beach",
    "updated_at": "2014-09-22T21:41:10.302489Z",
    "country": "us",
    "parent": null,
    "longitude": -123.942001342773,
    "latitude": 45.6136016845703,
    "regions": [
      "12f1"
    ]
  },
  {
    "code": "1eaf2",
    "name": "Redmond",
    "updated_at": "2014-09-22T21:41:10.256376Z",
    "country": "us",
    "parent": null,
    "longitude": -121.172996520996,
    "latitude": 44.2728004455566,
    "regions": [
      "12f1"
    ]
  },
  {
    "code": "1eaf1",
    "name": "Prineville",
    "updated_at": "2014-09-22T21:41:10.232825Z",
    "country": "us",
    "parent": null,
    "longitude": -120.833000183105,
    "latitude": 44.2999992370605,
    "regions": [
      "12f1"
    ]
  },
  {
    "code": "1eaf0",
    "name": "Powell Butte",
    "updated_at": "2014-09-22T21:41:10.209172Z",
    "country": "us",
    "parent": null,
    "longitude": -121.015998840332,
    "latitude": 44.2477989196777,
    "regions": [
      "12f1"
    ]
  },
  {
    "code": "1eaef",
    "name": "Portland",
    "updated_at": "2014-09-22T21:41:10.186498Z",
    "country": "us",
    "parent": null,
    "longitude": -122.675003051758,
    "latitude": 45.5236015319824,
    "regions": [
      "12f1"
    ]
  },
  {
    "code": "1eaee",
    "name": "Phoenix",
    "updated_at": "2014-09-22T21:41:10.121362Z",
    "country": "us",
    "parent": null,
    "longitude": -122.817001342773,
    "latitude": 42.2756004333496,
    "regions": [
      "12f1"
    ]
  },
  {
    "code": "1eaed",
    "name": "Philomath",
    "updated_at": "2014-09-22T21:41:10.087556Z",
    "country": "us",
    "parent": null,
    "longitude": -123.365997314453,
    "latitude": 44.5402984619141,
    "regions": [
      "12f1"
    ]
  },
  {
    "code": "1eaec",
    "name": "Pendleton",
    "updated_at": "2014-09-22T21:41:10.047465Z",
    "country": "us",
    "parent": null,
    "longitude": -118.787002563477,
    "latitude": 45.6721992492676,
    "regions": [
      "12f1"
    ]
  },
  {
    "code": "1eaeb",
    "name": "Parkrose",
    "updated_at": "2014-09-22T21:41:10.007140Z",
    "country": "us",
    "parent": null,
    "longitude": -122.55899810791,
    "latitude": 45.559700012207,
    "regions": []
  },
  {
    "code": "1eaea",
    "name": "Pacific City",
    "updated_at": "2014-09-22T21:41:09.974070Z",
    "country": "us",
    "parent": null,
    "longitude": -123.96199798584,
    "latitude": 45.2024993896484,
    "regions": [
      "12f1"
    ]
  },
  {
    "code": "1eae9",
    "name": "Oregon City",
    "updated_at": "2014-09-22T21:41:09.928277Z",
    "country": "us",
    "parent": null,
    "longitude": -122.606002807617,
    "latitude": 45.3574981689453,
    "regions": [
      "12f1"
    ]
  },
  {
    "code": "1eae8",
    "name": "Ontario",
    "updated_at": "2014-09-22T21:41:09.903695Z",
    "country": "us",
    "parent": null,
    "longitude": -116.96199798584,
    "latitude": 44.0266990661621,
    "regions": [
      "12e2",
      "12f1"
    ]
  },