[
  {
    "code": "111b5",
    "name": "Mousehole",
    "updated_at": "2014-09-22T21:08:03.488509Z",
    "country": "gb",
    "parent": null,
    "longitude": -5.53332996368408,
    "latitude": 50.0833015441895,
    "regions": [
      "118b"
    ]
  },
  {
    "code": "111b4",
    "name": "Moy",
    "updated_at": "2014-09-22T21:08:03.452482Z",
    "country": "gb",
    "parent": null,
    "longitude": -6.66666984558105,
    "latitude": 54.4500007629395,
    "regions": [
      "1219"
    ]
  },
  {
    "code": "111b3",
    "name": "Much Birch",
    "updated_at": "2014-09-22T21:08:03.415286Z",
    "country": "gb",
    "parent": null,
    "longitude": -2.71667003631592,
    "latitude": 51.9667015075684,
    "regions": [
      "1209"
    ]
  },
  {
    "code": "111b2",
    "name": "Much Marcle",
    "updated_at": "2014-09-22T21:08:03.347072Z",
    "country": "gb",
    "parent": null,
    "longitude": -2.5,
    "latitude": 52.0,
    "regions": [
      "1209"
    ]
  },
  {
    "code": "111b1",
    "name": "Much Wenlock",
    "updated_at": "2014-09-22T21:08:03.319047Z",
    "country": "gb",
    "parent": null,
    "longitude": -2.55724000930786,
    "latitude": 52.5946998596191,
    "regions": [
      "11ff"
    ]
  },
  {
    "code": "111b0",
    "name": "Muirkirk",
    "updated_at": "2014-09-22T21:08:03.291253Z",
    "country": "gb",
    "parent": null,
    "longitude": -4.05000019073486,
    "latitude": 55.5167007446289,
    "regions": [
      "1212",
      "121e"
    ]
  },
  {
    "code": "111af",
    "name": "Muir of Ord",
    "updated_at": "2014-09-22T21:08:03.261492Z",
    "country": "gb",
    "parent": null,
    "longitude": -4.44999980926514,
    "latitude": 57.5167007446289,
    "regions": [
      "133f"
    ]
  },
  {
    "code": "111ae",
    "name": "Mullion",
    "updated_at": "2014-09-22T21:08:03.195861Z",
    "country": "gb",
    "parent": null,
    "longitude": -5.25,
    "latitude": 50.0167007446289,
    "regions": [
      "118b"
    ]
  },
  {
    "code": "111ad",
    "name": "The Mumbles",
    "updated_at": "2014-09-22T21:08:03.176959Z",
    "country": "gb",
    "parent": null,
    "longitude": -4.0,
    "latitude": 51.5666999816895,
    "regions": [
      "10e2"
    ]
  },
  {
    "code": "111ac",
    "name": "Mundesley",
    "updated_at": "2014-09-22T21:08:03.159114Z",
    "country": "gb",
    "parent": null,
    "longitude": 1.41666996479034,
    "latitude": 52.86669921875,
    "regions": [
      "1190"
    ]
  },
  {
    "code": "111ab",
    "name": "Mundford",
    "updated_at": "2014-09-22T21:08:03.141031Z",
    "country": "gb",
    "parent": null,
    "longitude": 0.649999976158142,
    "latitude": 52.5,
    "regions": [
      "1190"
    ]
  },
  {
    "code": "111aa",
    "name": "Musselburgh",
    "updated_at": "2014-09-22T21:08:03.081868Z",
    "country": "gb",
    "parent": null,
    "longitude": -3.04999995231628,
    "latitude": 55.9333000183105,
    "regions": [
      "10d9"
    ]
  },
  {
    "code": "111a9",
    "name": "Mytchett",
    "updated_at": "2014-09-22T21:08:02.922667Z",
    "country": "gb",
    "parent": null,
    "longitude": -0.716666996479034,
    "latitude": 51.2832984924316,
    "regions": [
      "10e1"
    ]
  },
  {
    "code": "111a8",
    "name": "Nafferton",
    "updated_at": "2014-09-22T21:08:02.901396Z",
    "country": "gb",
    "parent": null,
    "longitude": -0.383332997560501,
    "latitude": 54.0,
    "regions": [
      "132e"
    ]
  },
  {
    "code": "111a7",
    "name": "Nailsea",
    "updated_at": "2014-09-22T21:08:02.883777Z",
    "country": "gb",
    "parent": null,
    "longitude": -2.7666699886322,
    "latitude": 51.4333000183105,
    "regions": [
      "118f"
    ]
  },
  {
    "code": "111a6",
    "name": "Nailsworth",
    "updated_at": "2014-09-22T21:08:02.866010Z",
    "country": "gb",
    "parent": null,
    "longitude": -2.20000004768372,
    "latitude": 51.6833000183105,
    "regions": [
      "1208"
    ]
  },
  {
    "code": "111a5",
    "name": "Nairn",
    "updated_at": "2014-09-22T21:08:02.847804Z",
    "country": "gb",
    "parent": null,
    "longitude": -3.86666989326477,
    "latitude": 57.5833015441895,
    "regions": [
      "133f"
    ]
  },
  {
    "code": "111a4",
    "name": "Nantwich",
    "updated_at": "2014-09-22T21:08:02.793847Z",
    "country": "gb",
    "parent": null,
    "longitude": -2.5166699886322,
    "latitude": 53.0666999816895,
    "regions": [
      "11ae"
    ]
  },
  {
    "code": "111a3",
    "name": "Narberth",
    "updated_at": "2014-09-22T21:08:02.771089Z",
    "country": "gb",
    "parent": null,
    "longitude": -4.75,
    "latitude": 51.7999992370605,
    "regions": [
      "1210"
    ]
  },
  {
    "code": "111a2",
    "name": "Narborough",
    "updated_at": "2014-09-22T21:08:02.748596Z",
    "country": "gb",
    "parent": null,
    "longitude": -1.20000004768372,
    "latitude": 52.5666999816895,
    "regions": [
      "1191"
    ]
  },
  {
    "code": "111a1",
    "name": "Nassington",
    "updated_at": "2014-09-22T21:08:02.725751Z",
    "country": "gb",
    "parent": null,
    "longitude": -0.416667014360428,
    "latitude": 52.5499992370605,
    "regions": [
      "1203"
    ]
  },
  {
    "code": "111a0",
    "name": "Nawton",
    "updated_at": "2014-09-22T21:08:02.610974Z",
    "country": "gb",
    "parent": null,
    "longitude": -0.983332991600037,
    "latitude": 54.2332992553711,
    "regions": [
      "132d"
    ]
  },
  {
    "code": "1119f",
    "name": "Neath",
    "updated_at": "2014-09-22T21:08:02.571614Z",
    "country": "gb",
    "parent": null,
    "longitude": -3.79999995231628,
    "latitude": 51.6666984558105,
    "regions": [
      "10e2"
    ]
  },
  {
    "code": "1119e",
    "name": "Nether Stowey",
    "updated_at": "2014-09-22T21:08:02.458259Z",
    "country": "gb",
    "parent": null,
    "longitude": -3.16667008399963,
    "latitude": 51.1500015258789,
    "regions": [
      "118f"
    ]
  },
  {
    "code": "1119d",
    "name": "Nether Whitacre",
    "updated_at": "2014-09-22T21:08:02.435352Z",
    "country": "gb",
    "parent": null,
    "longitude": -1.64999997615814,
    "latitude": 52.5332984924316,
    "regions": [
      "10e3"
    ]
  },
  {
    "code": "1119c",
    "name": "Nefyn",
    "updated_at": "2014-09-22T21:08:02.357507Z",
    "country": "gb",
    "parent": null,
    "longitude": -4.5,
    "latitude": 52.9333000183105,
    "regions": [
      "120e"
    ]
  },
  {
    "code": "1119b",
    "name": "New Alresford",
    "updated_at": "2014-09-22T21:08:02.299378Z",
    "country": "gb",
    "parent": null,
    "longitude": -1.16666996479034,
    "latitude": 51.0833015441895,
    "regions": [
      "10db"
    ]
  },
  {
    "code": "1119a",
    "name": "Newark upon Trent",
    "updated_at": "2014-09-22T21:08:02.281686Z",
    "country": "gb",
    "parent": null,
    "longitude": -0.816667020320892,
    "latitude": 53.0666999816895,
    "regions": [
      "118e"
    ]
  },
  {
    "code": "11199",
    "name": "New Barnet",
    "updated_at": "2014-09-22T21:08:02.264127Z",
    "country": "gb",
    "parent": null,
    "longitude": -0.166666999459267,
    "latitude": 51.6500015258789,
    "regions": [
      "120c"
    ]
  },
  {
    "code": "11198",
    "name": "Newbiggin-by-the-Sea",
    "updated_at": "2014-09-22T21:08:02.246442Z",
    "country": "gb",
    "parent": null,
    "longitude": -1.53305995464325,
    "latitude": 55.1772003173828,
    "regions": [
      "10df"
    ]
  },
  {
    "code": "11197",
    "name": "Newbold on Stour",
    "updated_at": "2014-09-22T21:08:02.228393Z",
    "country": "gb",
    "parent": null,
    "longitude": -1.63332998752594,
    "latitude": 52.11669921875,
    "regions": [
      "10e3"
    ]
  },
  {
    "code": "11196",
    "name": "Newbold Verdon",
    "updated_at": "2014-09-22T21:08:02.210101Z",
    "country": "gb",
    "parent": null,
    "longitude": -1.33333003520966,
    "latitude": 52.61669921875,
    "regions": [
      "1191"
    ]
  },
  {
    "code": "11195",
    "name": "Newborough",
    "updated_at": "2014-09-22T21:08:02.192173Z",
    "country": "gb",
    "parent": null,
    "longitude": -1.79999995231628,
    "latitude": 52.8166999816895,
    "regions": [
      "1200"
    ]
  },
  {
    "code": "11194",
    "name": "Newbridge",
    "updated_at": "2014-09-22T21:08:02.152896Z",
    "country": "gb",
    "parent": null,
    "longitude": -3.40000009536743,
    "latitude": 55.9333000183105,
    "regions": [
      "10d9"
    ]
  },
  {
    "code": "11193",
    "name": "Newbury",
    "updated_at": "2014-09-22T21:08:02.082545Z",
    "country": "gb",
    "parent": null,
    "longitude": -1.31666994094849,
    "latitude": 51.4000015258789,
    "regions": [
      "120b"
    ]
  },
  {
    "code": "11192",
    "name": "Newby Bridge",
    "updated_at": "2014-09-22T21:08:02.053162Z",
    "country": "gb",
    "parent": null,
    "longitude": -2.96706008911133,
    "latitude": 54.2671012878418,
    "regions": [
      "10d7"
    ]
  },
  {
    "code": "11191",
    "name": "Newcastle",
    "updated_at": "2014-09-22T21:08:02.025314Z",
    "country": "gb",
    "parent": null,
    "longitude": -3.11666989326477,
    "latitude": 52.4333000183105,
    "regions": [
      "11ff"
    ]
  },
  {
    "code": "11190",
    "name": "Newcastle",
    "updated_at": "2014-09-22T21:08:01.995980Z",
    "country": "gb",
    "parent": null,
    "longitude": -5.88979005813599,
    "latitude": 54.2154998779297,
    "regions": [
      "121a"
    ]
  },
  {
    "code": "1118f",
    "name": "Newcastle Emlyn",
    "updated_at": "2014-09-22T21:08:01.974137Z",
    "country": "gb",
    "parent": null,
    "longitude": -4.46667003631592,
    "latitude": 52.0332984924316,
    "regions": [
      "1210"
    ]
  },
  {
    "code": "1118e",
    "name": "Newcastleton",
    "updated_at": "2014-09-22T21:08:01.956438Z",
    "country": "gb",
    "parent": null,
    "longitude": -2.81666994094849,
    "latitude": 55.1666984558105,
    "regions": [
      "1214"
    ]
  },
  {
    "code": "1118d",
    "name": "Newcastle under Lyme",
    "updated_at": "2014-09-22T21:08:01.939322Z",
    "country": "gb",
    "parent": null,
    "longitude": -2.2333300113678,
    "latitude": 53.0,
    "regions": [
      "1200"
    ]
  },
  {
    "code": "1118c",
    "name": "Newcastle upon Tyne",
    "updated_at": "2014-09-22T21:08:01.922847Z",
    "country": "gb",
    "parent": null,
    "longitude": -1.6139600276947,
    "latitude": 54.9737014770508,
    "regions": [
      "132c"
    ]
  },
  {
    "code": "1118b",
    "name": "New Cumnock",
    "updated_at": "2014-09-22T21:08:01.889028Z",
    "country": "gb",
    "parent": null,
    "longitude": -4.18333005905151,
    "latitude": 55.4000015258789,
    "regions": [
      "1212",
      "121e"
    ]
  },
  {
    "code": "1118a",
    "name": "Newent",
    "updated_at": "2014-09-22T21:08:01.828906Z",
    "country": "gb",
    "parent": null,
    "longitude": -2.40000009536743,
    "latitude": 51.9333000183105,
    "regions": [
      "1208"
    ]
  },
  {
    "code": "11189",
    "name": "New Galloway",
    "updated_at": "2014-09-22T21:08:01.807100Z",
    "country": "gb",
    "parent": null,
    "longitude": -4.15000009536743,
    "latitude": 55.0666999816895,
    "regions": [
      "1213"
    ]
  },
  {
    "code": "11188",
    "name": "Newhaven",
    "updated_at": "2014-09-22T21:08:01.786165Z",
    "country": "gb",
    "parent": null,
    "longitude": 0.0333333015441895,
    "latitude": 50.7832984924316,
    "regions": [
      "129e"
    ]
  },
  {
    "code": "11187",
    "name": "New Luce",
    "updated_at": "2014-09-22T21:08:01.726874Z",
    "country": "gb",
    "parent": null,
    "longitude": -4.84999990463257,
    "latitude": 54.9333000183105,
    "regions": [
      "1213"
    ]
  },
  {
    "code": "11186",
    "name": "Newmacher",
    "updated_at": "2014-09-22T21:08:01.684889Z",
    "country": "gb",
    "parent": null,
    "longitude": -2.18333005905151,
    "latitude": 57.2667007446289,
    "regions": [
      "1215"
    ]
  },
  {
    "code": "11185",
    "name": "Newmarket",
    "updated_at": "2014-09-22T21:08:01.654711Z",
    "country": "gb",
    "parent": null,
    "longitude": 0.408719003200531,
    "latitude": 52.2449340820312,
    "regions": [
      "1205"
    ]
  },
  {
    "code": "11184",
    "name": "Newmilns",
    "updated_at": "2014-09-22T21:08:01.625924Z",
    "country": "gb",
    "parent": null,
    "longitude": -4.31666994094849,
    "latitude": 55.5999984741211,
    "regions": [
      "1212",
      "121e"
    ]
  },
  {
    "code": "11183",
    "name": "New Milton",
    "updated_at": "2014-09-22T21:08:01.611266Z",
    "country": "gb",
    "parent": null,
    "longitude": -1.66493999958038,
    "latitude": 50.7545013427734,
    "regions": [
      "10db"
    ]
  },
  {
    "code": "11182",
    "name": "Newport",
    "updated_at": "2014-09-22T21:08:01.567894Z",
    "country": "gb",
    "parent": null,
    "longitude": -2.99746990203857,
    "latitude": 51.584098815918,
    "regions": [
      "120f"
    ]
  },
  {
    "code": "11181",
    "name": "Newquay",
    "updated_at": "2014-09-22T21:08:01.553499Z",
    "country": "gb",
    "parent": null,
    "longitude": -5.08333015441895,
    "latitude": 50.4166984558105,
    "regions": [
      "118b"
    ]
  },
  {
    "code": "11180",
    "name": "New Quay",
    "updated_at": "2014-09-22T21:08:01.539069Z",
    "country": "gb",
    "parent": null,
    "longitude": -4.36667013168335,
    "latitude": 52.2167015075684,
    "regions": [
      "1210"
    ]
  },
  {
    "code": "1117f",
    "name": "New Romney",
    "updated_at": "2014-09-22T21:08:01.505510Z",
    "country": "gb",
    "parent": null,
    "longitude": 0.933332979679108,
    "latitude": 50.9832992553711,
    "regions": [
      "10dd"
    ]
  },
  {
    "code": "1117e",
    "name": "Newry",
    "updated_at": "2014-09-22T21:08:01.489953Z",
    "country": "gb",
    "parent": null,
    "longitude": -6.33333015441895,
    "latitude": 54.1833000183105,
    "regions": [
      "121a"
    ]
  },
  {
    "code": "1117d",
    "name": "New Scone",
    "updated_at": "2014-09-22T21:08:01.472704Z",
    "country": "gb",
    "parent": null,
    "longitude": -3.40000009536743,
    "latitude": 56.4166984558105,
    "regions": [
      "1220",
      "1349"
    ]
  },
  {
    "code": "1117c",
    "name": "Benderloch",
    "updated_at": "2014-09-22T21:08:01.455517Z",
    "country": "gb",
    "parent": null,
    "longitude": -5.40000009536743,
    "latitude": 56.4832992553711,
    "regions": [
      "1212",
      "133e"
    ]
  },
  {
    "code": "1117b",
    "name": "Newton Abbot",
    "updated_at": "2014-09-22T21:08:01.410650Z",
    "country": "gb",
    "parent": null,
    "longitude": -3.59999990463257,
    "latitude": 50.5332984924316,
    "regions": [
      "118d"
    ]
  },
  {
    "code": "1117a",
    "name": "Newton Aycliffe",
    "updated_at": "2014-09-22T21:08:01.390366Z",
    "country": "gb",
    "parent": null,
    "longitude": -1.56666994094849,
    "latitude": 54.61669921875,
    "regions": [
      "11fd"
    ]
  },
  {
    "code": "11179",
    "name": "Newton Mearns",
    "updated_at": "2014-09-22T21:08:01.344536Z",
    "country": "gb",
    "parent": null,
    "longitude": -4.33333015441895,
    "latitude": 55.7667007446289,
    "regions": [
      "1212"
    ]
  },
  {
    "code": "11178",
    "name": "Newtonmore",
    "updated_at": "2014-09-22T21:08:01.329897Z",
    "country": "gb",
    "parent": null,
    "longitude": -4.13332986831665,
    "latitude": 57.0666999816895,
    "regions": [
      "133f"
    ]
  },
  {
    "code": "11177",
    "name": "Newton Stewart",
    "updated_at": "2014-09-22T21:08:01.314716Z",
    "country": "gb",
    "parent": null,
    "longitude": -4.48332977294922,
    "latitude": 54.9667015075684,
    "regions": [
      "1213"
    ]
  },
  {
    "code": "11176",
    "name": "Newtown",
    "updated_at": "2014-09-22T21:08:01.284126Z",
    "country": "gb",
    "parent": null,
    "longitude": -3.31461000442505,
    "latitude": 52.5125999450684,
    "regions": [
      "120d"
    ]
  },
  {
    "code": "11175",
    "name": "Newtownabbey",
    "updated_at": "2014-09-22T21:08:01.269468Z",
    "country": "gb",
    "parent": null,
    "longitude": -5.95698976516724,
    "latitude": 54.6782989501953,
    "regions": [
      "1218"
    ]
  },
  {
    "code": "11174",
    "name": "Newtownards",
    "updated_at": "2014-09-22T21:08:01.254957Z",
    "country": "gb",
    "parent": null,
    "longitude": -5.686176,
    "latitude": 54.598276,
    "regions": [
      "121a"
    ]
  },
  {
    "code": "11173",
    "name": "Newtown Butler",
    "updated_at": "2014-09-22T21:08:01.240514Z",
    "country": "gb",
    "parent": null,
    "longitude": -7.38332986831665,
    "latitude": 54.2000007629395,
    "regions": []
  },
  {
    "code": "11172",
    "name": "Newyork",
    "updated_at": "2014-09-22T21:08:01.225930Z",
    "country": "gb",
    "parent": null,
    "longitude": -5.28332996368408,
    "latitude": 56.25,
    "regions": [
      "1212",
      "133e"
    ]
  },
  {
    "code": "11171",
    "name": "Niton",
    "updated_at": "2014-09-22T21:08:01.190214Z",
    "country": "gb",
    "parent": null,
    "longitude": -1.28332996368408,
    "latitude": 50.5833015441895,
    "regions": [
      "10dc"
    ]
  },
  {
    "code": "11170",
    "name": "Norham",
    "updated_at": "2014-09-22T21:08:01.150298Z",
    "country": "gb",
    "parent": null,
    "longitude": -2.15000009536743,
    "latitude": 55.7167015075684,
    "regions": [
      "10df"
    ]
  },
  {
    "code": "1116f",
    "name": "Northallerton",
    "updated_at": "2014-09-22T21:08:01.082675Z",
    "country": "gb",
    "parent": null,
    "longitude": -1.43333005905151,
    "latitude": 54.3333015441895,
    "regions": [
      "132d"
    ]
  },
  {
    "code": "1116e",
    "name": "Northampton",
    "updated_at": "2014-09-22T21:08:01.034486Z",
    "country": "gb",
    "parent": null,
    "longitude": -0.883333027362823,
    "latitude": 52.25,
    "regions": [
      "11ad"
    ]
  },
  {
    "code": "1116d",
    "name": "North Ballachulish",
    "updated_at": "2014-09-22T21:08:01.019804Z",
    "country": "gb",
    "parent": null,
    "longitude": -5.18333005905151,
    "latitude": 56.7000007629395,
    "regions": [
      "133f"
    ]
  },
  {
    "code": "1116c",
    "name": "North Berwick",
    "updated_at": "2014-09-22T21:08:01.005333Z",
    "country": "gb",
    "parent": null,
    "longitude": -2.72006011009216,
    "latitude": 56.057300567627,
    "regions": [
      "10d9"
    ]
  },
  {
    "code": "1116b",
    "name": "North Charlton",
    "updated_at": "2014-09-22T21:08:00.958480Z",
    "country": "gb",
    "parent": null,
    "longitude": -1.7333300113678,
    "latitude": 55.4832992553711,
    "regions": [
      "10df"
    ]
  },
  {
    "code": "1116a",
    "name": "North Collingham",
    "updated_at": "2014-09-22T21:08:00.941453Z",
    "country": "gb",
    "parent": null,
    "longitude": -0.75,
    "latitude": 53.1500015258789,
    "regions": [
      "118e"
    ]
  },
  {
    "code": "11169",
    "name": "North Cornelly",
    "updated_at": "2014-09-22T21:08:00.922951Z",
    "country": "gb",
    "parent": null,
    "longitude": -3.68333005905151,
    "latitude": 51.5167007446289,
    "regions": [
      "10e2"
    ]
  },
  {
    "code": "11168",
    "name": "North Elmham",
    "updated_at": "2014-09-22T21:08:00.831900Z",
    "country": "gb",
    "parent": null,
    "longitude": 0.949999988079071,
    "latitude": 52.7332992553711,
    "regions": [
      "1190"
    ]
  },
  {
    "code": "11167",
    "name": "North Ferriby",
    "updated_at": "2014-09-22T21:08:00.805156Z",
    "country": "gb",
    "parent": null,
    "longitude": -0.508117973804474,
    "latitude": 53.7202987670898,
    "regions": [
      "132e"
    ]
  },
  {
    "code": "11166",
    "name": "North Hill",
    "updated_at": "2014-09-22T21:08:00.769789Z",
    "country": "gb",
    "parent": null,
    "longitude": -4.43333005905151,
    "latitude": 50.5499992370605,
    "regions": [
      "118b"
    ]
  },
  {
    "code": "11165",
    "name": "North Killingholme",
    "updated_at": "2014-09-22T21:08:00.688445Z",
    "country": "gb",
    "parent": null,
    "longitude": -0.266667008399963,
    "latitude": 53.5833015441895,
    "regions": [
      "11ab"
    ]
  },
  {
    "code": "11164",
    "name": "North Kyme",
    "updated_at": "2014-09-22T21:08:00.669861Z",
    "country": "gb",
    "parent": null,
    "longitude": -0.266667008399963,
    "latitude": 53.0499992370605,
    "regions": [
      "11ab"
    ]
  },
  {
    "code": "11163",
    "name": "Lancing",
    "updated_at": "2014-09-22T21:08:00.651750Z",
    "country": "gb",
    "parent": null,
    "longitude": -0.333332985639572,
    "latitude": 50.8166999816895,
    "regions": [
      "1284"
    ]
  },
  {
    "code": "11162",
    "name": "North Nibley",
    "updated_at": "2014-09-22T21:08:00.542659Z",
    "country": "gb",
    "parent": null,
    "longitude": -2.38333010673523,
    "latitude": 51.6666984558105,
    "regions": [
      "1208"
    ]
  },
  {
    "code": "11161",
    "name": "Northop",
    "updated_at": "2014-09-22T21:08:00.507132Z",
    "country": "gb",
    "parent": null,
    "longitude": -3.13333010673523,
    "latitude": 53.2000007629395,
    "regions": [
      "1211"
    ]
  },
  {
    "code": "11160",
    "name": "North Petherton",
    "updated_at": "2014-09-22T21:08:00.473321Z",
    "country": "gb",
    "parent": null,
    "longitude": -3.0166699886322,
    "latitude": 51.0999984741211,
    "regions": [
      "118f"
    ]
  },
  {
    "code": "1115f",
    "name": "North Queensferry",
    "updated_at": "2014-09-22T21:08:00.439550Z",
    "country": "gb",
    "parent": null,
    "longitude": -3.39425992965698,
    "latitude": 56.0101013183594,
    "regions": [
      "1216"
    ]
  },
  {
    "code": "1115e",
    "name": "North Somercotes",
    "updated_at": "2014-09-22T21:08:00.360746Z",
    "country": "gb",
    "parent": null,
    "longitude": 0.150000005960464,
    "latitude": 53.4333000183105,
    "regions": [
      "11ab"
    ]
  },
  {
    "code": "1115d",
    "name": "North Stoke",
    "updated_at": "2014-09-22T21:08:00.333797Z",
    "country": "gb",
    "parent": null,
    "longitude": -1.11667001247406,
    "latitude": 51.5666999816895,
    "regions": [
      "10e0"
    ]
  },
  {
    "code": "1115c",
    "name": "North Walsham",
    "updated_at": "2014-09-22T21:08:00.208458Z",
    "country": "gb",
    "parent": null,
    "longitude": 1.38332998752594,
    "latitude": 52.8166999816895,
    "regions": [
      "1190"
    ]
  },
  {
    "code": "1115b",
    "name": "North Waltham",
    "updated_at": "2014-09-22T21:08:00.191474Z",
    "country": "gb",
    "parent": null,
    "longitude": -1.18333005905151,
    "latitude": 51.2000007629395,
    "regions": [
      "10db"
    ]
  },
  {
    "code": "1115a",
    "name": "North Weald",
    "updated_at": "2014-09-22T21:08:00.174875Z",
    "country": "gb",
    "parent": null,
    "longitude": 0.166666999459267,
    "latitude": 51.7000007629395,
    "regions": [
      "10da"
    ]
  },
  {
    "code": "11159",
    "name": "Northwich",
    "updated_at": "2014-09-22T21:08:00.157931Z",
    "country": "gb",
    "parent": null,
    "longitude": -2.5,
    "latitude": 53.2667007446289,
    "regions": [
      "11ae"
    ]
  },
  {
    "code": "11158",
    "name": "North Witham",
    "updated_at": "2014-09-22T21:08:00.122074Z",
    "country": "gb",
    "parent": null,
    "longitude": -0.616666972637177,
    "latitude": 52.7667007446289,
    "regions": [
      "11ab"
    ]
  },
  {
    "code": "11157",
    "name": "Northwood",
    "updated_at": "2014-09-22T21:08:00.039770Z",
    "country": "gb",
    "parent": null,
    "longitude": -0.416667014360428,
    "latitude": 51.5999984741211,
    "regions": [
      "120c"
    ]
  },
  {
    "code": "11156",
    "name": "Norton Disney",
    "updated_at": "2014-09-22T21:07:59.949533Z",
    "country": "gb",
    "parent": null,
    "longitude": -0.683332979679108,
    "latitude": 53.11669921875,
    "regions": [
      "11ab"
    ]
  },
  {
    "code": "11155",
    "name": "Norton Saint Philip",
    "updated_at": "2014-09-22T21:07:59.931784Z",
    "country": "gb",
    "parent": null,
    "longitude": -2.33332991600037,
    "latitude": 51.2999992370605,
    "regions": [
      "118f"
    ]
  },
  {
    "code": "11154",
    "name": "Norwell",
    "updated_at": "2014-09-22T21:07:59.913996Z",
    "country": "gb",
    "parent": null,
    "longitude": -0.850000023841858,
    "latitude": 53.13330078125,
    "regions": [
      "118e"
    ]
  },
  {
    "code": "11153",
    "name": "Norwich",
    "updated_at": "2014-09-22T21:07:59.895101Z",
    "country": "gb",
    "parent": null,
    "longitude": 1.29894018173218,
    "latitude": 52.629337310791,
    "regions": [
      "1190"
    ]
  },
  {
    "code": "11152",
    "name": "Notgrove",
    "updated_at": "2014-09-22T21:07:59.876416Z",
    "country": "gb",
    "parent": null,
    "longitude": -1.83333003520966,
    "latitude": 51.86669921875,
    "regions": []
  },
  {
    "code": "11151",
    "name": "Nottingham",
    "updated_at": "2014-09-22T21:07:59.855898Z",
    "country": "gb",
    "parent": null,
    "longitude": -1.1473799943924,
    "latitude": 52.9539985656738,
    "regions": [
      "118e"
    ]
  },
  {
    "code": "11150",
    "name": "Nuneaton",
    "updated_at": "2014-09-22T21:07:59.830099Z",
    "country": "gb",
    "parent": null,
    "longitude": -1.46667003631592,
    "latitude": 52.5167007446289,
    "regions": [
      "10e3"
    ]
  },
  {
    "code": "1114f",
    "name": "Nunthorpe",
    "updated_at": "2014-09-22T21:07:59.772008Z",
    "country": "gb",
    "parent": null,
    "longitude": -1.16666996479034,
    "latitude": 54.5167007446289,
    "regions": [
      "132d"
    ]
  },
  {
    "code": "1114e",
    "name": "Nutley",
    "updated_at": "2014-09-22T21:07:59.736936Z",
    "country": "gb",
    "parent": null,
    "longitude": 0.0500000007450581,
    "latitude": 51.0167007446289,
    "regions": [
      "129e"
    ]
  },
  {
    "code": "1114d",
    "name": "Oakamoor",
    "updated_at": "2014-09-22T21:07:59.683664Z",
    "country": "gb",
    "parent": null,
    "longitude": -1.91666996479034,
    "latitude": 53.0,
    "regions": [
      "1200"
    ]
  },
  {
    "code": "1114c",
    "name": "Oakham",
    "updated_at": "2014-09-22T21:07:59.629441Z",
    "country": "gb",
    "parent": null,
    "longitude": -0.728702545166016,
    "latitude": 52.6710472106934,
    "regions": [
      "1201"
    ]
  },
  {
    "code": "1114b",
    "name": "Oakley",
    "updated_at": "2014-09-22T21:07:59.611179Z",
    "country": "gb",
    "parent": null,
    "longitude": -1.18333005905151,
    "latitude": 51.25,
    "regions": [
      "10db"
    ]
  },
  {
    "code": "1114a",
    "name": "Oban",
    "updated_at": "2014-09-22T21:07:59.536806Z",
    "country": "gb",
    "parent": null,
    "longitude": -5.46667003631592,
    "latitude": 56.4166984558105,
    "regions": [
      "1212",
      "133e"
    ]
  },
  {
    "code": "11149",
    "name": "Ochiltree",
    "updated_at": "2014-09-22T21:07:59.468326Z",
    "country": "gb",
    "parent": null,
    "longitude": -4.36667013168335,
    "latitude": 55.4500007629395,
    "regions": [
      "1212",
      "121e"
    ]
  },
  {
    "code": "11148",
    "name": "Ockley",
    "updated_at": "2014-09-22T21:07:59.438201Z",
    "country": "gb",
    "parent": null,
    "longitude": -0.349999994039536,
    "latitude": 51.13330078125,
    "regions": [
      "10e1"
    ]
  },
  {
    "code": "11147",
    "name": "Odiham",
    "updated_at": "2014-09-22T21:07:59.420382Z",
    "country": "gb",
    "parent": null,
    "longitude": -0.933332979679108,
    "latitude": 51.25,
    "regions": [
      "10db"
    ]
  },
  {
    "code": "11146",
    "name": "Ogbourne Saint George",
    "updated_at": "2014-09-22T21:07:59.404439Z",
    "country": "gb",
    "parent": null,
    "longitude": -1.71421051025391,
    "latitude": 51.4682197570801,
    "regions": [
      "120a"
    ]
  },
  {
    "code": "11145",
    "name": "Okehampton",
    "updated_at": "2014-09-22T21:07:59.387651Z",
    "country": "gb",
    "parent": null,
    "longitude": -4.0,
    "latitude": 50.7332992553711,
    "regions": [
      "118d"
    ]
  },
  {
    "code": "11144",
    "name": "Oldbury",
    "updated_at": "2014-09-22T21:07:59.325709Z",
    "country": "gb",
    "parent": null,
    "longitude": -2.0166699886322,
    "latitude": 52.5,
    "regions": [
      "1242"
    ]
  },
  {
    "code": "11143",
    "name": "Oldham",
    "updated_at": "2014-09-22T21:07:59.272377Z",
    "country": "gb",
    "parent": null,
    "longitude": -2.11666989326477,
    "latitude": 53.5499992370605,
    "regions": [
      "121f"
    ]
  },
  {
    "code": "11142",
    "name": "Oldmeldrum",
    "updated_at": "2014-09-22T21:07:59.154603Z",
    "country": "gb",
    "parent": null,
    "longitude": -2.31666994094849,
    "latitude": 57.3166999816895,
    "regions": [
      "1215"
    ]
  },
  {
    "code": "11141",
    "name": "Old Windsor",
    "updated_at": "2014-09-22T21:07:59.118172Z",
    "country": "gb",
    "parent": null,
    "longitude": -0.583333015441895,
    "latitude": 51.4500007629395,
    "regions": []
  },
  {
    "code": "11140",
    "name": "Omagh",
    "updated_at": "2014-09-22T21:07:59.054725Z",
    "country": "gb",
    "parent": null,
    "longitude": -7.30000019073486,
    "latitude": 54.5999984741211,
    "regions": [
      "121d"
    ]
  },
  {
    "code": "1113f",
    "name": "Onich",
    "updated_at": "2014-09-22T21:07:58.964980Z",
    "country": "gb",
    "parent": null,
    "longitude": -5.2234001159668,
    "latitude": 56.7024993896484,
    "regions": [
      "133f"
    ]
  },
  {
    "code": "1113e",
    "name": "Orford",
    "updated_at": "2014-09-22T21:07:58.928919Z",
    "country": "gb",
    "parent": null,
    "longitude": 1.53332996368408,
    "latitude": 52.0833015441895,
    "regions": [
      "1205"
    ]
  },
  {
    "code": "1113d",
    "name": "Ormskirk",
    "updated_at": "2014-09-22T21:07:58.890322Z",
    "country": "gb",
    "parent": null,
    "longitude": -2.90000009536743,
    "latitude": 53.5666999816895,
    "regions": [
      "10de"
    ]
  },
  {
    "code": "1113c",
    "name": "Orphir",
    "updated_at": "2014-09-22T21:07:58.872417Z",
    "country": "gb",
    "parent": null,
    "longitude": -3.13333010673523,
    "latitude": 58.9333000183105,
    "regions": [
      "1241"
    ]
  },
  {
    "code": "1113b",
    "name": "Orpington",
    "updated_at": "2014-09-22T21:07:58.855590Z",
    "country": "gb",
    "parent": null,
    "longitude": 0.0981044992804527,
    "latitude": 51.3744010925293,
    "regions": [
      "120c"
    ]
  },
  {
    "code": "1113a",
    "name": "Orsett",
    "updated_at": "2014-09-22T21:07:58.838302Z",
    "country": "gb",
    "parent": null,
    "longitude": 0.366667002439499,
    "latitude": 51.5167007446289,
    "regions": [
      "10da"
    ]
  },
  {
    "code": "11139",
    "name": "Orton",
    "updated_at": "2014-09-22T21:07:58.817978Z",
    "country": "gb",
    "parent": null,
    "longitude": -2.58332991600037,
    "latitude": 54.4500007629395,
    "regions": [
      "10d7"
    ]
  },
  {
    "code": "11138",
    "name": "Oswestry",
    "updated_at": "2014-09-22T21:07:58.700628Z",
    "country": "gb",
    "parent": null,
    "longitude": -3.03332996368408,
    "latitude": 52.8499984741211,
    "regions": [
      "11ff"
    ]
  },
  {
    "code": "11137",
    "name": "Otley",
    "updated_at": "2014-09-22T21:07:58.646448Z",
    "country": "gb",
    "parent": null,
    "longitude": -1.68333005905151,
    "latitude": 53.9000015258789,
    "regions": [
      "132f"
    ]
  },
  {
    "code": "11136",
    "name": "Otterburn",
    "updated_at": "2014-09-22T21:07:58.630103Z",
    "country": "gb",
    "parent": null,
    "longitude": -2.16667008399963,
    "latitude": 55.2167015075684,
    "regions": [
      "10df"
    ]
  },
  {
    "code": "11135",
    "name": "Ottershaw",
    "updated_at": "2014-09-22T21:07:58.596232Z",
    "country": "gb",
    "parent": null,
    "longitude": -0.533333003520966,
    "latitude": 51.3499984741211,
    "regions": [
      "10e1"
    ]
  },
  {
    "code": "11134",
    "name": "Ottery Saint Mary",
    "updated_at": "2014-09-22T21:07:58.558812Z",
    "country": "gb",
    "parent": null,
    "longitude": -3.2666699886322,
    "latitude": 50.75,
    "regions": [
      "118d"
    ]
  },
  {
    "code": "11133",
    "name": "Oundle",
    "updated_at": "2014-09-22T21:07:58.508884Z",
    "country": "gb",
    "parent": null,
    "longitude": -0.466666996479034,
    "latitude": 52.4832992553711,
    "regions": [
      "11ad"
    ]
  },
  {
    "code": "11132",
    "name": "Outwell",
    "updated_at": "2014-09-22T21:07:58.441147Z",
    "country": "gb",
    "parent": null,
    "longitude": 0.233333006501198,
    "latitude": 52.61669921875,
    "regions": []
  },
  {
    "code": "11131",
    "name": "Over",
    "updated_at": "2014-09-22T21:07:58.407336Z",
    "country": "gb",
    "parent": null,
    "longitude": 0.0166666992008686,
    "latitude": 52.3166999816895,
    "regions": [
      "1203"
    ]
  },
  {
    "code": "11130",
    "name": "Overstrand",
    "updated_at": "2014-09-22T21:07:58.389585Z",
    "country": "gb",
    "parent": null,
    "longitude": 1.3406800031662,
    "latitude": 52.9169006347656,
    "regions": [
      "1190"
    ]
  },
  {
    "code": "1112f",
    "name": "Oxborough",
    "updated_at": "2014-09-22T21:07:58.316100Z",
    "country": "gb",
    "parent": null,
    "longitude": 0.583333015441895,
    "latitude": 52.5833015441895,
    "regions": [
      "1190"
    ]
  },
  {
    "code": "1112e",
    "name": "Oxenhope",
    "updated_at": "2014-09-22T21:07:58.291137Z",
    "country": "gb",
    "parent": null,
    "longitude": -1.95000004768372,
    "latitude": 53.7999992370605,
    "regions": []
  },
  {
    "code": "1112d",
    "name": "Oxford",
    "updated_at": "2014-09-22T21:07:58.266373Z",
    "country": "gb",
    "parent": null,
    "longitude": -1.25,
    "latitude": 51.75,
    "regions": [
      "10e0"
    ]
  },
  {
    "code": "1112c",
    "name": "Oxton",
    "updated_at": "2014-09-22T21:07:58.240746Z",
    "country": "gb",
    "parent": null,
    "longitude": -2.79999995231628,
    "latitude": 55.7667007446289,
    "regions": [
      "1214"
    ]
  },
  {
    "code": "1112b",
    "name": "Padiham",
    "updated_at": "2014-09-22T21:07:58.170920Z",
    "country": "gb",
    "parent": null,
    "longitude": -2.31666994094849,
    "latitude": 53.7832984924316,
    "regions": [
      "10de"
    ]
  },
  {
    "code": "1112a",
    "name": "Padstow",
    "updated_at": "2014-09-22T21:07:58.142050Z",
    "country": "gb",
    "parent": null,
    "longitude": -4.93333005905151,
    "latitude": 50.5332984924316,
    "regions": [
      "118b"
    ]
  },
  {
    "code": "11129",
    "name": "Paignton",
    "updated_at": "2014-09-22T21:07:58.107881Z",
    "country": "gb",
    "parent": null,
    "longitude": -3.56666994094849,
    "latitude": 50.4333000183105,
    "regions": [
      "118d"
    ]
  },
  {
    "code": "11128",
    "name": "Painswick",
    "updated_at": "2014-09-22T21:07:58.089597Z",
    "country": "gb",
    "parent": null,
    "longitude": -2.18333005905151,
    "latitude": 51.7832984924316,
    "regions": [
      "1208"
    ]
  },
  {
    "code": "11127",
    "name": "Paisley",
    "updated_at": "2014-09-22T21:07:58.071271Z",
    "country": "gb",
    "parent": null,
    "longitude": -4.43333005905151,
    "latitude": 55.8333015441895,
    "regions": [
      "1212"
    ]
  },
  {
    "code": "11126",
    "name": "Pangbourne",
    "updated_at": "2014-09-22T21:07:57.976965Z",
    "country": "gb",
    "parent": null,
    "longitude": -1.08333003520966,
    "latitude": 51.4832992553711,
    "regions": [
      "10e0"
    ]
  },
  {
    "code": "11125",
    "name": "Papworth Everard",
    "updated_at": "2014-09-22T21:07:57.939457Z",
    "country": "gb",
    "parent": null,
    "longitude": -0.116667002439499,
    "latitude": 52.2332992553711,
    "regions": [
      "1203"
    ]
  },
  {
    "code": "11124",
    "name": "Par",
    "updated_at": "2014-09-22T21:07:57.906308Z",
    "country": "gb",
    "parent": null,
    "longitude": -4.71667003631592,
    "latitude": 50.3499984741211,
    "regions": [
      "118b"
    ]
  },
  {
    "code": "11123",
    "name": "Parkend",
    "updated_at": "2014-09-22T21:07:57.877838Z",
    "country": "gb",
    "parent": null,
    "longitude": -2.54999995231628,
    "latitude": 51.7667007446289,
    "regions": [
      "1208"
    ]
  },
  {
    "code": "11122",
    "name": "Parkgate",
    "updated_at": "2014-09-22T21:07:57.861373Z",
    "country": "gb",
    "parent": null,
    "longitude": -3.08612990379333,
    "latitude": 53.2985000610352,
    "regions": [
      "11ae"
    ]
  },
  {
    "code": "11121",
    "name": "Parracombe",
    "updated_at": "2014-09-22T21:07:57.826327Z",
    "country": "gb",
    "parent": null,
    "longitude": -3.90000009536743,
    "latitude": 51.1833000183105,
    "regions": [
      "118d"
    ]
  },
  {
    "code": "11120",
    "name": "Pateley Bridge",
    "updated_at": "2014-09-22T21:07:57.767178Z",
    "country": "gb",
    "parent": null,
    "longitude": -1.75,
    "latitude": 54.0833015441895,
    "regions": [
      "132d"
    ]
  },
  {
    "code": "1111f",
    "name": "Patrington",
    "updated_at": "2014-09-22T21:07:57.723626Z",
    "country": "gb",
    "parent": null,
    "longitude": -0.0166666992008686,
    "latitude": 53.6666984558105,
    "regions": [
      "132e"
    ]
  },
  {
    "code": "1111e",
    "name": "Patterdale",
    "updated_at": "2014-09-22T21:07:57.698929Z",
    "country": "gb",
    "parent": null,
    "longitude": -2.93333005905151,
    "latitude": 54.5167007446289,
    "regions": [
      "10d7"
    ]
  },
  {
    "code": "1111d",
    "name": "Pattingham",
    "updated_at": "2014-09-22T21:07:57.665537Z",
    "country": "gb",
    "parent": null,
    "longitude": -2.2666699886322,
    "latitude": 52.5833015441895,
    "regions": [
      "1200"
    ]
  },
  {
    "code": "1111c",
    "name": "Peebles",
    "updated_at": "2014-09-22T21:07:57.560726Z",
    "country": "gb",
    "parent": null,
    "longitude": -3.18333005905151,
    "latitude": 55.63330078125,
    "regions": [
      "1214"
    ]
  },
  {
    "code": "1111b",
    "name": "Pelynt",
    "updated_at": "2014-09-22T21:07:57.544287Z",
    "country": "gb",
    "parent": null,
    "longitude": -4.53332996368408,
    "latitude": 50.36669921875,
    "regions": [
      "118b"
    ]
  },
  {
    "code": "1111a",
    "name": "Pembrey",
    "updated_at": "2014-09-22T21:07:57.527760Z",
    "country": "gb",
    "parent": null,
    "longitude": -4.26667022705078,
    "latitude": 51.6833000183105,
    "regions": [
      "1210"
    ]
  },
  {
    "code": "11119",
    "name": "Pembroke",
    "updated_at": "2014-09-22T21:07:57.492839Z",
    "country": "gb",
    "parent": null,
    "longitude": -4.91666984558105,
    "latitude": 51.6833000183105,
    "regions": [
      "1210"
    ]
  },
  {
    "code": "11118",
    "name": "Pembroke Dock",
    "updated_at": "2014-09-22T21:07:57.469188Z",
    "country": "gb",
    "parent": null,
    "longitude": -4.93333005905151,
    "latitude": 51.7000007629395,
    "regions": [
      "1210"
    ]
  },
  {
    "code": "11117",
    "name": "Penarth",
    "updated_at": "2014-09-22T21:07:57.423403Z",
    "country": "gb",
    "parent": null,
    "longitude": -3.16667008399963,
    "latitude": 51.4333000183105,
    "regions": [
      "10e2"
    ]
  },
  {
    "code": "11116",
    "name": "Pencader",
    "updated_at": "2014-09-22T21:07:57.366961Z",
    "country": "gb",
    "parent": null,
    "longitude": -4.26667022705078,
    "latitude": 52.0,
    "regions": [
      "1210"
    ]
  },
  {
    "code": "11115",
    "name": "Penclawdd",
    "updated_at": "2014-09-22T21:07:57.335718Z",
    "country": "gb",
    "parent": null,
    "longitude": -4.09999990463257,
    "latitude": 51.63330078125,
    "regions": [
      "10e2"
    ]
  },
  {
    "code": "11114",
    "name": "Pencoed",
    "updated_at": "2014-09-22T21:07:57.308888Z",
    "country": "gb",
    "parent": null,
    "longitude": -3.5,
    "latitude": 51.5167007446289,
    "regions": [
      "10e2"
    ]
  },
  {
    "code": "11113",
    "name": "Penderyn",
    "updated_at": "2014-09-22T21:07:57.293597Z",
    "country": "gb",
    "parent": null,
    "longitude": -3.53332996368408,
    "latitude": 51.7667007446289,
    "regions": []
  },
  {
    "code": "11112",
    "name": "Pendine",
    "updated_at": "2014-09-22T21:07:57.277395Z",
    "country": "gb",
    "parent": null,
    "longitude": -4.58333015441895,
    "latitude": 51.75,
    "regions": [
      "1210"
    ]
  },
  {
    "code": "11111",
    "name": "Penicuik",
    "updated_at": "2014-09-22T21:07:57.226721Z",
    "country": "gb",
    "parent": null,
    "longitude": -3.2333300113678,
    "latitude": 55.8166999816895,
    "regions": []
  },
  {
    "code": "11110",
    "name": "Penistone",
    "updated_at": "2014-09-22T21:07:57.209455Z",
    "country": "gb",
    "parent": null,
    "longitude": -1.61667001247406,
    "latitude": 53.5167007446289,
    "regions": [
      "1330"
    ]
  },
  {
    "code": "1110f",
    "name": "Penkridge",
    "updated_at": "2014-09-22T21:07:57.183052Z",
    "country": "gb",
    "parent": null,
    "longitude": -2.11666989326477,
    "latitude": 52.7332992553711,
    "regions": [
      "1200"
    ]
  },
  {
    "code": "1110e",
    "name": "Pennan",
    "updated_at": "2014-09-22T21:07:57.093213Z",
    "country": "gb",
    "parent": null,
    "longitude": -2.25,
    "latitude": 57.6666984558105,
    "regions": [
      "1215"
    ]
  },
  {
    "code": "1110d",
    "name": "Penrhyndeudreath",
    "updated_at": "2014-09-22T21:07:57.035395Z",
    "country": "gb",
    "parent": null,
    "longitude": -4.06666994094849,
    "latitude": 52.9333000183105,
    "regions": [
      "120e"
    ]
  },
  {
    "code": "1110c",
    "name": "Penrith",
    "updated_at": "2014-09-22T21:07:57.017569Z",
    "country": "gb",
    "parent": null,
    "longitude": -2.7531099319458,
    "latitude": 54.6637001037598,
    "regions": [
      "10d7"
    ]
  },
  {
    "code": "1110b",
    "name": "Penryn",
    "updated_at": "2014-09-22T21:07:57.002056Z",
    "country": "gb",
    "parent": null,
    "longitude": -5.09999990463257,
    "latitude": 50.1666984558105,
    "regions": [
      "118b"
    ]
  },
  {
    "code": "1110a",
    "name": "Pensford",
    "updated_at": "2014-09-22T21:07:56.952811Z",
    "country": "gb",
    "parent": null,
    "longitude": -2.54999995231628,
    "latitude": 51.36669921875,
    "regions": [
      "118f"
    ]
  },
  {
    "code": "11109",
    "name": "Pentraeth",
    "updated_at": "2014-09-22T21:07:56.919491Z",
    "country": "gb",
    "parent": null,
    "longitude": -4.21667003631592,
    "latitude": 53.2667007446289,
    "regions": [
      "120e",
      "1333"
    ]
  },
  {
    "code": "11108",
    "name": "Pentrefoelas",
    "updated_at": "2014-09-22T21:07:56.899161Z",
    "country": "gb",
    "parent": null,
    "longitude": -3.68333005905151,
    "latitude": 53.0499992370605,
    "regions": [
      "120e",
      "1211"
    ]
  },
  {
    "code": "11107",
    "name": "Pen-y-cae",
    "updated_at": "2014-09-22T21:07:56.859232Z",
    "country": "gb",
    "parent": null,
    "longitude": -3.68333005905151,
    "latitude": 51.7999992370605,
    "regions": [
      "120d"
    ]
  },
  {
    "code": "11106",
    "name": "Penzance",
    "updated_at": "2014-09-22T21:07:56.839461Z",
    "country": "gb",
    "parent": null,
    "longitude": -5.53718411931186,
    "latitude": 50.118646421451,
    "regions": [
      "118b"
    ]
  },
  {
    "code": "11105",
    "name": "Perranporth",
    "updated_at": "2014-09-22T21:07:56.816812Z",
    "country": "gb",
    "parent": null,
    "longitude": -5.15000009536743,
    "latitude": 50.3499984741211,
    "regions": [
      "118b"
    ]
  },
  {
    "code": "11104",
    "name": "Perranwell",
    "updated_at": "2014-09-22T21:07:56.791351Z",
    "country": "gb",
    "parent": null,
    "longitude": -5.11667013168335,
    "latitude": 50.2167015075684,
    "regions": [
      "118b"
    ]
  },
  {
    "code": "11103",
    "name": "Pershore",
    "updated_at": "2014-09-22T21:07:56.769087Z",
    "country": "gb",
    "parent": null,
    "longitude": -2.06666994094849,
    "latitude": 52.11669921875,
    "regions": [
      "10e4"
    ]
  },
  {
    "code": "11102",
    "name": "Perth",
    "updated_at": "2014-09-22T21:07:56.749321Z",
    "country": "gb",
    "parent": null,
    "longitude": -3.43333005905151,
    "latitude": 56.4000015258789,
    "regions": [
      "1220",
      "1349"
    ]
  },
  {
    "code": "11101",
    "name": "Peterborough",
    "updated_at": "2014-09-22T21:07:56.734335Z",
    "country": "gb",
    "parent": null,
    "longitude": -0.25,
    "latitude": 52.5833015441895,
    "regions": [
      "1203"
    ]
  },
  {
    "code": "11100",
    "name": "Peterculter",
    "updated_at": "2014-09-22T21:07:56.704341Z",
    "country": "gb",
    "parent": null,
    "longitude": -2.2666699886322,
    "latitude": 57.0833015441895,
    "regions": [
      "1215"
    ]
  },
  {
    "code": "110ff",
    "name": "Peterhead",
    "updated_at": "2014-09-22T21:07:56.688088Z",
    "country": "gb",
    "parent": null,
    "longitude": -1.78332996368408,
    "latitude": 57.5,
    "regions": [
      "1215"
    ]
  },
  {
    "code": "110fe",
    "name": "Peterlee",
    "updated_at": "2014-09-22T21:07:56.673231Z",
    "country": "gb",
    "parent": null,
    "longitude": -1.3474999666214,
    "latitude": 54.7621994018555,
    "regions": [
      "11fd"
    ]
  },
  {
    "code": "110fd",
    "name": "Petersfield",
    "updated_at": "2014-09-22T21:07:56.658090Z",
    "country": "gb",
    "parent": null,
    "longitude": -0.933332979679108,
    "latitude": 51.0,
    "regions": [
      "10db"
    ]
  },
  {
    "code": "110fc",
    "name": "Petworth",
    "updated_at": "2014-09-22T21:07:56.627187Z",
    "country": "gb",
    "parent": null,
    "longitude": -0.600000023841858,
    "latitude": 50.9832992553711,
    "regions": [
      "1284"
    ]
  },
  {
    "code": "110fb",
    "name": "Pevensey",
    "updated_at": "2014-09-22T21:07:56.609431Z",
    "country": "gb",
    "parent": null,
    "longitude": 0.349999994039536,
    "latitude": 50.7999992370605,
    "regions": []
  },
  {
    "code": "110fa",
    "name": "Pickering",
    "updated_at": "2014-09-22T21:07:56.594736Z",
    "country": "gb",
    "parent": null,
    "longitude": -0.766667008399963,
    "latitude": 54.25,
    "regions": [
      "132d"
    ]
  },
  {
    "code": "110f9",
    "name": "Pitlochry",
    "updated_at": "2014-09-22T21:07:56.393755Z",
    "country": "gb",
    "parent": null,
    "longitude": -3.71667003631592,
    "latitude": 56.7000007629395,
    "regions": [
      "1220",
      "1349"
    ]
  },
  {
    "code": "110f8",
    "name": "Pluckley",
    "updated_at": "2014-09-22T21:07:56.304978Z",
    "country": "gb",
    "parent": null,
    "longitude": 0.75,
    "latitude": 51.1833000183105,
    "regions": [
      "10dd"
    ]
  },
  {
    "code": "110f7",
    "name": "Plymouth",
    "updated_at": "2014-09-22T21:07:56.261002Z",
    "country": "gb",
    "parent": null,
    "longitude": -4.13574600219727,
    "latitude": 50.372314453125,
    "regions": [
      "118d"
    ]
  },
  {
    "code": "110f6",
    "name": "Plympton",
    "updated_at": "2014-09-22T21:07:56.242046Z",
    "country": "gb",
    "parent": null,
    "longitude": -4.05000019073486,
    "latitude": 50.4000015258789,
    "regions": [
      "118d"
    ]
  },
  {
    "code": "110f5",
    "name": "Pocklington",
    "updated_at": "2014-09-22T21:07:56.184607Z",
    "country": "gb",
    "parent": null,
    "longitude": -0.75,
    "latitude": 53.9333000183105,
    "regions": [
      "132e"
    ]
  },
  {
    "code": "110f4",
    "name": "Polegate",
    "updated_at": "2014-09-22T21:07:56.164410Z",
    "country": "gb",
    "parent": null,
    "longitude": 0.233333006501198,
    "latitude": 50.7999992370605,
    "regions": [
      "129e"
    ]
  },
  {
    "code": "110f3",
    "name": "Polmont",
    "updated_at": "2014-09-22T21:07:56.095144Z",
    "country": "gb",
    "parent": null,
    "longitude": -3.70000004768372,
    "latitude": 55.9832992553711,
    "regions": [
      "1217",
      "15e5"
    ]
  },
  {
    "code": "110f2",
    "name": "Pontardawe",
    "updated_at": "2014-09-22T21:07:56.006880Z",
    "country": "gb",
    "parent": null,
    "longitude": -3.84999990463257,
    "latitude": 51.7167015075684,
    "regions": [
      "10e2"
    ]
  },
  {
    "code": "110f1",
    "name": "Pontefract",
    "updated_at": "2014-09-22T21:07:55.985291Z",
    "country": "gb",
    "parent": null,
    "longitude": -1.29999995231628,
    "latitude": 53.6833000183105,
    "regions": [
      "132f"
    ]
  },
  {
    "code": "110f0",
    "name": "Ponterwyd",
    "updated_at": "2014-09-22T21:07:55.968133Z",
    "country": "gb",
    "parent": null,
    "longitude": -3.83332991600037,
    "latitude": 52.4166984558105,
    "regions": [
      "1210"
    ]
  },
  {
    "code": "110ef",
    "name": "Pontfaen",
    "updated_at": "2014-09-22T21:07:55.948959Z",
    "country": "gb",
    "parent": null,
    "longitude": -4.88332986831665,
    "latitude": 51.9667015075684,
    "regions": [
      "1210"
    ]
  },
  {
    "code": "110ee",
    "name": "Pontnewydd",
    "updated_at": "2014-09-22T21:07:55.928112Z",
    "country": "gb",
    "parent": null,
    "longitude": -3.0166699886322,
    "latitude": 51.6666984558105,
    "regions": [
      "120f"
    ]
  },
  {
    "code": "110ed",
    "name": "Pont Yates",
    "updated_at": "2014-09-22T21:07:55.905332Z",
    "country": "gb",
    "parent": null,
    "longitude": -4.21667003631592,
    "latitude": 51.75,
    "regions": [
      "1210"
    ]
  },
  {
    "code": "110ec",
    "name": "Pontypool",
    "updated_at": "2014-09-22T21:07:55.883064Z",
    "country": "gb",
    "parent": null,
    "longitude": -3.03332996368408,
    "latitude": 51.7000007629395,
    "regions": [
      "120f"
    ]
  },
  {
    "code": "110eb",
    "name": "Pontypridd",
    "updated_at": "2014-09-22T21:07:55.858440Z",
    "country": "gb",
    "parent": null,
    "longitude": -3.33332991600037,
    "latitude": 51.5999984741211,
    "regions": [
      "10e2"
    ]
  },
  {
    "code": "110ea",
    "name": "Poole",
    "updated_at": "2014-09-22T21:07:55.842557Z",
    "country": "gb",
    "parent": null,
    "longitude": -2.0,
    "latitude": 50.7167015075684,
    "regions": [
      "10d8"
    ]
  },
  {
    "code": "110e9",
    "name": "Poolewe",
    "updated_at": "2014-09-22T21:07:55.828169Z",
    "country": "gb",
    "parent": null,
    "longitude": -5.61667013168335,
    "latitude": 57.75,
    "regions": [
      "133f"
    ]
  },
  {
    "code": "110e8",
    "name": "Pooley Bridge",
    "updated_at": "2014-09-22T21:07:55.813312Z",
    "country": "gb",
    "parent": null,
    "longitude": -2.82279968261719,
    "latitude": 54.6118469238281,
    "regions": [
      "10d7"
    ]
  },
  {
    "code": "110e7",
    "name": "Porlock",
    "updated_at": "2014-09-22T21:07:55.782699Z",
    "country": "gb",
    "parent": null,
    "longitude": -3.59506,
    "latitude": 51.20901,
    "regions": [
      "118f"
    ]
  },
  {
    "code": "110e6",
    "name": "Portadown",
    "updated_at": "2014-09-22T21:07:55.767382Z",
    "country": "gb",
    "parent": null,
    "longitude": -6.44999980926514,
    "latitude": 54.4333000183105,
    "regions": [
      "1219"
    ]
  },
  {
    "code": "110e5",
    "name": "Portavadie",
    "updated_at": "2014-09-22T21:07:55.736715Z",
    "country": "gb",
    "parent": null,
    "longitude": -5.31666994094849,
    "latitude": 55.86669921875,
    "regions": [
      "1212",
      "133e"
    ]
  },
  {
    "code": "110e4",
    "name": "Port Ellen",
    "updated_at": "2014-09-22T21:07:55.718425Z",
    "country": "gb",
    "parent": null,
    "longitude": -6.18333005905151,
    "latitude": 55.63330078125,
    "regions": [
      "1212",
      "133e",
      "1458"
    ]
  },
  {
    "code": "110e3",
    "name": "Port Erroll",
    "updated_at": "2014-09-22T21:07:55.703848Z",
    "country": "gb",
    "parent": null,
    "longitude": -1.83333003520966,
    "latitude": 57.4166984558105,
    "regions": [
      "1215"
    ]
  },
  {
    "code": "110e2",
    "name": "Porthcawl",
    "updated_at": "2014-09-22T21:07:55.580096Z",
    "country": "gb",
    "parent": null,
    "longitude": -3.70000004768372,
    "latitude": 51.4832992553711,
    "regions": [
      "10e2"
    ]
  },
  {
    "code": "110e1",
    "name": "Porthleven",
    "updated_at": "2014-09-22T21:07:55.524521Z",
    "country": "gb",
    "parent": null,
    "longitude": -5.31666994094849,
    "latitude": 50.0833015441895,
    "regions": [
      "118b"
    ]
  },
  {
    "code": "110e0",
    "name": "Porthmadog",
    "updated_at": "2014-09-22T21:07:55.509526Z",
    "country": "gb",
    "parent": null,
    "longitude": -4.11667013168335,
    "latitude": 52.9333000183105,
    "regions": [
      "120e"
    ]
  },
  {
    "code": "110df",
    "name": "Porthscatho",
    "updated_at": "2014-09-22T21:07:55.495004Z",
    "country": "gb",
    "parent": null,
    "longitude": -4.98332977294922,
    "latitude": 50.1833000183105,
    "regions": [
      "118b"
    ]
  },
  {
    "code": "110de",
    "name": "Port Isaac",
    "updated_at": "2014-09-22T21:07:55.480195Z",
    "country": "gb",
    "parent": null,
    "longitude": -4.82898998260498,
    "latitude": 50.5929985046387,
    "regions": [
      "118b"
    ]
  },
  {
    "code": "110dd",
    "name": "Portishead",
    "updated_at": "2014-09-22T21:07:55.464195Z",
    "country": "gb",
    "parent": null,
    "longitude": -2.7666699886322,
    "latitude": 51.4667015075684,
    "regions": [
      "118f"
    ]
  },
  {
    "code": "110dc",
    "name": "Portlethen",
    "updated_at": "2014-09-22T21:07:55.433968Z",
    "country": "gb",
    "parent": null,
    "longitude": -2.13356995582581,
    "latitude": 57.0597991943359,
    "regions": [
      "1215"
    ]
  },
  {
    "code": "110db",
    "name": "Portloe",
    "updated_at": "2014-09-22T21:07:55.419012Z",
    "country": "gb",
    "parent": null,
    "longitude": -4.89758014678955,
    "latitude": 50.2183990478516,
    "regions": [
      "118b"
    ]
  },
  {
    "code": "110da",
    "name": "Port of Menteith",
    "updated_at": "2014-09-22T21:07:55.356569Z",
    "country": "gb",
    "parent": null,
    "longitude": -4.28466987609863,
    "latitude": 56.1851997375488,
    "regions": [
      "1217",
      "15e5"
    ]
  },
  {
    "code": "110d9",
    "name": "Portpatrick",
    "updated_at": "2014-09-22T21:07:55.333313Z",
    "country": "gb",
    "parent": null,
    "longitude": -5.11671018600464,
    "latitude": 54.8429985046387,
    "regions": [
      "1213"
    ]
  },
  {
    "code": "110d8",
    "name": "Portreath",
    "updated_at": "2014-09-22T21:07:55.304987Z",
    "country": "gb",
    "parent": null,
    "longitude": -5.30000019073486,
    "latitude": 50.2667007446289,
    "regions": []
  },
  {
    "code": "110d7",
    "name": "Portree",
    "updated_at": "2014-09-22T21:07:55.285533Z",
    "country": "gb",
    "parent": null,
    "longitude": -6.19457006454468,
    "latitude": 57.4138984680176,
    "regions": [
      "126d",
      "133f"
    ]
  },
  {
    "code": "110d6",
    "name": "Portrush",
    "updated_at": "2014-09-22T21:07:55.261237Z",
    "country": "gb",
    "parent": null,
    "longitude": -6.65291023254395,
    "latitude": 55.1960983276367,
    "regions": [
      "1218"
    ]
  },
  {
    "code": "110d5",
    "name": "Portskerra",
    "updated_at": "2014-09-22T21:07:55.241725Z",
    "country": "gb",
    "parent": null,
    "longitude": -3.93333005905151,
    "latitude": 58.5666999816895,
    "regions": [
      "133f"
    ]
  },
  {
    "code": "110d4",
    "name": "Portsmouth",
    "updated_at": "2014-09-22T21:07:55.225790Z",
    "country": "gb",
    "parent": null,
    "longitude": -1.09116268157959,
    "latitude": 50.7986221313477,
    "regions": [
      "10db"
    ]
  },
  {
    "code": "110d3",
    "name": "Portsoy",
    "updated_at": "2014-09-22T21:07:55.209506Z",
    "country": "gb",
    "parent": null,
    "longitude": -2.68333005905151,
    "latitude": 57.6833000183105,
    "regions": [
      "1215"
    ]
  },
  {
    "code": "110d2",
    "name": "Portstewart",
    "updated_at": "2014-09-22T21:07:55.193192Z",
    "country": "gb",
    "parent": null,
    "longitude": -6.69999980926514,
    "latitude": 55.1666984558105,
    "regions": [
      "121c"
    ]
  },
  {
    "code": "110d1",
    "name": "Port Sunlight",
    "updated_at": "2014-09-22T21:07:55.176029Z",
    "country": "gb",
    "parent": null,
    "longitude": -2.9833300113678,
    "latitude": 53.3333015441895,
    "regions": [
      "1331"
    ]
  },
  {
    "code": "110d0",
    "name": "Port Talbot",
    "updated_at": "2014-09-22T21:07:55.159328Z",
    "country": "gb",
    "parent": null,
    "longitude": -3.78332996368408,
    "latitude": 51.5999984741211,
    "regions": [
      "10e2"
    ]
  },
  {
    "code": "110cf",
    "name": "Port William",
    "updated_at": "2014-09-22T21:07:55.142864Z",
    "country": "gb",
    "parent": null,
    "longitude": -4.57892847061157,
    "latitude": 54.7600059509277,
    "regions": [
      "1213"
    ]
  },
  {
    "code": "110ce",
    "name": "Postbridge",
    "updated_at": "2014-09-22T21:07:55.123533Z",
    "country": "gb",
    "parent": null,
    "longitude": -3.90000009536743,
    "latitude": 50.5999984741211,
    "regions": [
      "118d"
    ]
  },
  {
    "code": "110cd",
    "name": "Potters Bar",
    "updated_at": "2014-09-22T21:07:55.058303Z",
    "country": "gb",
    "parent": null,
    "longitude": -0.166666999459267,
    "latitude": 51.6833000183105,
    "regions": [
      "120c"
    ]
  },
  {
    "code": "110cc",
    "name": "Potton",
    "updated_at": "2014-09-22T21:07:55.032231Z",
    "country": "gb",
    "parent": null,
    "longitude": -0.200000002980232,
    "latitude": 52.11669921875,
    "regions": [
      "1206"
    ]
  },
  {
    "code": "110cb",
    "name": "Poulton le Fylde",
    "updated_at": "2014-09-22T21:07:54.970844Z",
    "country": "gb",
    "parent": null,
    "longitude": -2.9833300113678,
    "latitude": 53.8333015441895,
    "regions": [
      "10de"
    ]
  },
  {
    "code": "110ca",
    "name": "Pounstock",
    "updated_at": "2014-09-22T21:07:54.947354Z",
    "country": "gb",
    "parent": null,
    "longitude": -4.55000019073486,
    "latitude": 50.7667007446289,
    "regions": [
      "118b"
    ]
  },
  {
    "code": "110c9",
    "name": "Powfoot",
    "updated_at": "2014-09-22T21:07:54.914684Z",
    "country": "gb",
    "parent": null,
    "longitude": -3.33332991600037,
    "latitude": 54.9832992553711,
    "regions": [
      "1213"
    ]
  },
  {
    "code": "110c8",
    "name": "Powick",
    "updated_at": "2014-09-22T21:07:54.898548Z",
    "country": "gb",
    "parent": null,
    "longitude": -2.25,
    "latitude": 52.1666984558105,
    "regions": [
      "10e4"
    ]
  },
  {
    "code": "110c7",
    "name": "Prescot",
    "updated_at": "2014-09-22T21:07:54.861071Z",
    "country": "gb",
    "parent": null,
    "longitude": -2.79999995231628,
    "latitude": 53.4166984558105,
    "regions": [
      "1331"
    ]
  },
  {
    "code": "110c6",
    "name": "Prestatyn",
    "updated_at": "2014-09-22T21:07:54.844311Z",
    "country": "gb",
    "parent": null,
    "longitude": -3.41667008399963,
    "latitude": 53.3333015441895,
    "regions": [
      "1211"
    ]
  },
  {
    "code": "110c5",
    "name": "Prestbury",
    "updated_at": "2014-09-22T21:07:54.825915Z",
    "country": "gb",
    "parent": null,
    "longitude": -2.15000009536743,
    "latitude": 53.2832984924316,
    "regions": [
      "11ae"
    ]
  },
  {
    "code": "110c4",
    "name": "Presteign",
    "updated_at": "2016-02-09T09:32:30.018894Z",
    "country": "gb",
    "parent": null,
    "longitude": -3.00714993476868,
    "latitude": 52.2729988098145,
    "regions": [
      "120d"
    ]
  },
  {
    "code": "110c3",
    "name": "Preston",
    "updated_at": "2014-09-22T21:07:54.756955Z",
    "country": "gb",
    "parent": null,
    "longitude": -2.70469999313354,
    "latitude": 53.7612991333008,
    "regions": [
      "10de"
    ]
  },
  {
    "code": "110c2",
    "name": "Preston",
    "updated_at": "2014-09-22T21:07:54.722124Z",
    "country": "gb",
    "parent": null,
    "longitude": -1.70000004768372,
    "latitude": 55.5167007446289,
    "regions": [
      "10df"
    ]
  },
  {
    "code": "110c1",
    "name": "Prestwick",
    "updated_at": "2014-09-22T21:07:54.662293Z",
    "country": "gb",
    "parent": null,
    "longitude": -4.61364650726318,
    "latitude": 55.4952735900879,
    "regions": [
      "1212",
      "121e"
    ]
  },
  {
    "code": "110c0",
    "name": "Priston",
    "updated_at": "2014-09-22T21:07:54.595651Z",
    "country": "gb",
    "parent": null,
    "longitude": -2.45000004768372,
    "latitude": 51.3499984741211,
    "regions": [
      "118f"
    ]
  },
  {
    "code": "110bf",
    "name": "Privett",
    "updated_at": "2014-09-22T21:07:54.577168Z",
    "country": "gb",
    "parent": null,
    "longitude": -1.03332996368408,
    "latitude": 51.0332984924316,
    "regions": [
      "10db"
    ]
  },
  {
    "code": "110be",
    "name": "Probus",
    "updated_at": "2014-09-22T21:07:54.554796Z",
    "country": "gb",
    "parent": null,
    "longitude": -4.94999980926514,
    "latitude": 50.2832984924316,
    "regions": [
      "118b"
    ]
  },
  {
    "code": "110bd",
    "name": "Pudsey",
    "updated_at": "2014-09-22T21:07:51.156580Z",
    "country": "gb",
    "parent": null,
    "longitude": -1.66666996479034,
    "latitude": 53.7832984924316,
    "regions": [
      "132f"
    ]
  },
  {
    "code": "110bc",
    "name": "Pulborough",
    "updated_at": "2014-09-22T21:07:51.130214Z",
    "country": "gb",
    "parent": null,
    "longitude": -0.516667008399963,
    "latitude": 50.9500007629395,
    "regions": [
      "1284"
    ]
  },
  {
    "code": "110bb",
    "name": "Pulford",
    "updated_at": "2014-09-22T21:07:51.095116Z",
    "country": "gb",
    "parent": null,
    "longitude": -2.93411993980408,
    "latitude": 53.1232986450195,
    "regions": [
      "11ae"
    ]
  },
  {
    "code": "110ba",
    "name": "Puncknowle",
    "updated_at": "2014-09-22T21:07:51.038305Z",
    "country": "gb",
    "parent": null,
    "longitude": -2.65000009536743,
    "latitude": 50.6833000183105,
    "regions": [
      "10d8"
    ]
  },
  {
    "code": "110b9",
    "name": "Purley",
    "updated_at": "2014-09-22T21:07:51.003669Z",
    "country": "gb",
    "parent": null,
    "longitude": -0.111065000295639,
    "latitude": 51.3370018005371,
    "regions": [
      "120c"
    ]
  },
  {
    "code": "110b8",
    "name": "Pwllheli",
    "updated_at": "2014-09-22T21:07:50.951756Z",
    "country": "gb",
    "parent": null,
    "longitude": -4.41666984558105,
    "latitude": 52.88330078125,
    "regions": [
      "120e"
    ]
  },
  {
    "code": "110b7",
    "name": "Pylle",
    "updated_at": "2014-09-22T21:07:50.927583Z",
    "country": "gb",
    "parent": null,
    "longitude": -2.56666994094849,
    "latitude": 51.13330078125,
    "regions": [
      "118f"
    ]
  },
  {
    "code": "110b6",
    "name": "Queensferry",
    "updated_at": "2014-09-22T21:07:50.858363Z",
    "country": "gb",
    "parent": null,
    "longitude": -3.40000009536743,
    "latitude": 55.9832992553711,
    "regions": [
      "10d9"
    ]
  },
  {
    "code": "110b5",
    "name": "Radcliffe",
    "updated_at": "2014-09-22T21:07:50.792376Z",
    "country": "gb",
    "parent": null,
    "longitude": -2.32909989356995,
    "latitude": 53.5625991821289,
    "regions": [
      "121f"
    ]
  },
  {
    "code": "110b4",
    "name": "Radlett",
    "updated_at": "2014-09-22T21:07:50.766826Z",
    "country": "gb",
    "parent": null,
    "longitude": -0.31666699051857,
    "latitude": 51.6833000183105,
    "regions": [
      "11af"
    ]
  },
  {
    "code": "110b3",
    "name": "Radstock",
    "updated_at": "2014-09-22T21:07:50.749110Z",
    "country": "gb",
    "parent": null,
    "longitude": -2.40000009536743,
    "latitude": 51.2832984924316,
    "regions": [
      "118f"
    ]
  },
  {
    "code": "110b2",
    "name": "Raglan",
    "updated_at": "2014-09-22T21:07:50.731352Z",
    "country": "gb",
    "parent": null,
    "longitude": -2.88333010673523,
    "latitude": 51.7667007446289,
    "regions": [
      "120f"
    ]
  },
  {
    "code": "110b1",
    "name": "Rainham",
    "updated_at": "2014-09-22T21:07:50.713138Z",
    "country": "gb",
    "parent": null,
    "longitude": 0.600000023841858,
    "latitude": 51.3499984741211,
    "regions": []
  },
  {
    "code": "110b0",
    "name": "Rainham",
    "updated_at": "2014-09-22T21:07:50.694707Z",
    "country": "gb",
    "parent": null,
    "longitude": 0.183332994580269,
    "latitude": 51.5,
    "regions": [
      "120c"
    ]
  },
  {
    "code": "110af",
    "name": "Rainhill",
    "updated_at": "2014-09-22T21:07:50.675589Z",
    "country": "gb",
    "parent": null,
    "longitude": -2.7666699886322,
    "latitude": 53.4000015258789,
    "regions": [
      "1331"
    ]
  },
  {
    "code": "110ae",
    "name": "Ramsbottom",
    "updated_at": "2014-09-22T21:07:50.648613Z",
    "country": "gb",
    "parent": null,
    "longitude": -2.31666994094849,
    "latitude": 53.63330078125,
    "regions": [
      "10de"
    ]
  },
  {
    "code": "110ad",
    "name": "Ramsey",
    "updated_at": "2014-09-22T21:07:50.621385Z",
    "country": "gb",
    "parent": null,
    "longitude": -0.116667002439499,
    "latitude": 52.4500007629395,
    "regions": [
      "1203"
    ]
  },
  {
    "code": "110ac",
    "name": "Ramsgate",
    "updated_at": "2014-09-22T21:07:50.589775Z",
    "country": "gb",
    "parent": null,
    "longitude": 1.41894996166229,
    "latitude": 51.3348999023438,
    "regions": [
      "10dd"
    ]
  },
  {
    "code": "110ab",
    "name": "Randalstown",
    "updated_at": "2014-09-22T21:07:50.554751Z",
    "country": "gb",
    "parent": null,
    "longitude": -6.30000019073486,
    "latitude": 54.75,
    "regions": [
      "1218"
    ]
  },
  {
    "code": "110aa",
    "name": "Ravenglass",
    "updated_at": "2014-09-22T21:07:50.456877Z",
    "country": "gb",
    "parent": null,
    "longitude": -3.40000009536743,
    "latitude": 54.3499984741211,
    "regions": [
      "10d7"
    ]
  },
  {
    "code": "110a9",
    "name": "Ravenscar",
    "updated_at": "2014-09-22T21:07:50.439783Z",
    "country": "gb",
    "parent": null,
    "longitude": -0.50388902425766,
    "latitude": 54.4043998718262,
    "regions": [
      "132d"
    ]
  },
  {
    "code": "110a8",
    "name": "Rayleigh",
    "updated_at": "2014-09-22T21:07:50.381461Z",
    "country": "gb",
    "parent": null,
    "longitude": 0.616666972637177,
    "latitude": 51.5833015441895,
    "regions": [
      "10da"
    ]
  },
  {
    "code": "110a7",
    "name": "Reading",
    "updated_at": "2014-09-22T21:07:50.355347Z",
    "country": "gb",
    "parent": null,
    "longitude": -0.973660469055176,
    "latitude": 51.4538040161133,
    "regions": [
      "120b"
    ]
  },
  {
    "code": "110a6",
    "name": "Redcar",
    "updated_at": "2014-09-22T21:07:50.323712Z",
    "country": "gb",
    "parent": null,
    "longitude": -1.05944001674652,
    "latitude": 54.6074981689453,
    "regions": [
      "132d"
    ]
  },
  {
    "code": "110a5",
    "name": "Redditch",
    "updated_at": "2014-09-22T21:07:50.288342Z",
    "country": "gb",
    "parent": null,
    "longitude": -1.93333005905151,
    "latitude": 52.2999992370605,
    "regions": [
      "10e4"
    ]
  },
  {
    "code": "110a4",
    "name": "Redhill",
    "updated_at": "2014-09-22T21:07:50.253254Z",
    "country": "gb",
    "parent": null,
    "longitude": -0.166666999459267,
    "latitude": 51.2332992553711,
    "regions": [
      "10e1"
    ]
  },
  {
    "code": "110a3",
    "name": "Redhill",
    "updated_at": "2014-09-22T21:07:50.232213Z",
    "country": "gb",
    "parent": null,
    "longitude": -2.71667003631592,
    "latitude": 51.36669921875,
    "regions": [
      "118f"
    ]
  },
  {
    "code": "110a2",
    "name": "Redlynch",
    "updated_at": "2014-09-22T21:07:50.201078Z",
    "country": "gb",
    "parent": null,
    "longitude": -1.71667003631592,
    "latitude": 50.9832992553711,
    "regions": [
      "120a"
    ]
  },
  {
    "code": "110a1",
    "name": "Redmile",
    "updated_at": "2014-09-22T21:07:50.184065Z",
    "country": "gb",
    "parent": null,
    "longitude": -0.800000011920929,
    "latitude": 52.9000015258789,
    "regions": [
      "1191"
    ]
  },
  {
    "code": "110a0",
    "name": "Redmire",
    "updated_at": "2014-09-22T21:07:50.167496Z",
    "country": "gb",
    "parent": null,
    "longitude": -1.91666996479034,
    "latitude": 54.3166999816895,
    "regions": [
      "132d"
    ]
  },
  {
    "code": "1109f",
    "name": "Redruth",
    "updated_at": "2014-09-22T21:07:50.147653Z",
    "country": "gb",
    "parent": null,
    "longitude": -5.23332977294922,
    "latitude": 50.2332992553711,
    "regions": [
      "118b"
    ]
  },
  {
    "code": "1109e",
    "name": "Reeth",
    "updated_at": "2014-09-22T21:07:50.093290Z",
    "country": "gb",
    "parent": null,
    "longitude": -1.93333005905151,
    "latitude": 54.38330078125,
    "regions": [
      "132d"
    ]
  },
  {
    "code": "1109d",
    "name": "Reigate",
    "updated_at": "2014-09-22T21:07:50.064144Z",
    "country": "gb",
    "parent": null,
    "longitude": -0.216666996479034,
    "latitude": 51.2332992553711,
    "regions": [
      "10e1"
    ]
  },
  {
    "code": "1109c",
    "name": "Renfrew",
    "updated_at": "2014-09-22T21:07:49.972924Z",
    "country": "gb",
    "parent": null,
    "longitude": -4.36667013168335,
    "latitude": 55.86669921875,
    "regions": [
      "1212"
    ]
  },
  {
    "code": "1109b",
    "name": "Reynoldston",
    "updated_at": "2014-09-22T21:07:49.937136Z",
    "country": "gb",
    "parent": null,
    "longitude": -4.19999980926514,
    "latitude": 51.5833015441895,
    "regions": [
      "10e2"
    ]
  },
  {
    "code": "1109a",
    "name": "Rhayader",
    "updated_at": "2014-09-22T21:07:49.918592Z",
    "country": "gb",
    "parent": null,
    "longitude": -3.5,
    "latitude": 52.3166999816895,
    "regions": [
      "120d"
    ]
  },
  {
    "code": "11099",
    "name": "Rhoose",
    "updated_at": "2014-09-22T21:07:49.879232Z",
    "country": "gb",
    "parent": null,
    "longitude": -3.34999990463257,
    "latitude": 51.38330078125,
    "regions": [
      "10e2"
    ]
  },
  {
    "code": "11098",
    "name": "Rhs-on-Sea",
    "updated_at": "2014-09-22T21:07:49.828672Z",
    "country": "gb",
    "parent": null,
    "longitude": -3.75,
    "latitude": 53.2999992370605,
    "regions": [
      "120e",
      "1211"
    ]
  },
  {
    "code": "11097",
    "name": "Rhu",
    "updated_at": "2014-09-22T21:07:49.795073Z",
    "country": "gb",
    "parent": null,
    "longitude": -4.76667022705078,
    "latitude": 56.0167007446289,
    "regions": [
      "1212",
      "133e"
    ]
  },
  {
    "code": "11096",
    "name": "Rhuddlan",
    "updated_at": "2014-09-22T21:07:49.759946Z",
    "country": "gb",
    "parent": null,
    "longitude": -3.46667003631592,
    "latitude": 53.2832984924316,
    "regions": [
      "1211"
    ]
  },
  {
    "code": "11095",
    "name": "Rhyl",
    "updated_at": "2014-09-22T21:07:49.724402Z",
    "country": "gb",
    "parent": null,
    "longitude": -3.5,
    "latitude": 53.3166999816895,
    "regions": [
      "1211"
    ]
  },
  {
    "code": "11094",
    "name": "Richmond",
    "updated_at": "2014-09-22T21:07:49.656816Z",
    "country": "gb",
    "parent": null,
    "longitude": -1.7333300113678,
    "latitude": 54.4000015258789,
    "regions": [
      "132d"
    ]
  },
  {
    "code": "11093",
    "name": "Richmond upon Thames",
    "updated_at": "2014-09-22T21:07:49.640115Z",
    "country": "gb",
    "parent": null,
    "longitude": -0.302639007568359,
    "latitude": 51.4612998962402,
    "regions": [
      "120c"
    ]
  },
  {
    "code": "11092",
    "name": "Rickinghall",
    "updated_at": "2014-09-22T21:07:49.616005Z",
    "country": "gb",
    "parent": null,
    "longitude": 1.0,
    "latitude": 52.3333015441895,
    "regions": [
      "1205"
    ]
  },
  {
    "code": "11091",
    "name": "Rickmansworth",
    "updated_at": "2014-09-22T21:07:49.588999Z",
    "country": "gb",
    "parent": null,
    "longitude": -0.466666996479034,
    "latitude": 51.63330078125,
    "regions": [
      "11af"
    ]
  },
  {
    "code": "11090",
    "name": "Ringsend",
    "updated_at": "2014-09-22T21:07:49.461232Z",
    "country": "gb",
    "parent": null,
    "longitude": -6.75,
    "latitude": 55.0332984924316,
    "regions": [
      "121c"
    ]
  },
  {
    "code": "1108f",
    "name": "Ringwood",
    "updated_at": "2014-09-22T21:07:49.427330Z",
    "country": "gb",
    "parent": null,
    "longitude": -1.78332996368408,
    "latitude": 50.8499984741211,
    "regions": [
      "10db"
    ]
  },
  {
    "code": "1108e",
    "name": "Ripley",
    "updated_at": "2014-09-22T21:07:49.408759Z",
    "country": "gb",
    "parent": null,
    "longitude": -1.39999997615814,
    "latitude": 53.0332984924316,
    "regions": [
      "11ac"
    ]
  },
  {
    "code": "1108d",
    "name": "Ripon",
    "updated_at": "2014-09-22T21:07:49.390663Z",
    "country": "gb",
    "parent": null,
    "longitude": -1.52435004711151,
    "latitude": 54.1338996887207,
    "regions": [
      "132d"
    ]
  },
  {
    "code": "1108c",
    "name": "Ripple",
    "updated_at": "2014-09-22T21:07:49.372453Z",
    "country": "gb",
    "parent": null,
    "longitude": -2.18333005905151,
    "latitude": 52.0332984924316,
    "regions": [
      "10e4"
    ]
  },
  {
    "code": "1108b",
    "name": "Ripponden",
    "updated_at": "2014-09-22T21:07:49.348167Z",
    "country": "gb",
    "parent": null,
    "longitude": -1.95000004768372,
    "latitude": 53.6666984558105,
    "regions": [
      "132f"
    ]
  },
  {
    "code": "1108a",
    "name": "Risby",
    "updated_at": "2014-09-22T21:07:49.322412Z",
    "country": "gb",
    "parent": null,
    "longitude": 0.633333027362823,
    "latitude": 52.2667007446289,
    "regions": [
      "1205"
    ]
  },
  {
    "code": "11089",
    "name": "Risley",
    "updated_at": "2014-09-22T21:07:49.294599Z",
    "country": "gb",
    "parent": null,
    "longitude": -1.31666994094849,
    "latitude": 52.9166984558105,
    "regions": [
      "11ac"
    ]
  },
  {
    "code": "11088",
    "name": "Rivenhall",
    "updated_at": "2014-09-22T21:07:49.260218Z",
    "country": "gb",
    "parent": null,
    "longitude": 0.666666984558105,
    "latitude": 51.8333015441895,
    "regions": [
      "10da"
    ]
  },
  {
    "code": "11087",
    "name": "Roade",
    "updated_at": "2014-09-22T21:07:49.197885Z",
    "country": "gb",
    "parent": null,
    "longitude": -0.883333027362823,
    "latitude": 52.1500015258789,
    "regions": [
      "11ad"
    ]
  },
  {
    "code": "11086",
    "name": "Robertsbridge",
    "updated_at": "2014-09-22T21:07:49.181279Z",
    "country": "gb",
    "parent": null,
    "longitude": 0.466666996479034,
    "latitude": 50.9832992553711,
    "regions": [
      "129e"
    ]
  },
  {
    "code": "11085",
    "name": "Roch",
    "updated_at": "2014-09-22T21:07:49.147761Z",
    "country": "gb",
    "parent": null,
    "longitude": -5.08333015441895,
    "latitude": 51.8499984741211,
    "regions": [
      "1210"
    ]
  },
  {
    "code": "11084",
    "name": "Rochdale",
    "updated_at": "2014-09-22T21:07:49.130602Z",
    "country": "gb",
    "parent": null,
    "longitude": -2.15000009536743,
    "latitude": 53.61669921875,
    "regions": [
      "121f"
    ]
  },
  {
    "code": "11083",
    "name": "Rochester",
    "updated_at": "2014-09-22T21:07:49.086613Z",
    "country": "gb",
    "parent": null,
    "longitude": 0.516667008399963,
    "latitude": 51.38330078125,
    "regions": [
      "10dd"
    ]
  },
  {
    "code": "11082",
    "name": "Romaldkirk",
    "updated_at": "2014-09-22T21:07:48.896025Z",
    "country": "gb",
    "parent": null,
    "longitude": -2.01054000854492,
    "latitude": 54.5937004089355,
    "regions": [
      "11fd"
    ]
  },
  {
    "code": "11081",
    "name": "Romford",
    "updated_at": "2014-09-22T21:07:48.877027Z",
    "country": "gb",
    "parent": null,
    "longitude": 0.200000002980232,
    "latitude": 51.5833015441895,
    "regions": [
      "120c"
    ]
  },
  {
    "code": "11080",
    "name": "Romsey",
    "updated_at": "2014-09-22T21:07:48.850188Z",
    "country": "gb",
    "parent": null,
    "longitude": -1.5,
    "latitude": 50.9832992553711,
    "regions": [
      "10db"
    ]
  },
  {
    "code": "1107f",
    "name": "Rookley",
    "updated_at": "2014-09-22T21:07:48.826107Z",
    "country": "gb",
    "parent": null,
    "longitude": -1.28332996368408,
    "latitude": 50.6500015258789,
    "regions": [
      "10dc"
    ]
  },
  {
    "code": "1107e",
    "name": "Rooks Bridge",
    "updated_at": "2014-09-22T21:07:48.798019Z",
    "country": "gb",
    "parent": null,
    "longitude": -2.91667008399963,
    "latitude": 51.2667007446289,
    "regions": [
      "118f"
    ]
  },
  {
    "code": "1107d",
    "name": "Roose",
    "updated_at": "2014-09-22T21:07:48.762511Z",
    "country": "gb",
    "parent": null,
    "longitude": -3.20000004768372,
    "latitude": 54.11669921875,
    "regions": [
      "10d7"
    ]
  },
  {
    "code": "1107c",
    "name": "Rossett",
    "updated_at": "2014-09-22T21:07:48.601791Z",
    "country": "gb",
    "parent": null,
    "longitude": -2.93333005905151,
    "latitude": 53.0999984741211,
    "regions": [
      "1211"
    ]
  },
  {
    "code": "1107b",
    "name": "Ross on Wye",
    "updated_at": "2014-09-22T21:07:48.548442Z",
    "country": "gb",
    "parent": null,
    "longitude": -2.56666994094849,
    "latitude": 51.9166984558105,
    "regions": [
      "1209"
    ]
  },
  {
    "code": "1107a",
    "name": "Rosthwaite",
    "updated_at": "2014-09-22T21:07:48.517398Z",
    "country": "gb",
    "parent": null,
    "longitude": -3.14673900604248,
    "latitude": 54.5240707397461,
    "regions": [
      "10d7"
    ]
  },
  {
    "code": "11079",
    "name": "Rostrevor",
    "updated_at": "2014-09-22T21:07:48.481382Z",
    "country": "gb",
    "parent": null,
    "longitude": -6.19999980926514,
    "latitude": 54.0999984741211,
    "regions": [
      "121a"
    ]
  },
  {
    "code": "11078",
    "name": "Rosyth",
    "updated_at": "2014-09-22T21:07:48.445469Z",
    "country": "gb",
    "parent": null,
    "longitude": -3.43333005905151,
    "latitude": 56.0332984924316,
    "regions": [
      "1216"
    ]
  },
  {
    "code": "11077",
    "name": "Rothbury",
    "updated_at": "2014-09-22T21:07:48.425247Z",
    "country": "gb",
    "parent": null,
    "longitude": -1.89999997615814,
    "latitude": 55.3166999816895,
    "regions": [
      "10df"
    ]
  },
  {
    "code": "11076",
    "name": "Rotherham",
    "updated_at": "2014-09-22T21:07:48.407686Z",
    "country": "gb",
    "parent": null,
    "longitude": -1.35000002384186,
    "latitude": 53.4333000183105,
    "regions": [
      "1330"
    ]
  },
  {
    "code": "11075",
    "name": "Rothes",
    "updated_at": "2014-09-22T21:07:48.390156Z",
    "country": "gb",
    "parent": null,
    "longitude": -3.21667003631592,
    "latitude": 57.5167007446289,
    "regions": [
      "1215"
    ]
  },
  {
    "code": "11074",
    "name": "Rothesay",
    "updated_at": "2014-09-22T21:07:48.371735Z",
    "country": "gb",
    "parent": null,
    "longitude": -5.06666994094849,
    "latitude": 55.8333015441895,
    "regions": [
      "1212",
      "133e",
      "1348"
    ]
  },
  {
    "code": "11073",
    "name": "Rothley",
    "updated_at": "2014-09-22T21:07:48.351656Z",
    "country": "gb",
    "parent": null,
    "longitude": -1.13332998752594,
    "latitude": 52.7000007629395,
    "regions": [
      "1191"
    ]
  },
  {
    "code": "11072",
    "name": "Rothwell",
    "updated_at": "2014-09-22T21:07:48.329854Z",
    "country": "gb",
    "parent": null,
    "longitude": -0.800000011920929,
    "latitude": 52.4166984558105,
    "regions": [
      "11ad"
    ]
  },
  {
    "code": "11071",
    "name": "Rottingdean",
    "updated_at": "2014-09-22T21:07:48.303082Z",
    "country": "gb",
    "parent": null,
    "longitude": -0.0500000007450581,
    "latitude": 50.7999992370605,
    "regions": [
      "129e"
    ]
  },
  {
    "code": "11070",
    "name": "Rousky",
    "updated_at": "2014-09-22T21:07:48.208184Z",
    "country": "gb",
    "parent": null,
    "longitude": -7.15000009536743,
    "latitude": 54.7167015075684,
    "regions": [
      "121d"
    ]
  },
  {
    "code": "1106f",
    "name": "Rowardennan",
    "updated_at": "2014-09-22T21:07:48.150481Z",
    "country": "gb",
    "parent": null,
    "longitude": -4.63332986831665,
    "latitude": 56.13330078125,
    "regions": [
      "1212"
    ]
  },
  {
    "code": "1106e",
    "name": "Rowlands Castle",
    "updated_at": "2014-09-22T21:07:48.113811Z",
    "country": "gb",
    "parent": null,
    "longitude": -0.949999988079071,
    "latitude": 50.88330078125,
    "regions": [
      "1284"
    ]
  },
  {
    "code": "1106d",
    "name": "Royal Tunbridge Wells",
    "updated_at": "2014-09-22T21:07:48.093921Z",
    "country": "gb",
    "parent": null,
    "longitude": 0.263806521892548,
    "latitude": 51.1329910871122,
    "regions": [
      "10dd"
    ]
  },
  {
    "code": "1106c",
    "name": "Roybridge",
    "updated_at": "2014-09-22T21:07:48.074059Z",
    "country": "gb",
    "parent": null,
    "longitude": -4.84999990463257,
    "latitude": 56.88330078125,
    "regions": [
      "133f"
    ]
  },
  {
    "code": "1106b",
    "name": "Roydon",
    "updated_at": "2014-09-22T21:07:48.050177Z",
    "country": "gb",
    "parent": null,
    "longitude": 0.0333333015441895,
    "latitude": 51.7667007446289,
    "regions": [
      "11af"
    ]
  },
  {
    "code": "1106a",
    "name": "Royston",
    "updated_at": "2014-09-22T21:07:47.996326Z",
    "country": "gb",
    "parent": null,
    "longitude": -0.0333333015441895,
    "latitude": 52.0499992370605,
    "regions": [
      "11af"
    ]
  },
  {
    "code": "11069",
    "name": "Rubery",
    "updated_at": "2014-09-22T21:07:47.958767Z",
    "country": "gb",
    "parent": null,
    "longitude": -2.0166699886322,
    "latitude": 52.4000015258789,
    "regions": [
      "1242"
    ]
  },
  {
    "code": "11068",
    "name": "Rufford",
    "updated_at": "2014-09-22T21:07:47.853068Z",
    "country": "gb",
    "parent": null,
    "longitude": -2.83332991600037,
    "latitude": 53.61669921875,
    "regions": [
      "10de"
    ]
  },
  {
    "code": "11067",
    "name": "Rugby",
    "updated_at": "2014-09-22T21:07:47.834818Z",
    "country": "gb",
    "parent": null,
    "longitude": -1.25,
    "latitude": 52.36669921875,
    "regions": [
      "10e3"
    ]
  },
  {
    "code": "11066",
    "name": "Rugeley",
    "updated_at": "2014-09-22T21:07:47.816615Z",
    "country": "gb",
    "parent": null,
    "longitude": -1.93333005905151,
    "latitude": 52.7667007446289,
    "regions": [
      "1200"
    ]
  },
  {
    "code": "11065",
    "name": "Ruislip",
    "updated_at": "2014-09-22T21:07:47.798127Z",
    "country": "gb",
    "parent": null,
    "longitude": -0.416667014360428,
    "latitude": 51.5666999816895,
    "regions": [
      "120c"
    ]
  },
  {
    "code": "11064",
    "name": "Runcorn",
    "updated_at": "2014-09-22T21:07:47.742997Z",
    "country": "gb",
    "parent": null,
    "longitude": -2.75,
    "latitude": 53.3333015441895,
    "regions": [
      "11ae"
    ]
  },
  {
    "code": "11063",
    "name": "Runswick",
    "updated_at": "2014-09-22T21:07:47.714685Z",
    "country": "gb",
    "parent": null,
    "longitude": -0.75,
    "latitude": 54.5167007446289,
    "regions": [
      "132d"
    ]
  },
  {
    "code": "11062",
    "name": "Rusland",
    "updated_at": "2014-09-22T21:07:47.643126Z",
    "country": "gb",
    "parent": null,
    "longitude": -3.0,
    "latitude": 54.2832984924316,
    "regions": [
      "10d7"
    ]
  },
  {
    "code": "11061",
    "name": "Rusper",
    "updated_at": "2014-09-22T21:07:47.610427Z",
    "country": "gb",
    "parent": null,
    "longitude": -0.266667008399963,
    "latitude": 51.0999984741211,
    "regions": [
      "1284",
      "129e"
    ]
  },
  {
    "code": "11060",
    "name": "Ruthin",
    "updated_at": "2014-09-22T21:07:47.572644Z",
    "country": "gb",
    "parent": null,
    "longitude": -3.3092999458313,
    "latitude": 53.11669921875,
    "regions": [
      "1211"
    ]
  },
  {
    "code": "1105f",
    "name": "Ryde",
    "updated_at": "2014-09-22T21:07:47.533508Z",
    "country": "gb",
    "parent": null,
    "longitude": -1.16666996479034,
    "latitude": 50.7167015075684,
    "regions": [
      "10dc"
    ]
  },
  {
    "code": "1105e",
    "name": "Rye",
    "updated_at": "2014-09-22T21:07:47.513874Z",
    "country": "gb",
    "parent": null,
    "longitude": 0.733332991600037,
    "latitude": 50.9500007629395,
    "regions": [
      "129e"
    ]
  },
  {
    "code": "1105d",
    "name": "Rye Harbour",
    "updated_at": "2014-09-22T21:07:47.487206Z",
    "country": "gb",
    "parent": null,
    "longitude": 0.766667008399963,
    "latitude": 50.9333000183105,
    "regions": [
      "129e"
    ]
  },
  {
    "code": "1105c",
    "name": "Saffron Walden",
    "updated_at": "2014-09-22T21:07:47.396231Z",
    "country": "gb",
    "parent": null,
    "longitude": 0.25,
    "latitude": 52.0167007446289,
    "regions": [
      "10da"
    ]
  },
  {
    "code": "1105b",
    "name": "Saighton",
    "updated_at": "2014-09-22T21:07:47.361070Z",
    "country": "gb",
    "parent": null,
    "longitude": -2.83332991600037,
    "latitude": 53.1500015258789,
    "regions": [
      "11ae"
    ]
  },
  {
    "code": "1105a",
    "name": "St. Agnes ",
    "updated_at": "2014-09-22T21:07:47.331869Z",
    "country": "gb",
    "parent": null,
    "longitude": -5.21667003631592,
    "latitude": 50.3166999816895,
    "regions": [
      "118b"
    ]
  },
  {
    "code": "11059",
    "name": "Saint Albans",
    "updated_at": "2014-09-22T21:07:47.313919Z",
    "country": "gb",
    "parent": null,
    "longitude": -0.333332985639572,
    "latitude": 51.75,
    "regions": [
      "11af"
    ]
  },
  {
    "code": "11058",
    "name": "St Andrews",
    "updated_at": "2014-09-22T21:07:47.296327Z",
    "country": "gb",
    "parent": null,
    "longitude": -2.80082988739014,
    "latitude": 56.3333015441895,
    "regions": [
      "1216"
    ]
  },
  {
    "code": "11057",
    "name": "Saint Annes on the Sea",
    "updated_at": "2014-09-22T21:07:47.277820Z",
    "country": "gb",
    "parent": null,
    "longitude": -3.0166699886322,
    "latitude": 53.75,
    "regions": [
      "10de"
    ]
  },
  {
    "code": "11056",
    "name": "St Asaph",
    "updated_at": "2014-09-22T21:07:47.257675Z",
    "country": "gb",
    "parent": null,
    "longitude": -3.45000004768372,
    "latitude": 53.2667007446289,
    "regions": [
      "1211"
    ]
  },
  {
    "code": "11055",
    "name": "Saint Athans",
    "updated_at": "2014-09-22T21:07:47.237865Z",
    "country": "gb",
    "parent": null,
    "longitude": -3.41667008399963,
    "latitude": 51.38330078125,
    "regions": []
  },
  {
    "code": "11054",
    "name": "St Austell",
    "updated_at": "2014-09-22T21:07:47.217691Z",
    "country": "gb",
    "parent": null,
    "longitude": -4.78213977813721,
    "latitude": 50.3381996154785,
    "regions": [
      "118b"
    ]
  },
  {
    "code": "11053",
    "name": "St Bees",
    "updated_at": "2014-09-22T21:07:47.197752Z",
    "country": "gb",
    "parent": null,
    "longitude": -3.61666989326477,
    "latitude": 54.5,
    "regions": [
      "10d7"
    ]
  },
  {
    "code": "11052",
    "name": "Saint Boswells",
    "updated_at": "2014-09-22T21:07:47.176129Z",
    "country": "gb",
    "parent": null,
    "longitude": -2.65000009536743,
    "latitude": 55.5666999816895,
    "regions": [
      "1214"
    ]
  },
  {
    "code": "11051",
    "name": "Saint Catherines",
    "updated_at": "2014-09-22T21:07:47.155204Z",
    "country": "gb",
    "parent": null,
    "longitude": -5.03332996368408,
    "latitude": 56.2167015075684,
    "regions": [
      "1212",
      "133e"
    ]
  },
  {
    "code": "11050",
    "name": "Saint Clears",
    "updated_at": "2014-09-22T21:07:47.134291Z",
    "country": "gb",
    "parent": null,
    "longitude": -4.5,
    "latitude": 51.8166999816895,
    "regions": [
      "1210"
    ]
  },
  {
    "code": "1104f",
    "name": "Saint Columb Major",
    "updated_at": "2014-09-22T21:07:47.095361Z",
    "country": "gb",
    "parent": null,
    "longitude": -4.93333005905151,
    "latitude": 50.4333000183105,
    "regions": [
      "118b"
    ]
  },
  {
    "code": "1104e",
    "name": "St. Davids",
    "updated_at": "2014-09-22T21:07:47.056669Z",
    "country": "gb",
    "parent": null,
    "longitude": -5.26667022705078,
    "latitude": 51.88330078125,
    "regions": [
      "1210"
    ]
  },
  {
    "code": "1104d",
    "name": "Saint Eval",
    "updated_at": "2014-09-22T21:07:47.013448Z",
    "country": "gb",
    "parent": null,
    "longitude": -5.0,
    "latitude": 50.4667015075684,
    "regions": [
      "118b"
    ]
  },
  {
    "code": "1104c",
    "name": "Saint Fillans",
    "updated_at": "2014-09-22T21:07:46.974023Z",
    "country": "gb",
    "parent": null,
    "longitude": -4.11667013168335,
    "latitude": 56.38330078125,
    "regions": [
      "1220",
      "1349"
    ]
  },
  {
    "code": "1104b",
    "name": "Saint Helens",
    "updated_at": "2014-09-22T21:07:46.919189Z",
    "country": "gb",
    "parent": null,
    "longitude": -2.7333300113678,
    "latitude": 53.4500007629395,
    "regions": [
      "1331"
    ]
  },
  {
    "code": "1104a",
    "name": "Saint Hilary",
    "updated_at": "2014-09-22T21:07:46.901803Z",
    "country": "gb",
    "parent": null,
    "longitude": -5.41666984558105,
    "latitude": 50.11669921875,
    "regions": []
  },
  {
    "code": "11049",
    "name": "St Ives",
    "updated_at": "2014-09-22T21:07:46.883915Z",
    "country": "gb",
    "parent": null,
    "longitude": -5.47805976867676,
    "latitude": 50.2075004577637,
    "regions": [
      "118b"
    ]
  },
  {
    "code": "11048",
    "name": "St Ives",
    "updated_at": "2014-09-22T21:07:46.865832Z",
    "country": "gb",
    "parent": null,
    "longitude": -0.0758742988109589,
    "latitude": 52.3339004516602,
    "regions": [
      "1203"
    ]
  },
  {
    "code": "11047",
    "name": "St Just",
    "updated_at": "2014-09-22T21:07:46.845112Z",
    "country": "gb",
    "parent": null,
    "longitude": -5.68009996414185,
    "latitude": 50.1244010925293,
    "regions": [
      "118b"
    ]
  },
  {
    "code": "11046",
    "name": "Saint Leonards",
    "updated_at": "2014-09-22T21:07:46.816921Z",
    "country": "gb",
    "parent": null,
    "longitude": -1.85000002384186,
    "latitude": 50.8333015441895,
    "regions": [
      "10d8"
    ]
  },
  {
    "code": "11045",
    "name": "Saint Margarets at Cliffe",
    "updated_at": "2014-09-22T21:07:46.764656Z",
    "country": "gb",
    "parent": null,
    "longitude": 1.31666994094849,
    "latitude": 51.1500015258789,
    "regions": [
      "10dd"
    ]
  },
  {
    "code": "11044",
    "name": "Saint Mary Bourne",
    "updated_at": "2014-09-22T21:07:46.702768Z",
    "country": "gb",
    "parent": null,
    "longitude": -1.39999997615814,
    "latitude": 51.25,
    "regions": [
      "10db"
    ]
  },
  {
    "code": "11043",
    "name": "Saint Mawes",
    "updated_at": "2014-09-22T21:07:46.678380Z",
    "country": "gb",
    "parent": null,
    "longitude": -5.01667022705078,
    "latitude": 50.1666984558105,
    "regions": [
      "118b"
    ]
  },
  {
    "code": "11042",
    "name": "St Mellion",
    "updated_at": "2014-09-22T21:07:46.659241Z",
    "country": "gb",
    "parent": null,
    "longitude": -4.26667022705078,
    "latitude": 50.4667015075684,
    "regions": [
      "118b"
    ]
  },
  {
    "code": "11041",
    "name": "Saint Neots",
    "updated_at": "2014-09-22T21:07:46.619523Z",
    "country": "gb",
    "parent": null,
    "longitude": -0.266667008399963,
    "latitude": 52.2167015075684,
    "regions": [
      "1203"
    ]
  },
  {
    "code": "11040",
    "name": "Salcombe",
    "updated_at": "2014-09-22T21:07:46.523695Z",
    "country": "gb",
    "parent": null,
    "longitude": -3.7666699886322,
    "latitude": 50.2332992553711,
    "regions": [
      "118d"
    ]
  },
  {
    "code": "1103f",
    "name": "Sale",
    "updated_at": "2014-09-22T21:07:46.493729Z",
    "country": "gb",
    "parent": null,
    "longitude": -2.29999995231628,
    "latitude": 53.4166984558105,
    "regions": [
      "121f"
    ]
  },
  {
    "code": "1103e",
    "name": "Salford",
    "updated_at": "2014-09-22T21:07:46.427908Z",
    "country": "gb",
    "parent": null,
    "longitude": -0.638580024242401,
    "latitude": 52.0424003601074,
    "regions": [
      "1206"
    ]
  },
  {
    "code": "1103d",
    "name": "Salford",
    "updated_at": "2014-09-22T21:07:46.407591Z",
    "country": "gb",
    "parent": null,
    "longitude": -2.29141998291016,
    "latitude": 53.4875984191895,
    "regions": []
  },
  {
    "code": "1103c",
    "name": "Salfords",
    "updated_at": "2014-09-22T21:07:46.390116Z",
    "country": "gb",
    "parent": null,
    "longitude": -0.166666999459267,
    "latitude": 51.2000007629395,
    "regions": [
      "10e1"
    ]
  },
  {
    "code": "1103b",
    "name": "Salisbury",
    "updated_at": "2014-09-22T21:07:46.354582Z",
    "country": "gb",
    "parent": null,
    "longitude": -1.80004000663757,
    "latitude": 51.0703010559082,
    "regions": [
      "120a"
    ]
  },
  {
    "code": "1103a",
    "name": "Salperton",
    "updated_at": "2014-09-22T21:07:46.316143Z",
    "country": "gb",
    "parent": null,
    "longitude": -1.88332998752594,
    "latitude": 51.86669921875,
    "regions": [
      "1208"
    ]
  },
  {
    "code": "11039",
    "name": "Saltash",
    "updated_at": "2014-09-22T21:07:46.291266Z",
    "country": "gb",
    "parent": null,
    "longitude": -4.2178897857666,
    "latitude": 50.4085998535156,
    "regions": [
      "118b"
    ]
  },
  {
    "code": "11038",
    "name": "Saltburn-by-the-Sea",
    "updated_at": "2014-09-22T21:07:46.264941Z",
    "country": "gb",
    "parent": null,
    "longitude": -0.976388990879059,
    "latitude": 54.5847015380859,
    "regions": [
      "132d"
    ]
  },
  {
    "code": "11037",
    "name": "Saltfleet",
    "updated_at": "2014-09-22T21:07:46.233266Z",
    "country": "gb",
    "parent": null,
    "longitude": 0.183332994580269,
    "latitude": 53.4166984558105,
    "regions": [
      "11ab"
    ]
  },
  {
    "code": "11036",
    "name": "Sampford Peverell",
    "updated_at": "2014-09-22T21:07:46.135446Z",
    "country": "gb",
    "parent": null,
    "longitude": -3.40000009536743,
    "latitude": 50.9333000183105,
    "regions": [
      "118d"
    ]
  },
  {
    "code": "11035",
    "name": "Sandbach",
    "updated_at": "2014-09-22T21:07:46.119223Z",
    "country": "gb",
    "parent": null,
    "longitude": -2.36666989326477,
    "latitude": 53.13330078125,
    "regions": [
      "11ae"
    ]
  },
  {
    "code": "11034",
    "name": "Sandford",
    "updated_at": "2014-09-22T21:07:46.102636Z",
    "country": "gb",
    "parent": null,
    "longitude": -2.83332991600037,
    "latitude": 51.3333015441895,
    "regions": [
      "118f"
    ]
  },
  {
    "code": "11033",
    "name": "Sandhurst",
    "updated_at": "2014-09-22T21:07:46.064697Z",
    "country": "gb",
    "parent": null,
    "longitude": -0.800000011920929,
    "latitude": 51.3333015441895,
    "regions": [
      "120b"
    ]
  },
  {
    "code": "11032",
    "name": "Sandown",
    "updated_at": "2014-09-22T21:07:46.009791Z",
    "country": "gb",
    "parent": null,
    "longitude": -1.1607700586319,
    "latitude": 50.6521987915039,
    "regions": [
      "10dc"
    ]
  },
  {
    "code": "11031",
    "name": "Sandwich",
    "updated_at": "2014-09-22T21:07:45.915601Z",
    "country": "gb",
    "parent": null,
    "longitude": 1.35000002384186,
    "latitude": 51.2667007446289,
    "regions": [
      "10dd"
    ]
  },
  {
    "code": "11030",
    "name": "Sandy",
    "updated_at": "2014-09-22T21:07:45.897962Z",
    "country": "gb",
    "parent": null,
    "longitude": -0.283333003520966,
    "latitude": 52.11669921875,
    "regions": [
      "1206"
    ]
  },
  {
    "code": "1102f",
    "name": "Sanquhar",
    "updated_at": "2014-09-22T21:07:45.879932Z",
    "country": "gb",
    "parent": null,
    "longitude": -3.91667008399963,
    "latitude": 55.3499984741211,
    "regions": [
      "1213"
    ]
  },
  {
    "code": "1102e",
    "name": "Sapcote",
    "updated_at": "2014-09-22T21:07:45.861805Z",
    "country": "gb",
    "parent": null,
    "longitude": -1.2666699886322,
    "latitude": 52.5167007446289,
    "regions": [
      "1191"
    ]
  },
  {
    "code": "1102d",
    "name": "Sarratt",
    "updated_at": "2014-09-22T21:07:45.825480Z",
    "country": "gb",
    "parent": null,
    "longitude": -0.483332991600037,
    "latitude": 51.6833000183105,
    "regions": [
      "11af"
    ]
  },
  {
    "code": "1102c",
    "name": "Saundersfoot",
    "updated_at": "2014-09-22T21:07:45.799732Z",
    "country": "gb",
    "parent": null,
    "longitude": -4.70608997344971,
    "latitude": 51.7106018066406,
    "regions": [
      "1210"
    ]
  },
  {
    "code": "1102b",
    "name": "Saunderton",
    "updated_at": "2014-09-22T21:07:45.773321Z",
    "country": "gb",
    "parent": null,
    "longitude": -0.850000023841858,
    "latitude": 51.7000007629395,
    "regions": [
      "1207"
    ]
  },
  {
    "code": "1102a",
    "name": "Sawbridgeworth",
    "updated_at": "2014-09-22T21:07:45.746244Z",
    "country": "gb",
    "parent": null,
    "longitude": 0.150000005960464,
    "latitude": 51.8166999816895,
    "regions": [
      "11af"
    ]
  },
  {
    "code": "11029",
    "name": "Sawtry",
    "updated_at": "2014-09-22T21:07:45.650924Z",
    "country": "gb",
    "parent": null,
    "longitude": -0.266667008399963,
    "latitude": 52.4333000183105,
    "regions": [
      "1203"
    ]
  },
  {
    "code": "11028",
    "name": "Saxmundham",
    "updated_at": "2014-09-22T21:07:45.618990Z",
    "country": "gb",
    "parent": null,
    "longitude": 1.5,
    "latitude": 52.2167015075684,
    "regions": [
      "1205"
    ]
  },
  {
    "code": "11027",
    "name": "Saxthorpe",
    "updated_at": "2014-09-22T21:07:45.602579Z",
    "country": "gb",
    "parent": null,
    "longitude": 1.13332998752594,
    "latitude": 52.8166999816895,
    "regions": []
  },
  {
    "code": "11026",
    "name": "Scarborough",
    "updated_at": "2014-09-22T21:07:45.565880Z",
    "country": "gb",
    "parent": null,
    "longitude": -0.414166986942291,
    "latitude": 54.2872009277344,
    "regions": [
      "132d"
    ]
  },