[
  {
    "code": "1f445",
    "name": "Biederbach Baden-Württemberg",
    "updated_at": "2014-09-22T21:42:43.978795Z",
    "country": "de",
    "parent": null,
    "longitude": 8.00957012176514,
    "latitude": 48.1810989379883,
    "regions": [
      "1044"
    ]
  },
  {
    "code": "1f444",
    "name": "Gäufelden",
    "updated_at": "2014-09-22T21:42:43.959868Z",
    "country": "de",
    "parent": null,
    "longitude": 8.79979991912842,
    "latitude": 48.5536003112793,
    "regions": [
      "1044"
    ]
  },
  {
    "code": "1f443",
    "name": "Gsteigwiler",
    "updated_at": "2014-09-22T21:42:43.940367Z",
    "country": "ch",
    "parent": null,
    "longitude": 7.89897012710571,
    "latitude": 46.6530990600586,
    "regions": [
      "1421"
    ]
  },
  {
    "code": "1f442",
    "name": "Lassi",
    "updated_at": "2014-09-22T21:42:43.924273Z",
    "country": "gr",
    "parent": null,
    "longitude": 20.4780006408691,
    "latitude": 38.1599998474121,
    "regions": [
      "107f",
      "1188"
    ]
  },
  {
    "code": "1f441",
    "name": "Century City",
    "updated_at": "2014-09-22T21:42:43.906299Z",
    "country": "za",
    "parent": null,
    "longitude": 18.5116996765137,
    "latitude": -33.8898010253906,
    "regions": [
      "10e9"
    ]
  },
  {
    "code": "1f440",
    "name": "Isola Rossa",
    "updated_at": "2014-09-22T21:42:43.883657Z",
    "country": "it",
    "parent": null,
    "longitude": 8.87504959106445,
    "latitude": 41.0130996704102,
    "regions": [
      "109d"
    ]
  },
  {
    "code": "1f43f",
    "name": "Kilve",
    "updated_at": "2014-09-22T21:42:43.857344Z",
    "country": "gb",
    "parent": null,
    "longitude": -3.21819996833801,
    "latitude": 51.1801986694336,
    "regions": [
      "118f"
    ]
  },
  {
    "code": "1f43e",
    "name": "Principina Terra",
    "updated_at": "2014-09-22T21:42:43.831516Z",
    "country": "it",
    "parent": null,
    "longitude": 11.0600004196167,
    "latitude": 42.7400016784668,
    "regions": [
      "109f"
    ]
  },
  {
    "code": "1f43d",
    "name": "Logaras",
    "updated_at": "2014-09-22T21:42:43.796819Z",
    "country": "gr",
    "parent": null,
    "longitude": 25.2439994812012,
    "latitude": 37.0180015563965,
    "regions": [
      "107d",
      "1281"
    ]
  },
  {
    "code": "1f43c",
    "name": "Oiartzun",
    "updated_at": "2014-09-22T21:42:43.761906Z",
    "country": "es",
    "parent": null,
    "longitude": -1.85772001743317,
    "latitude": 43.2976989746094,
    "regions": [
      "1057"
    ]
  },
  {
    "code": "1f43b",
    "name": "Val de Reuil",
    "updated_at": "2014-09-22T21:42:43.731570Z",
    "country": "fr",
    "parent": null,
    "longitude": 1.21296000480652,
    "latitude": 49.2697982788086,
    "regions": [
      "1335"
    ]
  },
  {
    "code": "1f43a",
    "name": "Neuenstein",
    "updated_at": "2014-09-22T21:42:43.711945Z",
    "country": "de",
    "parent": null,
    "longitude": 9.56875038146973,
    "latitude": 50.9099998474121,
    "regions": [
      "1047"
    ]
  },
  {
    "code": "1f439",
    "name": "Kalafatis",
    "updated_at": "2014-09-22T21:42:43.693070Z",
    "country": "gr",
    "parent": null,
    "longitude": 25.4216995239258,
    "latitude": 37.4421997070312,
    "regions": [
      "107d",
      "127f"
    ]
  },
  {
    "code": "1f438",
    "name": "Roveleto",
    "updated_at": "2014-09-22T21:42:43.673650Z",
    "country": "it",
    "parent": null,
    "longitude": 9.85105991363525,
    "latitude": 44.964900970459,
    "regions": [
      "1095"
    ]
  },
  {
    "code": "1f437",
    "name": "La Creche",
    "updated_at": "2014-09-22T21:42:43.653977Z",
    "country": "fr",
    "parent": null,
    "longitude": -0.302810996770859,
    "latitude": 46.3610992431641,
    "regions": [
      "1232"
    ]
  },
  {
    "code": "1f436",
    "name": "Sellia Marina",
    "updated_at": "2014-09-22T21:42:43.633828Z",
    "country": "it",
    "parent": null,
    "longitude": 16.7437000274658,
    "latitude": 38.9062995910645,
    "regions": [
      "1093"
    ]
  },
  {
    "code": "1f435",
    "name": "Parasporos",
    "updated_at": "2014-09-22T21:42:43.608229Z",
    "country": "gr",
    "parent": null,
    "longitude": 25.1345729827881,
    "latitude": 37.0742874145508,
    "regions": [
      "107d",
      "1281"
    ]
  },
  {
    "code": "1f434",
    "name": "Nova Siri Marina",
    "updated_at": "2014-09-22T21:42:43.582106Z",
    "country": "it",
    "parent": null,
    "longitude": 16.642599105835,
    "latitude": 40.1209983825684,
    "regions": [
      "11c5"
    ]
  },
  {
    "code": "1f433",
    "name": "Montescano",
    "updated_at": "2014-09-22T21:42:43.553992Z",
    "country": "it",
    "parent": null,
    "longitude": 9.29899024963379,
    "latitude": 45.0335998535156,
    "regions": [
      "1099"
    ]
  },
  {
    "code": "1f432",
    "name": "Caponago",
    "updated_at": "2014-09-22T21:42:43.518654Z",
    "country": "it",
    "parent": null,
    "longitude": 9.3778600692749,
    "latitude": 45.5666999816895,
    "regions": [
      "1099"
    ]
  },
  {
    "code": "1f431",
    "name": "San Giorgio Di Mantova",
    "updated_at": "2014-09-22T21:42:43.459172Z",
    "country": "it",
    "parent": null,
    "longitude": 10.8734998703003,
    "latitude": 45.1530990600586,
    "regions": [
      "1099"
    ]
  },
  {
    "code": "1f430",
    "name": "Caldiero",
    "updated_at": "2014-09-22T21:42:43.441352Z",
    "country": "it",
    "parent": null,
    "longitude": 11.1795997619629,
    "latitude": 45.4137992858887,
    "regions": [
      "10a3"
    ]
  },
  {
    "code": "1f42f",
    "name": "Tirolo",
    "updated_at": "2014-09-22T21:42:43.423521Z",
    "country": "it",
    "parent": null,
    "longitude": 11.1557998657227,
    "latitude": 46.6894989013672,
    "regions": [
      "10a0"
    ]
  },
  {
    "code": "1f42e",
    "name": "Marinella",
    "updated_at": "2014-09-22T21:42:43.404901Z",
    "country": "it",
    "parent": null,
    "longitude": 9.55840015411377,
    "latitude": 41.0021018981934,
    "regions": [
      "109d"
    ]
  },
  {
    "code": "1f42d",
    "name": "Pietraviva",
    "updated_at": "2014-09-22T21:42:43.386560Z",
    "country": "it",
    "parent": null,
    "longitude": 11.5853004455566,
    "latitude": 43.3947982788086,
    "regions": [
      "109f"
    ]
  },
  {
    "code": "1f42c",
    "name": "Grzybowo",
    "updated_at": "2014-09-22T21:42:43.365439Z",
    "country": "pl",
    "parent": null,
    "longitude": 15.4899997711182,
    "latitude": 54.1599998474121,
    "regions": [
      "117f"
    ]
  },
  {
    "code": "1f42b",
    "name": "Walkington",
    "updated_at": "2014-09-22T21:42:43.339651Z",
    "country": "gb",
    "parent": null,
    "longitude": -0.490000009536743,
    "latitude": 53.8199996948242,
    "regions": [
      "132e"
    ]
  },
  {
    "code": "1f42a",
    "name": "Ronchini",
    "updated_at": "2014-09-22T21:42:43.312652Z",
    "country": "ch",
    "parent": null,
    "longitude": 8.72756004333496,
    "latitude": 46.2335014343262,
    "regions": [
      "102f"
    ]
  },
  {
    "code": "1f429",
    "name": "Champions Gate",
    "updated_at": "2014-09-22T21:42:43.281348Z",
    "country": "us",
    "parent": null,
    "longitude": -81.6185989379883,
    "latitude": 28.2614002227783,
    "regions": []
  },
  {
    "code": "1f428",
    "name": "Bridgwater",
    "updated_at": "2014-09-22T21:42:43.243494Z",
    "country": "gb",
    "parent": null,
    "longitude": -3.22000002861023,
    "latitude": 51.1800003051758,
    "regions": [
      "118f"
    ]
  },
  {
    "code": "1f427",
    "name": "Lavacolla",
    "updated_at": "2014-09-22T21:42:43.208957Z",
    "country": "es",
    "parent": null,
    "longitude": -8.38683986663818,
    "latitude": 42.8946990966797,
    "regions": [
      "105d"
    ]
  },
  {
    "code": "1f426",
    "name": "Rorschacherberg",
    "updated_at": "2014-09-22T21:42:43.188550Z",
    "country": "ch",
    "parent": null,
    "longitude": 9.50652027130127,
    "latitude": 47.4716987609863,
    "regions": [
      "13f9"
    ]
  },
  {
    "code": "1f425",
    "name": "Dalaman",
    "updated_at": "2014-09-22T21:42:43.173401Z",
    "country": "tr",
    "parent": null,
    "longitude": 28.8050994873047,
    "latitude": 36.765998840332,
    "regions": [
      "10d0"
    ]
  },
  {
    "code": "1f424",
    "name": "A Lanzada",
    "updated_at": "2014-09-22T21:42:43.154974Z",
    "country": "es",
    "parent": null,
    "longitude": -8.87534046173096,
    "latitude": 42.4286003112793,
    "regions": [
      "105d"
    ]
  },
  {
    "code": "1f423",
    "name": "Horsington",
    "updated_at": "2014-09-22T21:42:43.136659Z",
    "country": "gb",
    "parent": null,
    "longitude": -2.42684006690979,
    "latitude": 51.013801574707,
    "regions": [
      "118f"
    ]
  },
  {
    "code": "1f422",
    "name": "Arc 1800",
    "updated_at": "2014-09-22T21:42:43.119406Z",
    "country": "fr",
    "parent": null,
    "longitude": 6.78249979019165,
    "latitude": 45.5783004760742,
    "regions": [
      "107a"
    ]
  },
  {
    "code": "1f421",
    "name": "Les Coches",
    "updated_at": "2014-09-22T21:42:43.097241Z",
    "country": "fr",
    "parent": null,
    "longitude": 6.72469997406006,
    "latitude": 45.5535011291504,
    "regions": [
      "107a"
    ]
  },
  {
    "code": "1f420",
    "name": "Jebel Dhanna",
    "updated_at": "2014-09-22T21:42:43.068592Z",
    "country": "ae",
    "parent": null,
    "longitude": 52.6419982910156,
    "latitude": 24.1651000976562,
    "regions": [
      "10f6"
    ]
  },
  {
    "code": "1f41f",
    "name": "Murata",
    "updated_at": "2014-09-22T21:42:43.042468Z",
    "country": "sm",
    "parent": null,
    "longitude": 12.4507999420166,
    "latitude": 43.9205017089844,
    "regions": []
  },
  {
    "code": "1f41e",
    "name": "San Bartolomeo al Mare",
    "updated_at": "2014-09-22T21:42:43.014928Z",
    "country": "it",
    "parent": null,
    "longitude": 8.102370262146,
    "latitude": 43.9224014282227,
    "regions": [
      "1098"
    ]
  },
  {
    "code": "1f41d",
    "name": "Bezzecca",
    "updated_at": "2014-09-22T21:42:42.981287Z",
    "country": "it",
    "parent": null,
    "longitude": 10.7166996002197,
    "latitude": 45.8964004516602,
    "regions": [
      "10a0"
    ]
  },
  {
    "code": "1f41c",
    "name": "Sankt Martin am Tennengebirge",
    "updated_at": "2014-09-22T21:42:42.946470Z",
    "country": "at",
    "parent": null,
    "longitude": 13.3805999755859,
    "latitude": 47.4646987915039,
    "regions": [
      "10ee"
    ]
  },
  {
    "code": "1f41b",
    "name": "Piancavallo",
    "updated_at": "2014-09-22T21:42:42.925664Z",
    "country": "it",
    "parent": null,
    "longitude": 12.520299911499,
    "latitude": 46.1096000671387,
    "regions": [
      "1096"
    ]
  },
  {
    "code": "1f41a",
    "name": "TIV",
    "updated_at": "2014-09-22T21:42:42.907254Z",
    "country": "me",
    "parent": null,
    "longitude": 18.7224006652832,
    "latitude": 42.4009017944336,
    "regions": [
      "161e"
    ]
  },
  {
    "code": "1f419",
    "name": "Rhauderfehn",
    "updated_at": "2014-09-22T21:42:42.892444Z",
    "country": "de",
    "parent": null,
    "longitude": 7.57239007949829,
    "latitude": 53.1356010437012,
    "regions": [
      "1048"
    ]
  },
  {
    "code": "1f418",
    "name": "Bellaterra",
    "updated_at": "2014-09-22T21:42:42.874265Z",
    "country": "es",
    "parent": null,
    "longitude": 2.08746004104614,
    "latitude": 41.5026016235352,
    "regions": [
      "105c"
    ]
  },
  {
    "code": "1f417",
    "name": "Cala Romantica",
    "updated_at": "2014-09-22T21:42:42.854686Z",
    "country": "es",
    "parent": null,
    "longitude": 3.31375002861023,
    "latitude": 39.521800994873,
    "regions": [
      "1056",
      "1063"
    ]
  },
  {
    "code": "1f416",
    "name": "Muralto",
    "updated_at": "2014-09-22T21:42:42.832181Z",
    "country": "ch",
    "parent": null,
    "longitude": 8.80436992645264,
    "latitude": 46.1729011535645,
    "regions": [
      "102f"
    ]
  },
  {
    "code": "1f415",
    "name": "Valtessiniko ",
    "updated_at": "2014-09-22T21:42:42.806129Z",
    "country": "gr",
    "parent": null,
    "longitude": 22.0956001281738,
    "latitude": 37.7002983093262,
    "regions": [
      "1439"
    ]
  },
  {
    "code": "1f414",
    "name": "Staad",
    "updated_at": "2014-09-22T21:42:42.779677Z",
    "country": "ch",
    "parent": null,
    "longitude": 9.53509998321533,
    "latitude": 47.480598449707,
    "regions": [
      "13f9"
    ]
  },
  {
    "code": "1f413",
    "name": "Birgland",
    "updated_at": "2014-09-22T21:42:42.744224Z",
    "country": "de",
    "parent": null,
    "longitude": 11.6187000274658,
    "latitude": 49.4348983764648,
    "regions": [
      "1045"
    ]
  },
  {
    "code": "1f412",
    "name": "LMP",
    "updated_at": "2014-09-22T21:42:42.710568Z",
    "country": "it",
    "parent": null,
    "longitude": 12.6150999069214,
    "latitude": 35.5001983642578,
    "regions": [
      "109e",
      "1311"
    ]
  },
  {
    "code": "1f411",
    "name": "RKV",
    "updated_at": "2014-09-22T21:42:42.673121Z",
    "country": "is",
    "parent": null,
    "longitude": -21.9405994415283,
    "latitude": 64.129997253418,
    "regions": []
  },
  {
    "code": "1f410",
    "name": "Headlam",
    "updated_at": "2014-09-22T21:42:42.655924Z",
    "country": "gb",
    "parent": null,
    "longitude": -1.72520005702972,
    "latitude": 54.5658988952637,
    "regions": [
      "11fd"
    ]
  },
  {
    "code": "1f40f",
    "name": "Playas de Orihuela",
    "updated_at": "2014-09-22T21:42:42.639302Z",
    "country": "es",
    "parent": null,
    "longitude": -0.733299970626831,
    "latitude": 37.9165000915527,
    "regions": [
      "117b"
    ]
  },
  {
    "code": "1f40e",
    "name": "Lingenau",
    "updated_at": "2014-09-22T21:42:42.620882Z",
    "country": "at",
    "parent": null,
    "longitude": 9.92002964019775,
    "latitude": 47.4501991271973,
    "regions": [
      "10ef"
    ]
  },
  {
    "code": "1f40d",
    "name": "Psarou",
    "updated_at": "2014-09-22T21:42:42.604530Z",
    "country": "gr",
    "parent": null,
    "longitude": 25.3365993499756,
    "latitude": 37.4154014587402,
    "regions": [
      "107d",
      "127f"
    ]
  },
  {
    "code": "1f40c",
    "name": "Römerberg",
    "updated_at": "2014-09-22T21:42:42.586403Z",
    "country": "de",
    "parent": null,
    "longitude": 8.40408039093018,
    "latitude": 49.2923011779785,
    "regions": [
      "104b"
    ]
  },
  {
    "code": "1f40b",
    "name": "San Nicola La Strada",
    "updated_at": "2014-09-22T21:42:42.560688Z",
    "country": "it",
    "parent": null,
    "longitude": 14.3331003189087,
    "latitude": 41.0559997558594,
    "regions": [
      "1094"
    ]
  },
  {
    "code": "1f40a",
    "name": "Binibeca",
    "updated_at": "2014-09-22T21:42:42.531960Z",
    "country": "es",
    "parent": null,
    "longitude": 4.23367023468018,
    "latitude": 39.8230018615723,
    "regions": [
      "1056",
      "1161"
    ]
  },
  {
    "code": "1f409",
    "name": "Torre dell'Orso",
    "updated_at": "2014-09-22T21:42:42.506648Z",
    "country": "it",
    "parent": null,
    "longitude": 18.4277000427246,
    "latitude": 40.273998260498,
    "regions": [
      "109c"
    ]
  },
  {
    "code": "1f408",
    "name": "Marina di Pisticci",
    "updated_at": "2014-09-22T21:42:42.468937Z",
    "country": "it",
    "parent": null,
    "longitude": 16.7807998657227,
    "latitude": 40.3018989562988,
    "regions": [
      "11c5"
    ]
  },
  {
    "code": "1f407",
    "name": "Cala Liberotto",
    "updated_at": "2014-09-22T21:42:42.438309Z",
    "country": "it",
    "parent": null,
    "longitude": 9.77169990539551,
    "latitude": 40.434700012207,
    "regions": [
      "109d"
    ]
  },
  {
    "code": "1f406",
    "name": "Semproniano",
    "updated_at": "2014-09-22T21:42:42.407269Z",
    "country": "it",
    "parent": null,
    "longitude": 11.5436000823975,
    "latitude": 42.7285995483398,
    "regions": [
      "109f"
    ]
  },
  {
    "code": "1f405",
    "name": "Folgarida",
    "updated_at": "2014-09-22T21:42:42.369795Z",
    "country": "it",
    "parent": null,
    "longitude": 10.8678998947144,
    "latitude": 46.3012008666992,
    "regions": [
      "10a0"
    ]
  },
  {
    "code": "1f404",
    "name": "Oriago Di Mira",
    "updated_at": "2014-09-22T21:42:42.351383Z",
    "country": "it",
    "parent": null,
    "longitude": 12.1723003387451,
    "latitude": 45.4435005187988,
    "regions": [
      "10a3"
    ]
  },
  {
    "code": "1f403",
    "name": "Ponti Sul Mincio",
    "updated_at": "2014-09-22T21:42:42.332562Z",
    "country": "it",
    "parent": null,
    "longitude": 10.68630027771,
    "latitude": 45.4118995666504,
    "regions": [
      "1099"
    ]
  },
  {
    "code": "1f402",
    "name": "Pergusa",
    "updated_at": "2014-09-22T21:42:42.313669Z",
    "country": "it",
    "parent": null,
    "longitude": 14.3058996200562,
    "latitude": 37.5237998962402,
    "regions": [
      "109e"
    ]
  },
  {
    "code": "1f401",
    "name": "Marina di Portisco",
    "updated_at": "2014-09-22T21:42:42.286928Z",
    "country": "it",
    "parent": null,
    "longitude": 9.51562023162842,
    "latitude": 41.0367012023926,
    "regions": [
      "109d"
    ]
  },
  {
    "code": "1f400",
    "name": "Costa Corallina",
    "updated_at": "2014-09-22T21:42:42.258657Z",
    "country": "it",
    "parent": null,
    "longitude": 9.62038040161133,
    "latitude": 40.8834991455078,
    "regions": [
      "109d"
    ]
  },
  {
    "code": "1f3ff",
    "name": "Murta Maria",
    "updated_at": "2014-09-22T21:42:42.229252Z",
    "country": "it",
    "parent": null,
    "longitude": 9.58942985534668,
    "latitude": 40.888801574707,
    "regions": [
      "109d"
    ]
  },
  {
    "code": "1f3fe",
    "name": "Aliko Beach",
    "updated_at": "2014-09-22T21:42:42.195162Z",
    "country": "gr",
    "parent": null,
    "longitude": 25.3887004852295,
    "latitude": 36.9790000915527,
    "regions": [
      "107d",
      "1280"
    ]
  },
  {
    "code": "1f3fd",
    "name": "Yaliciftlik",
    "updated_at": "2014-09-22T21:42:42.158938Z",
    "country": "tr",
    "parent": null,
    "longitude": 27.5105991363525,
    "latitude": 36.9915008544922,
    "regions": [
      "10d0"
    ]
  },
  {
    "code": "1f3fc",
    "name": "Golturkbuku",
    "updated_at": "2014-09-22T21:42:42.130601Z",
    "country": "tr",
    "parent": null,
    "longitude": 27.3768005371094,
    "latitude": 37.127498626709,
    "regions": [
      "10d0"
    ]
  },
  {
    "code": "1f3fb",
    "name": "Gumbet",
    "updated_at": "2014-09-22T21:42:42.112444Z",
    "country": "tr",
    "parent": null,
    "longitude": 27.4029521942139,
    "latitude": 37.0347747802734,
    "regions": [
      "10d0"
    ]
  },
  {
    "code": "1f3fa",
    "name": "Gundogan",
    "updated_at": "2014-09-22T21:42:42.094381Z",
    "country": "tr",
    "parent": null,
    "longitude": 27.3398990631104,
    "latitude": 37.1309013366699,
    "regions": [
      "10d0"
    ]
  },
  {
    "code": "1f3f9",
    "name": "Playa de Muro",
    "updated_at": "2014-09-22T21:42:42.075460Z",
    "country": "es",
    "parent": null,
    "longitude": 3.12046003341675,
    "latitude": 39.7969017028809,
    "regions": [
      "1056",
      "1063"
    ]
  },
  {
    "code": "1f3f8",
    "name": "Pianello Vallesina",
    "updated_at": "2014-09-22T21:42:42.057095Z",
    "country": "it",
    "parent": null,
    "longitude": 13.1596002578735,
    "latitude": 43.486499786377,
    "regions": [
      "109a"
    ]
  },
  {
    "code": "1f3f7",
    "name": "Gerenzano",
    "updated_at": "2014-09-22T21:42:42.037275Z",
    "country": "it",
    "parent": null,
    "longitude": 9.00397968292236,
    "latitude": 45.6399993896484,
    "regions": [
      "1099"
    ]
  },
  {
    "code": "1f3f6",
    "name": "Lorenskog",
    "updated_at": "2014-09-22T21:42:42.011335Z",
    "country": "no",
    "parent": null,
    "longitude": 10.9499998092651,
    "latitude": 59.9199981689453,
    "regions": [
      "10bf"
    ]
  },
  {
    "code": "1f3f5",
    "name": "Chania",
    "updated_at": "2014-09-22T21:42:41.984948Z",
    "country": "gr",
    "parent": null,
    "longitude": 23.1119995117188,
    "latitude": 39.4029998779297,
    "regions": [
      "143a"
    ]
  },
  {
    "code": "1f3f4",
    "name": "Kokstad",
    "updated_at": "2014-09-22T21:42:41.955919Z",
    "country": "no",
    "parent": null,
    "longitude": 5.26554012298584,
    "latitude": 60.2960014343262,
    "regions": [
      "10c2"
    ]
  },
  {
    "code": "1f3f3",
    "name": "Stockton on the forest",
    "updated_at": "2014-09-22T21:42:41.920197Z",
    "country": "gb",
    "parent": null,
    "longitude": -1.00172996520996,
    "latitude": 53.9939994812012,
    "regions": [
      "132d"
    ]
  },
  {
    "code": "1f3f2",
    "name": "Portballintrae",
    "updated_at": "2014-09-22T21:42:41.885666Z",
    "country": "gb",
    "parent": null,
    "longitude": -6.54199981689453,
    "latitude": 55.2140007019043,
    "regions": [
      "1218"
    ]
  },
  {
    "code": "1f3f1",
    "name": "Smarjeske Toplice",
    "updated_at": "2014-09-22T21:42:41.861797Z",
    "country": "si",
    "parent": null,
    "longitude": 15.1700000762939,
    "latitude": 45.8499984741211,
    "regions": [
      "11cc"
    ]
  },
  {
    "code": "1f3f0",
    "name": "Etxebarria",
    "updated_at": "2014-09-22T21:42:41.845011Z",
    "country": "es",
    "parent": null,
    "longitude": -2.47726988792419,
    "latitude": 43.2538986206055,
    "regions": [
      "1057"
    ]
  },
  {
    "code": "1f3ef",
    "name": "Puerto Calero",
    "updated_at": "2014-09-22T21:42:41.825471Z",
    "country": "es",
    "parent": null,
    "longitude": -13.6999998092651,
    "latitude": 28.9167003631592,
    "regions": [
      "1058",
      "1060"
    ]
  },
  {
    "code": "1f3ee",
    "name": "Rigomagno",
    "updated_at": "2014-09-22T21:42:41.805503Z",
    "country": "it",
    "parent": null,
    "longitude": 11.6970996856689,
    "latitude": 43.2616004943848,
    "regions": [
      "109f"
    ]
  },
  {
    "code": "1f3ed",
    "name": "Islantilla",
    "updated_at": "2014-09-22T21:42:41.785723Z",
    "country": "es",
    "parent": null,
    "longitude": -7.23804998397827,
    "latitude": 37.2061996459961,
    "regions": [
      "1053"
    ]
  },
  {
    "code": "1f3ec",
    "name": "Christiansted",
    "updated_at": "2014-09-22T21:42:41.763487Z",
    "country": "vi",
    "parent": null,
    "longitude": -64.7059020996094,
    "latitude": 17.7446994781494,
    "regions": [
      "13ae"
    ]
  },
  {
    "code": "1f3eb",
    "name": "Rheinhausen",
    "updated_at": "2014-09-22T21:42:41.739066Z",
    "country": "de",
    "parent": null,
    "longitude": 7.71047019958496,
    "latitude": 48.2266998291016,
    "regions": [
      "1044"
    ]
  },
  {
    "code": "1f3ea",
    "name": "Vale do Lobo",
    "updated_at": "2014-09-22T21:42:41.710808Z",
    "country": "pt",
    "parent": null,
    "longitude": -8.06626987457275,
    "latitude": 37.054500579834,
    "regions": [
      "10cd"
    ]
  },
  {
    "code": "1f3e9",
    "name": "Torre Dei Corsari",
    "updated_at": "2014-09-22T21:42:41.684209Z",
    "country": "it",
    "parent": null,
    "longitude": 8.45825958251953,
    "latitude": 39.6786994934082,
    "regions": [
      "109d"
    ]
  },
  {
    "code": "1f3e8",
    "name": "Didim",
    "updated_at": "2014-09-22T21:42:41.648967Z",
    "country": "tr",
    "parent": null,
    "longitude": 27.2705001831055,
    "latitude": 37.3554992675781,
    "regions": [
      "10d0"
    ]
  },
  {
    "code": "1f3e7",
    "name": "Arlanda",
    "updated_at": "2014-09-22T21:42:41.610297Z",
    "country": "se",
    "parent": null,
    "longitude": 17.8915996551514,
    "latitude": 59.6077003479004,
    "regions": [
      "10cf"
    ]
  },
  {
    "code": "1f3e6",
    "name": "Soiano del Lago",
    "updated_at": "2014-09-22T21:42:41.590068Z",
    "country": "it",
    "parent": null,
    "longitude": 10.5150995254517,
    "latitude": 45.5270004272461,
    "regions": [
      "1099"
    ]
  },
  {
    "code": "1f3e5",
    "name": "Glenmoriston",
    "updated_at": "2014-09-22T21:42:41.572123Z",
    "country": "gb",
    "parent": null,
    "longitude": -4.86939001083374,
    "latitude": 57.1971015930176,
    "regions": [
      "133f"
    ]
  },
  {
    "code": "1f3e4",
    "name": "S'Agaro",
    "updated_at": "2014-09-22T21:42:41.555502Z",
    "country": "es",
    "parent": null,
    "longitude": 3.05111002922058,
    "latitude": 41.7933006286621,
    "regions": [
      "105c"
    ]
  },
  {
    "code": "1f3e3",
    "name": "Skliri",
    "updated_at": "2014-09-22T21:42:41.536823Z",
    "country": "gr",
    "parent": null,
    "longitude": 23.371000289917,
    "latitude": 37.7039985656738,
    "regions": [
      "127a"
    ]
  },
  {
    "code": "1f3e2",
    "name": "Torrellano",
    "updated_at": "2014-09-22T21:42:41.518435Z",
    "country": "es",
    "parent": null,
    "longitude": -0.58330500125885,
    "latitude": 38.2910003662109,
    "regions": [
      "117b"
    ]
  },
  {
    "code": "1f3e1",
    "name": "Antigua",
    "updated_at": "2014-09-22T21:42:41.495134Z",
    "country": "es",
    "parent": null,
    "longitude": -14.0120000839233,
    "latitude": 28.4183006286621,
    "regions": [
      "1058",
      "105e"
    ]
  },
  {
    "code": "1f3e0",
    "name": "Marina di Sibari",
    "updated_at": "2014-09-22T21:42:41.466476Z",
    "country": "it",
    "parent": null,
    "longitude": 16.4850006103516,
    "latitude": 39.7452011108398,
    "regions": [
      "1093"
    ]
  },
  {
    "code": "1f3df",
    "name": "Temple Cloud",
    "updated_at": "2014-09-22T21:42:41.437892Z",
    "country": "gb",
    "parent": null,
    "longitude": -2.54264998435974,
    "latitude": 51.3188018798828,
    "regions": [
      "118f"
    ]
  },
  {
    "code": "1f3de",
    "name": "Oludeniz",
    "updated_at": "2014-09-22T21:42:41.406855Z",
    "country": "tr",
    "parent": null,
    "longitude": 29.1487998962402,
    "latitude": 36.5766983032227,
    "regions": [
      "10d0"
    ]
  },
  {
    "code": "1f3dd",
    "name": "Kambos",
    "updated_at": "2014-09-22T21:42:41.371157Z",
    "country": "gr",
    "parent": null,
    "longitude": 26.132999420166,
    "latitude": 38.3440017700195,
    "regions": [
      "127c"
    ]
  },
  {
    "code": "1f3dc",
    "name": "Val Della Torre",
    "updated_at": "2014-09-22T21:42:41.339314Z",
    "country": "it",
    "parent": null,
    "longitude": 7.44630002975464,
    "latitude": 45.1557006835938,
    "regions": [
      "109b"
    ]
  },
  {
    "code": "1f3db",
    "name": "Fludir",
    "updated_at": "2014-09-22T21:42:41.317455Z",
    "country": "is",
    "parent": null,
    "longitude": -20.3334007263184,
    "latitude": 64.1500015258789,
    "regions": [
      "130d"
    ]
  },
  {
    "code": "1f3da",
    "name": "Sutton Cheney",
    "updated_at": "2014-09-22T21:42:41.298910Z",
    "country": "gb",
    "parent": null,
    "longitude": -1.3866800069809,
    "latitude": 52.5990982055664,
    "regions": [
      "1191"
    ]
  },
  {
    "code": "1f3d9",
    "name": "Egilsstadir",
    "updated_at": "2014-09-22T21:42:41.280982Z",
    "country": "is",
    "parent": null,
    "longitude": -14.3568000793457,
    "latitude": 65.2535018920898,
    "regions": [
      "130e"
    ]
  },
  {
    "code": "1f3d8",
    "name": "Artzentales",
    "updated_at": "2014-09-22T21:42:41.261842Z",
    "country": "es",
    "parent": null,
    "longitude": -3.24115991592407,
    "latitude": 43.2408981323242,
    "regions": [
      "1057"
    ]
  },
  {
    "code": "1f3d7",
    "name": "Marco Simone",
    "updated_at": "2014-09-22T21:42:41.241836Z",
    "country": "it",
    "parent": null,
    "longitude": 12.6484003067017,
    "latitude": 41.9592018127441,
    "regions": [
      "1097"
    ]
  },
  {
    "code": "1f3d6",
    "name": "Cala San Vicente",
    "updated_at": "2014-09-22T21:42:41.192616Z",
    "country": "es",
    "parent": null,
    "longitude": 1.59060001373291,
    "latitude": 39.0752983093262,
    "regions": [
      "1056",
      "1160"
    ]
  },
  {
    "code": "1f3d5",
    "name": "Playa de Palma",
    "updated_at": "2014-09-22T21:42:41.137215Z",
    "country": "es",
    "parent": null,
    "longitude": 2.7342700958252,
    "latitude": 39.5253982543945,
    "regions": [
      "1056",
      "1063"
    ]
  },
  {
    "code": "1f3d4",
    "name": "Despetal",
    "updated_at": "2014-09-22T21:42:41.102274Z",
    "country": "de",
    "parent": null,
    "longitude": 9.84465980529785,
    "latitude": 52.0788993835449,
    "regions": [
      "1048"
    ]
  },
  {
    "code": "1f3d3",
    "name": "Nesjavellir",
    "updated_at": "2014-09-22T21:42:41.067597Z",
    "country": "is",
    "parent": null,
    "longitude": -21.2294006347656,
    "latitude": 64.1321029663086,
    "regions": [
      "130d"
    ]
  },
  {
    "code": "1f3d2",
    "name": "Vassilias",
    "updated_at": "2014-09-22T21:42:41.048954Z",
    "country": "gr",
    "parent": null,
    "longitude": 23.4689998626709,
    "latitude": 39.1570014953613,
    "regions": [
      "1293",
      "143a"
    ]
  },
  {
    "code": "1f3d1",
    "name": "Issengo",
    "updated_at": "2014-09-22T21:42:41.029787Z",
    "country": "it",
    "parent": null,
    "longitude": 11.8600997924805,
    "latitude": 46.8151016235352,
    "regions": [
      "10a0"
    ]
  },
  {
    "code": "1f3d0",
    "name": "Lugo de Llanera",
    "updated_at": "2014-09-22T21:42:41.010248Z",
    "country": "es",
    "parent": null,
    "longitude": -5.81829023361206,
    "latitude": 43.4416007995605,
    "regions": [
      "1055"
    ]
  },
  {
    "code": "1f3cf",
    "name": "Panarea",
    "updated_at": "2014-09-22T21:42:40.989927Z",
    "country": "it",
    "parent": null,
    "longitude": 15.0699996948242,
    "latitude": 38.6399993896484,
    "regions": [
      "109e"
    ]
  },
  {
    "code": "1f3ce",
    "name": "Skala",
    "updated_at": "2014-09-22T21:42:40.971609Z",
    "country": "gr",
    "parent": null,
    "longitude": 23.363000869751,
    "latitude": 37.7089996337891,
    "regions": [
      "127a"
    ]
  },
  {
    "code": "1f3cd",
    "name": "Pastida",
    "updated_at": "2014-09-22T21:42:40.948545Z",
    "country": "gr",
    "parent": null,
    "longitude": 28.13653,
    "latitude": 36.387273,
    "regions": [
      "107e",
      "1182"
    ]
  },
  {
    "code": "1f3cc",
    "name": "Sfakaki",
    "updated_at": "2014-09-22T21:42:40.920629Z",
    "country": "gr",
    "parent": "23a96",
    "longitude": 24.617000579834,
    "latitude": 35.3930015563965,
    "regions": [
      "107c"
    ]
  },
  {
    "code": "1f3cb",
    "name": "Panormos Kalymnos",
    "updated_at": "2014-09-22T21:42:40.892128Z",
    "country": "gr",
    "parent": null,
    "longitude": 26.9405002593994,
    "latitude": 36.9696006774902,
    "regions": [
      "107e",
      "128d"
    ]
  },
  {
    "code": "1f3ca",
    "name": "Gerani",
    "updated_at": "2014-09-22T21:42:40.858413Z",
    "country": "gr",
    "parent": "23a96",
    "longitude": 24.4039993286133,
    "latitude": 35.3569984436035,
    "regions": [
      "107c"
    ]
  },
  {
    "code": "1f3c9",
    "name": "Glyfada",
    "updated_at": "2014-09-22T21:42:40.823537Z",
    "country": "gr",
    "parent": null,
    "longitude": 19.8040008544922,
    "latitude": 39.5940017700195,
    "regions": [
      "107f",
      "1180"
    ]
  },
  {
    "code": "1f3c8",
    "name": "Barbati",
    "updated_at": "2014-09-22T21:42:40.790111Z",
    "country": "gr",
    "parent": null,
    "longitude": 19.8810005187988,
    "latitude": 39.7249984741211,
    "regions": [
      "107f",
      "1180"
    ]
  },
  {
    "code": "1f3c7",
    "name": "Grau roig",
    "updated_at": "2014-09-22T21:42:40.772392Z",
    "country": "ad",
    "parent": null,
    "longitude": 1.69972002506256,
    "latitude": 42.532398223877,
    "regions": [
      "10f2"
    ]
  },
  {
    "code": "1f3c6",
    "name": "Agios Ioannis",
    "updated_at": "2014-09-22T21:42:40.757652Z",
    "country": "gr",
    "parent": null,
    "longitude": 25.2189998626709,
    "latitude": 37.5369987487793,
    "regions": [
      "107d",
      "11a2"
    ]
  },
  {
    "code": "1f3c5",
    "name": "Stjoerdal",
    "updated_at": "2014-09-22T21:42:40.739445Z",
    "country": "no",
    "parent": null,
    "longitude": 10.9148998260498,
    "latitude": 63.4603004455566,
    "regions": [
      "1298"
    ]
  },
  {
    "code": "1f3c4",
    "name": "Pedredo",
    "updated_at": "2014-09-22T21:42:40.720252Z",
    "country": "es",
    "parent": null,
    "longitude": -4.06549978256226,
    "latitude": 43.1940002441406,
    "regions": [
      "1059"
    ]
  },
  {
    "code": "1f3c3",
    "name": "Sant Julià De Ramis",
    "updated_at": "2014-09-22T21:42:40.701561Z",
    "country": "es",
    "parent": null,
    "longitude": 2.86174988746643,
    "latitude": 42.0488014221191,
    "regions": [
      "105c"
    ]
  },
  {
    "code": "1f3c2",
    "name": "Les Ulis",
    "updated_at": "2014-09-22T21:42:40.674828Z",
    "country": "fr",
    "parent": null,
    "longitude": 2.19000005722046,
    "latitude": 48.6699981689453,
    "regions": [
      "116b"
    ]
  },
  {
    "code": "1f3c1",
    "name": "Son Bou",
    "updated_at": "2014-09-22T21:42:40.646232Z",
    "country": "es",
    "parent": null,
    "longitude": 4.07800006866455,
    "latitude": 39.8972015380859,
    "regions": [
      "1056",
      "1161"
    ]
  },
  {
    "code": "1f3c0",
    "name": "Kerveli",
    "updated_at": "2014-09-22T21:42:40.622997Z",
    "country": "gr",
    "parent": null,
    "longitude": 27.0459995269775,
    "latitude": 37.7270011901855,
    "regions": [
      "1235"
    ]
  },
  {
    "code": "1f3bf",
    "name": "Kalo Livadi",
    "updated_at": "2014-09-22T21:42:40.587516Z",
    "country": "gr",
    "parent": null,
    "longitude": 25.4039993286133,
    "latitude": 37.4339981079102,
    "regions": [
      "107d",
      "127f"
    ]
  },
  {
    "code": "1f3be",
    "name": "Kionia",
    "updated_at": "2014-09-22T21:42:40.552295Z",
    "country": "gr",
    "parent": null,
    "longitude": 25.132999420166,
    "latitude": 37.5550003051758,
    "regions": [
      "107d",
      "11a2"
    ]
  },
  {
    "code": "1f3bd",
    "name": "Kastellocampos",
    "updated_at": "2014-09-22T21:42:40.521504Z",
    "country": "gr",
    "parent": null,
    "longitude": 21.7490005493164,
    "latitude": 38.2770004272461,
    "regions": [
      "1439"
    ]
  },
  {
    "code": "1f3bc",
    "name": "Paraga",
    "updated_at": "2014-09-22T21:42:40.502314Z",
    "country": "gr",
    "parent": null,
    "longitude": 25.3610000610352,
    "latitude": 37.4080009460449,
    "regions": [
      "107d",
      "127f"
    ]
  },
  {
    "code": "1f3bb",
    "name": "Piso Livadi",
    "updated_at": "2014-09-22T21:42:40.483198Z",
    "country": "gr",
    "parent": null,
    "longitude": 25.2609996795654,
    "latitude": 37.0419998168945,
    "regions": [
      "107d",
      "1281"
    ]
  },
  {
    "code": "1f3ba",
    "name": "Santa Maria da Feira",
    "updated_at": "2014-09-22T21:42:40.463799Z",
    "country": "pt",
    "parent": null,
    "longitude": -8.57771968841553,
    "latitude": 40.9127006530762,
    "regions": [
      "1432"
    ]
  },
  {
    "code": "1f3b9",
    "name": "Koukounaries",
    "updated_at": "2014-09-22T21:42:40.445143Z",
    "country": "gr",
    "parent": null,
    "longitude": 23.3959999084473,
    "latitude": 39.1450004577637,
    "regions": [
      "1293",
      "143a"
    ]
  },
  {
    "code": "1f3b8",
    "name": "Alba Adriatica",
    "updated_at": "2014-09-22T21:42:40.425546Z",
    "country": "it",
    "parent": null,
    "longitude": 13.9330997467041,
    "latitude": 42.8269004821777,
    "regions": [
      "1169"
    ]
  },
  {
    "code": "1f3b7",
    "name": "Los Realejos",
    "updated_at": "2014-09-22T21:42:40.399945Z",
    "country": "es",
    "parent": null,
    "longitude": -16.5818004608154,
    "latitude": 28.3819007873535,
    "regions": [
      "1058",
      "1066"
    ]
  },
  {
    "code": "1f3b6",
    "name": "Miami Platja",
    "updated_at": "2014-09-22T21:42:40.373779Z",
    "country": "es",
    "parent": null,
    "longitude": 0.9357830286026,
    "latitude": 41.0164985656738,
    "regions": [
      "105c"
    ]
  },
  {
    "code": "1f3b5",
    "name": "Tottubella",
    "updated_at": "2014-09-22T21:42:40.345148Z",
    "country": "it",
    "parent": null,
    "longitude": 8.35544967651367,
    "latitude": 40.6855010986328,
    "regions": [
      "109d"
    ]
  },
  {
    "code": "1f3b4",
    "name": "Castello di Cisterna",
    "updated_at": "2014-09-22T21:42:40.309395Z",
    "country": "it",
    "parent": null,
    "longitude": 14.4084997177124,
    "latitude": 40.9150009155273,
    "regions": [
      "1094"
    ]
  },
  {
    "code": "1f3b3",
    "name": "Ognina",
    "updated_at": "2014-09-22T21:42:40.274245Z",
    "country": "it",
    "parent": null,
    "longitude": 15.2587003707886,
    "latitude": 36.9819984436035,
    "regions": [
      "109e"
    ]
  },
  {
    "code": "1f3b2",
    "name": "Saham Toney",
    "updated_at": "2014-09-22T21:42:40.231715Z",
    "country": "gb",
    "parent": null,
    "longitude": 0.802600026130676,
    "latitude": 52.5826988220215,
    "regions": [
      "1190"
    ]
  },
  {
    "code": "1f3b1",
    "name": "Great Broughton",
    "updated_at": "2014-09-22T21:42:40.215446Z",
    "country": "gb",
    "parent": null,
    "longitude": -1.15846002101898,
    "latitude": 54.4487991333008,
    "regions": [
      "132d"
    ]
  },
  {
    "code": "1f3b0",
    "name": "Hensol",
    "updated_at": "2014-09-22T21:42:40.198152Z",
    "country": "gb",
    "parent": null,
    "longitude": -3.37910008430481,
    "latitude": 51.5108985900879,
    "regions": [
      "10e2"
    ]
  },
  {
    "code": "1f3af",
    "name": "Woodbury",
    "updated_at": "2014-09-22T21:42:40.180831Z",
    "country": "gb",
    "parent": null,
    "longitude": -3.39980006217957,
    "latitude": 50.676399230957,
    "regions": [
      "118d"
    ]
  },
  {
    "code": "1f3ae",
    "name": "Dassia",
    "updated_at": "2014-09-22T21:42:40.161071Z",
    "country": "gr",
    "parent": null,
    "longitude": 19.8309993743896,
    "latitude": 39.6839981079102,
    "regions": [
      "107f",
      "1180"
    ]
  },
  {
    "code": "1f3ad",
    "name": "Kato Daratso",
    "updated_at": "2014-09-22T21:42:40.132737Z",
    "country": "gr",
    "parent": "23a96",
    "longitude": 23.9720001220703,
    "latitude": 35.5116996765137,
    "regions": [
      "107c"
    ]
  },
  {
    "code": "1f3ac",
    "name": "Drios",
    "updated_at": "2014-09-22T21:42:40.104361Z",
    "country": "gr",
    "parent": null,
    "longitude": 25.2199993133545,
    "latitude": 37.0009994506836,
    "regions": [
      "107d",
      "1281"
    ]
  },
  {
    "code": "1f3ab",
    "name": "Plaka",
    "updated_at": "2014-09-22T21:42:40.073909Z",
    "country": "gr",
    "parent": null,
    "longitude": 25.3810005187988,
    "latitude": 37.0449981689453,
    "regions": [
      "107d",
      "1280"
    ]
  },
  {
    "code": "1f3aa",
    "name": "Kalathos",
    "updated_at": "2014-09-22T21:42:40.038223Z",
    "country": "gr",
    "parent": null,
    "longitude": 28.0639991760254,
    "latitude": 36.1349983215332,
    "regions": [
      "107e",
      "1182"
    ]
  },
  {
    "code": "1f3a9",
    "name": "Theologos",
    "updated_at": "2014-09-22T21:42:40.002767Z",
    "country": "gr",
    "parent": null,
    "longitude": 28.036023,
    "latitude": 36.375012,
    "regions": [
      "107e",
      "1182"
    ]
  },
  {
    "code": "1f3a8",
    "name": "Aliki",
    "updated_at": "2014-09-22T21:42:39.983308Z",
    "country": "gr",
    "parent": null,
    "longitude": 25.136999130249,
    "latitude": 36.9959983825684,
    "regions": [
      "107d",
      "1281"
    ]
  },
  {
    "code": "1f3a7",
    "name": "Glastros",
    "updated_at": "2014-09-22T21:42:39.965746Z",
    "country": "gr",
    "parent": null,
    "longitude": 25.3250007629395,
    "latitude": 37.4360008239746,
    "regions": [
      "107d",
      "127f"
    ]
  },
  {
    "code": "1f3a6",
    "name": "Kamari",
    "updated_at": "2014-09-22T21:42:39.947548Z",
    "country": "gr",
    "parent": null,
    "longitude": 25.4769992828369,
    "latitude": 36.3689994812012,
    "regions": [
      "107d",
      "1179"
    ]
  },
  {
    "code": "1f3a5",
    "name": "Elia Beach",
    "updated_at": "2014-09-22T21:42:39.929289Z",
    "country": "gr",
    "parent": null,
    "longitude": 25.3927993774414,
    "latitude": 37.4216003417969,
    "regions": [
      "107d",
      "127f"
    ]
  },
  {
    "code": "1f3a4",
    "name": "Tourlos",
    "updated_at": "2014-09-22T21:42:39.911012Z",
    "country": "gr",
    "parent": null,
    "longitude": 25.3290004730225,
    "latitude": 37.4640007019043,
    "regions": [
      "107d",
      "127f"
    ]
  },
  {
    "code": "1f3a3",
    "name": "Psalidi",
    "updated_at": "2014-09-22T21:42:39.887600Z",
    "country": "gr",
    "parent": null,
    "longitude": 27.3150005340576,
    "latitude": 36.8779983520508,
    "regions": [
      "107e",
      "119e"
    ]
  },
  {
    "code": "1f3a2",
    "name": "Agios Ioannis Mykonos",
    "updated_at": "2014-09-22T21:42:39.864857Z",
    "country": "gr",
    "parent": null,
    "longitude": 25.3090000152588,
    "latitude": 37.4230003356934,
    "regions": [
      "107d",
      "127f"
    ]
  },
  {
    "code": "1f3a1",
    "name": "Perivolos",
    "updated_at": "2014-09-22T21:42:39.838474Z",
    "country": "gr",
    "parent": null,
    "longitude": 25.451000213623,
    "latitude": 36.398998260498,
    "regions": [
      "107d",
      "1179"
    ]
  },
  {
    "code": "1f3a0",
    "name": "Agios Ioannis Peristerion",
    "updated_at": "2014-09-22T21:42:39.806394Z",
    "country": "gr",
    "parent": null,
    "longitude": 19.9109992980957,
    "latitude": 39.507999420166,
    "regions": [
      "107f",
      "1180"
    ]
  },
  {
    "code": "1f39f",
    "name": "Ornos",
    "updated_at": "2014-09-22T21:42:39.770592Z",
    "country": "gr",
    "parent": null,
    "longitude": 25.3190002441406,
    "latitude": 37.4210014343262,
    "regions": [
      "107d",
      "127f"
    ]
  },
  {
    "code": "1f39e",
    "name": "Mylopotas",
    "updated_at": "2014-09-22T21:42:39.734649Z",
    "country": "gr",
    "parent": null,
    "longitude": 25.2970008850098,
    "latitude": 36.7140007019043,
    "regions": [
      "107d",
      "127d"
    ]
  },
  {
    "code": "1f39d",
    "name": "Pefki Rhodes",
    "updated_at": "2014-09-22T21:42:39.715577Z",
    "country": "gr",
    "parent": null,
    "longitude": 28.053746,
    "latitude": 36.073129,
    "regions": [
      "107e",
      "1182"
    ]
  },
  {
    "code": "1f39c",
    "name": "Agios Stefanos",
    "updated_at": "2014-09-22T21:42:39.696368Z",
    "country": "gr",
    "parent": null,
    "longitude": 25.3190002441406,
    "latitude": 37.4700012207031,
    "regions": [
      "107d",
      "127f"
    ]
  },
  {
    "code": "1f39b",
    "name": "Agrari",
    "updated_at": "2014-09-22T21:42:39.657198Z",
    "country": "gr",
    "parent": null,
    "longitude": 25.3819999694824,
    "latitude": 37.4210014343262,
    "regions": [
      "107d",
      "127f"
    ]
  },
  {
    "code": "1f39a",
    "name": "Agios Prokopios",
    "updated_at": "2014-09-22T21:42:39.637725Z",
    "country": "gr",
    "parent": null,
    "longitude": 25.3560009002686,
    "latitude": 37.0740013122559,
    "regions": [
      "107d",
      "1280"
    ]
  },
  {
    "code": "1f399",
    "name": "Parikia",
    "updated_at": "2014-09-22T21:42:39.586905Z",
    "country": "gr",
    "parent": null,
    "longitude": 25.1495990753174,
    "latitude": 37.0845985412598,
    "regions": [
      "107d",
      "1281"
    ]
  },
  {
    "code": "1f398",
    "name": "Platis Yalos",
    "updated_at": "2014-09-22T21:42:39.558668Z",
    "country": "gr",
    "parent": null,
    "longitude": 25.3418006896973,
    "latitude": 37.4137001037598,
    "regions": [
      "107d",
      "127f"
    ]
  },
  {
    "code": "1f397",
    "name": "Archanes",
    "updated_at": "2014-09-22T21:42:39.524496Z",
    "country": "gr",
    "parent": "23a96",
    "longitude": 25.1594009399414,
    "latitude": 35.2369003295898,
    "regions": [
      "107c"
    ]
  },
  {
    "code": "1f396",
    "name": "Paleokastritsa",
    "updated_at": "2014-09-22T21:42:39.488808Z",
    "country": "gr",
    "parent": null,
    "longitude": 19.7029991149902,
    "latitude": 39.6790008544922,
    "regions": [
      "107f",
      "1180"
    ]
  },
  {
    "code": "1f395",
    "name": "Firostefani",
    "updated_at": "2014-09-22T21:42:39.456527Z",
    "country": "gr",
    "parent": null,
    "longitude": 25.4330005645752,
    "latitude": 36.4290008544922,
    "regions": [
      "107d",
      "1179"
    ]
  },
  {
    "code": "1f394",
    "name": "Perissa",
    "updated_at": "2014-09-22T21:42:39.438713Z",
    "country": "gr",
    "parent": null,
    "longitude": 25.4640007019043,
    "latitude": 36.3549995422363,
    "regions": [
      "107d",
      "1179"
    ]
  },
  {
    "code": "1f393",
    "name": "Paestum",
    "updated_at": "2014-09-22T21:42:39.421073Z",
    "country": "it",
    "parent": null,
    "longitude": 14.9954996109009,
    "latitude": 40.4095001220703,
    "regions": [
      "1094"
    ]
  },
  {
    "code": "1f392",
    "name": "Vatera",
    "updated_at": "2014-09-22T21:42:39.402525Z",
    "country": "gr",
    "parent": null,
    "longitude": 26.1959991455078,
    "latitude": 39.0200004577637,
    "regions": [
      "11d1"
    ]
  },
  {
    "code": "1f391",
    "name": "San Vicente do Mar",
    "updated_at": "2014-09-22T21:42:39.384456Z",
    "country": "es",
    "parent": null,
    "longitude": -8.92475986480713,
    "latitude": 42.4550018310547,
    "regions": [
      "105d"
    ]
  },
  {
    "code": "1f390",
    "name": "Valderice",
    "updated_at": "2014-09-22T21:42:39.359798Z",
    "country": "it",
    "parent": null,
    "longitude": 12.6145000457764,
    "latitude": 38.0374984741211,
    "regions": [
      "109e"
    ]
  },
  {
    "code": "1f38f",
    "name": "Ponteranica",
    "updated_at": "2014-09-22T21:42:39.331416Z",
    "country": "it",
    "parent": null,
    "longitude": 9.65355014801025,
    "latitude": 45.7336006164551,
    "regions": [
      "1099"
    ]
  },
  {
    "code": "1f38e",
    "name": "Agia Pelagia",
    "updated_at": "2014-09-22T21:42:39.302801Z",
    "country": "gr",
    "parent": "23a96",
    "longitude": 25.0179996490479,
    "latitude": 35.4080009460449,
    "regions": [
      "107c"
    ]
  },
  {
    "code": "1f38d",
    "name": "Kalamaki",
    "updated_at": "2014-09-22T21:42:39.271732Z",
    "country": "gr",
    "parent": "23a96",
    "longitude": 23.9610004425049,
    "latitude": 35.5099983215332,
    "regions": [
      "107c"
    ]
  },
  {
    "code": "1f38c",
    "name": "Acharavi",
    "updated_at": "2014-09-22T21:42:39.235741Z",
    "country": "gr",
    "parent": null,
    "longitude": 19.8185005187988,
    "latitude": 39.7934989929199,
    "regions": [
      "107f",
      "1180"
    ]
  },
  {
    "code": "1f38b",
    "name": "Mikri Vigla",
    "updated_at": "2014-09-22T21:42:39.200086Z",
    "country": "gr",
    "parent": null,
    "longitude": 25.3708000183105,
    "latitude": 37.0271987915039,
    "regions": [
      "107d",
      "1280"
    ]
  },
  {
    "code": "1f38a",
    "name": "Rheinstetten",
    "updated_at": "2014-09-22T21:42:39.179143Z",
    "country": "de",
    "parent": null,
    "longitude": 8.28882026672363,
    "latitude": 48.9599990844727,
    "regions": [
      "1044"
    ]
  },
  {
    "code": "1f389",
    "name": "Amoudara Herakliou",
    "updated_at": "2014-09-22T21:42:39.161359Z",
    "country": "gr",
    "parent": "23a96",
    "longitude": 25.0960998535156,
    "latitude": 35.3372993469238,
    "regions": [
      "107c"
    ]
  },
  {
    "code": "1f388",
    "name": "Comarruga",
    "updated_at": "2014-09-22T21:42:39.142226Z",
    "country": "es",
    "parent": null,
    "longitude": 1.48160994052887,
    "latitude": 41.1781005859375,
    "regions": [
      "105c"
    ]
  },
  {
    "code": "1f387",
    "name": "San Macario In Piano",
    "updated_at": "2014-09-22T21:42:39.122317Z",
    "country": "it",
    "parent": null,
    "longitude": 10.4317998886108,
    "latitude": 43.8648986816406,
    "regions": [
      "109f"
    ]
  },
  {
    "code": "1f386",
    "name": "Weilrod",
    "updated_at": "2014-09-22T21:42:39.105419Z",
    "country": "de",
    "parent": null,
    "longitude": 8.39766979217529,
    "latitude": 50.3315010070801,
    "regions": [
      "1047"
    ]
  },
  {
    "code": "1f385",
    "name": "Formigal",
    "updated_at": "2014-09-22T21:42:39.083634Z",
    "country": "es",
    "parent": null,
    "longitude": -0.361000001430511,
    "latitude": 42.7776985168457,
    "regions": [
      "1054"
    ]
  },
  {
    "code": "1f384",
    "name": "Psari Forada",
    "updated_at": "2014-09-22T21:42:39.057212Z",
    "country": "gr",
    "parent": "23a96",
    "longitude": 25.5153007507324,
    "latitude": 35.0078010559082,
    "regions": [
      "107c"
    ]
  },
  {
    "code": "1f383",
    "name": "L'Etivaz",
    "updated_at": "2014-09-22T21:42:39.031140Z",
    "country": "ch",
    "parent": null,
    "longitude": 7.14652013778687,
    "latitude": 46.4229011535645,
    "regions": [
      "1414"
    ]
  },
  {
    "code": "1f382",
    "name": "Guardamar del Segura",
    "updated_at": "2014-09-22T21:42:38.999912Z",
    "country": "es",
    "parent": null,
    "longitude": -0.650237023830414,
    "latitude": 38.084300994873,
    "regions": [
      "117b"
    ]
  },
  {
    "code": "1f381",
    "name": "Pieve Di Ledro",
    "updated_at": "2014-09-22T21:42:38.964856Z",
    "country": "it",
    "parent": null,
    "longitude": 10.7423000335693,
    "latitude": 45.8676986694336,
    "regions": [
      "10a0"
    ]
  },
  {
    "code": "1f380",
    "name": "Es Castell",
    "updated_at": "2014-09-22T21:42:38.927660Z",
    "country": "es",
    "parent": null,
    "longitude": 4.29125022888184,
    "latitude": 39.8790016174316,
    "regions": [
      "1056",
      "1161"
    ]
  },
  {
    "code": "1f37f",
    "name": "Kalletal",
    "updated_at": "2014-09-22T21:42:38.907419Z",
    "country": "de",
    "parent": null,
    "longitude": 8.94616985321045,
    "latitude": 52.1057014465332,
    "regions": [
      "104a"
    ]
  },
  {
    "code": "1f37e",
    "name": "Erskine",
    "updated_at": "2014-09-22T21:42:38.889835Z",
    "country": "gb",
    "parent": null,
    "longitude": -4.46000003814697,
    "latitude": 55.9000015258789,
    "regions": [
      "1212"
    ]
  },
  {
    "code": "1f37d",
    "name": "Beanacre",
    "updated_at": "2014-09-22T21:42:38.873227Z",
    "country": "gb",
    "parent": null,
    "longitude": -2.13883996009827,
    "latitude": 51.3950996398926,
    "regions": [
      "120a"
    ]
  },
  {
    "code": "1f37c",
    "name": "Laganas",
    "updated_at": "2014-09-22T21:42:38.856027Z",
    "country": "gr",
    "parent": null,
    "longitude": 20.8638000488281,
    "latitude": 37.7270011901855,
    "regions": [
      "107f",
      "1186"
    ]
  },
  {
    "code": "1f37b",
    "name": "Swisttal",
    "updated_at": "2014-09-22T21:42:38.837506Z",
    "country": "de",
    "parent": null,
    "longitude": 6.91263008117676,
    "latitude": 50.7159004211426,
    "regions": [
      "104a"
    ]
  },
  {
    "code": "1f37a",
    "name": "Riedstadt",
    "updated_at": "2014-09-22T21:42:38.814522Z",
    "country": "de",
    "parent": null,
    "longitude": 8.53563022613525,
    "latitude": 49.8033981323242,
    "regions": [
      "1047"
    ]
  },
  {
    "code": "1f379",
    "name": "Acitrezza",
    "updated_at": "2014-09-22T21:42:38.786811Z",
    "country": "it",
    "parent": null,
    "longitude": 15.1598997116089,
    "latitude": 37.5596008300781,
    "regions": [
      "109e"
    ]
  },
  {
    "code": "1f378",
    "name": "San Siro",
    "updated_at": "2014-09-22T21:42:38.757987Z",
    "country": "it",
    "parent": null,
    "longitude": 9.26873016357422,
    "latitude": 46.0653991699219,
    "regions": [
      "1099"
    ]
  },
  {
    "code": "1f377",
    "name": "Angelbachtal",
    "updated_at": "2014-09-22T21:42:38.726855Z",
    "country": "de",
    "parent": null,
    "longitude": 8.78423023223877,
    "latitude": 49.2233009338379,
    "regions": [
      "1044"
    ]
  },
  {
    "code": "1f376",
    "name": "Heuvelland",
    "updated_at": "2014-09-22T21:42:38.692066Z",
    "country": "be",
    "parent": null,
    "longitude": 2.88203001022339,
    "latitude": 50.7858009338379,
    "regions": [
      "1019"
    ]
  },
  {
    "code": "1f375",
    "name": "Varmahlid",
    "updated_at": "2014-09-22T21:42:38.657814Z",
    "country": "is",
    "parent": null,
    "longitude": -19.4745006561279,
    "latitude": 65.5623016357422,
    "regions": [
      "130c"
    ]
  },
  {
    "code": "1f374",
    "name": "Peñamellera Baja",
    "updated_at": "2014-09-22T21:42:38.640672Z",
    "country": "es",
    "parent": null,
    "longitude": -4.54090023040771,
    "latitude": 43.3190994262695,
    "regions": [
      "1055"
    ]
  },
  {
    "code": "1f373",
    "name": "Riederalp",
    "updated_at": "2014-09-22T21:42:38.605739Z",
    "country": "ch",
    "parent": null,
    "longitude": 8.02667045593262,
    "latitude": 46.3763999938965,
    "regions": [
      "1030"
    ]
  },
  {
    "code": "1f372",
    "name": "Retamar",
    "updated_at": "2014-09-22T21:42:38.588386Z",
    "country": "es",
    "parent": null,
    "longitude": -2.30866003036499,
    "latitude": 36.8372001647949,
    "regions": [
      "1053"
    ]
  },
  {
    "code": "1f371",
    "name": "Olympic Valley",
    "updated_at": "2014-09-22T21:42:38.568573Z",
    "country": "us",
    "parent": null,
    "longitude": -120.210998535156,
    "latitude": 39.203800201416,
    "regions": [
      "11dc"
    ]
  },
  {
    "code": "1f370",
    "name": "Son Macia",
    "updated_at": "2014-09-22T21:42:38.543024Z",
    "country": "es",
    "parent": null,
    "longitude": 3.21659994125366,
    "latitude": 39.513500213623,
    "regions": [
      "1056",
      "1063"
    ]
  },
  {
    "code": "1f36f",
    "name": "Geroldswil",
    "updated_at": "2014-09-22T21:42:38.516702Z",
    "country": "ch",
    "parent": null,
    "longitude": 8.40952014923096,
    "latitude": 47.4219017028809,
    "regions": [
      "1031"
    ]
  },
  {
    "code": "1f36e",
    "name": "Santo Isidoro",
    "updated_at": "2014-09-22T21:42:38.491103Z",
    "country": "pt",
    "parent": null,
    "longitude": -9.39564037322998,
    "latitude": 38.9928016662598,
    "regions": [
      "1433"
    ]
  },
  {
    "code": "1f36d",
    "name": "Hirschberg an der Bergstraße",
    "updated_at": "2014-09-22T21:42:38.456312Z",
    "country": "de",
    "parent": null,
    "longitude": 8.66230010986328,
    "latitude": 49.499698638916,
    "regions": [
      "1044"
    ]
  },
  {
    "code": "1f36c",
    "name": "Hellaby",
    "updated_at": "2014-09-22T21:42:38.426482Z",
    "country": "gb",
    "parent": null,
    "longitude": -1.24330997467041,
    "latitude": 53.4227981567383,
    "regions": [
      "1330"
    ]
  },
  {
    "code": "1f36b",
    "name": "Fuensanta",
    "updated_at": "2014-09-22T21:42:38.392078Z",
    "country": "es",
    "parent": null,
    "longitude": -3.90725994110107,
    "latitude": 37.1813011169434,
    "regions": [
      "1053"
    ]
  },
  {
    "code": "1f36a",
    "name": "Montouto",
    "updated_at": "2014-09-22T21:42:38.373946Z",
    "country": "es",
    "parent": null,
    "longitude": -8.54611015319824,
    "latitude": 42.8358001708984,
    "regions": [
      "105d"
    ]
  },
  {
    "code": "1f369",
    "name": "Fornalutx",
    "updated_at": "2014-09-22T21:42:38.355968Z",
    "country": "es",
    "parent": null,
    "longitude": 2.73305988311768,
    "latitude": 39.7831001281738,
    "regions": [
      "1056",
      "1063"
    ]
  },
  {
    "code": "1f368",
    "name": "Rosta",
    "updated_at": "2014-09-22T21:42:38.337707Z",
    "country": "it",
    "parent": null,
    "longitude": 7.46625995635986,
    "latitude": 45.0689010620117,
    "regions": [
      "109b"
    ]
  },
  {
    "code": "1f367",
    "name": "St Ulrich in Groden",
    "updated_at": "2014-09-22T21:42:38.319033Z",
    "country": "it",
    "parent": null,
    "longitude": 11.6639003753662,
    "latitude": 46.5733985900879,
    "regions": []
  },
  {
    "code": "1f366",
    "name": "La Jonquera",
    "updated_at": "2014-09-22T21:42:38.300473Z",
    "country": "es",
    "parent": null,
    "longitude": 2.87187004089355,
    "latitude": 42.4160003662109,
    "regions": [
      "105c"
    ]
  },
  {
    "code": "1f365",
    "name": "La Cala de Mijas",
    "updated_at": "2014-09-22T21:42:38.272060Z",
    "country": "es",
    "parent": null,
    "longitude": -4.68052005767822,
    "latitude": 36.5022010803223,
    "regions": [
      "1053"
    ]
  },
  {
    "code": "1f364",
    "name": "Manerba del Garda",
    "updated_at": "2014-09-22T21:42:38.243547Z",
    "country": "it",
    "parent": null,
    "longitude": 10.5513000488281,
    "latitude": 45.5494995117188,
    "regions": [
      "1099"
    ]
  },
  {
    "code": "1f363",
    "name": "Campora San Giovanni",
    "updated_at": "2014-09-22T21:42:38.214535Z",
    "country": "it",
    "parent": null,
    "longitude": 16.0900001525879,
    "latitude": 39.060001373291,
    "regions": []
  },
  {
    "code": "1f362",
    "name": "Grange Over Sands",
    "updated_at": "2014-09-22T21:42:38.179091Z",
    "country": "gb",
    "parent": null,
    "longitude": -2.916179895401,
    "latitude": 54.187198638916,
    "regions": [
      "10d7"
    ]
  },
  {
    "code": "1f361",
    "name": "Puerto Rico",
    "updated_at": "2014-09-22T21:42:38.143895Z",
    "country": "es",
    "parent": null,
    "longitude": -15.7104034423828,
    "latitude": 27.7887210845947,
    "regions": [
      "1058",
      "105f"
    ]
  },
  {
    "code": "1f360",
    "name": "Sant Antonio Di Gallura",
    "updated_at": "2014-09-22T21:42:38.117679Z",
    "country": "it",
    "parent": null,
    "longitude": 9.30189037322998,
    "latitude": 40.9905014038086,
    "regions": [
      "109d"
    ]
  },
  {
    "code": "1f35f",
    "name": "La Joya",
    "updated_at": "2014-09-22T21:42:38.099056Z",
    "country": "es",
    "parent": null,
    "longitude": -4.62349987030029,
    "latitude": 36.9325981140137,
    "regions": [
      "1053"
    ]
  },
  {
    "code": "1f35e",
    "name": "Monticelli Terme",
    "updated_at": "2014-09-22T21:42:38.079549Z",
    "country": "it",
    "parent": null,
    "longitude": 10.3951997756958,
    "latitude": 44.7266006469727,
    "regions": [
      "1095"
    ]
  },
  {
    "code": "1f35d",
    "name": "Zuia",
    "updated_at": "2014-09-22T21:42:38.059711Z",
    "country": "es",
    "parent": null,
    "longitude": -2.81858992576599,
    "latitude": 42.9561996459961,
    "regions": [
      "1057"
    ]
  },
  {
    "code": "1f35c",
    "name": "Santa Cruz de Oleiros",
    "updated_at": "2014-09-22T21:42:38.039668Z",
    "country": "es",
    "parent": null,
    "longitude": -8.34457015991211,
    "latitude": 43.342399597168,
    "regions": [
      "105d"
    ]
  },
  {
    "code": "1f35b",
    "name": "Bastiagueiro",
    "updated_at": "2014-09-22T21:42:38.017280Z",
    "country": "es",
    "parent": null,
    "longitude": -8.35116004943848,
    "latitude": 43.342700958252,
    "regions": [
      "105d"
    ]
  },
  {
    "code": "1f35a",
    "name": "Bassenthwaite",
    "updated_at": "2014-09-22T21:42:37.966106Z",
    "country": "gb",
    "parent": null,
    "longitude": -3.1949999332428,
    "latitude": 54.6790008544922,
    "regions": [
      "10d7"
    ]
  },
  {
    "code": "1f359",
    "name": "Telford",
    "updated_at": "2014-09-22T21:42:37.936555Z",
    "country": "gb",
    "parent": null,
    "longitude": -2.45166993141174,
    "latitude": 52.6772003173828,
    "regions": [
      "11ff"
    ]
  },
  {
    "code": "1f358",
    "name": "Cantello",
    "updated_at": "2014-09-22T21:42:37.902931Z",
    "country": "it",
    "parent": null,
    "longitude": 8.89548969268799,
    "latitude": 45.8213996887207,
    "regions": [
      "1099"
    ]
  },
  {
    "code": "1f357",
    "name": "Grouville",
    "updated_at": "2014-09-22T21:42:37.864726Z",
    "country": "gb",
    "parent": null,
    "longitude": -2.03900003433228,
    "latitude": 49.1860008239746,
    "regions": [
      "116a"
    ]
  },
  {
    "code": "1f356",
    "name": "Leavenheath",
    "updated_at": "2014-09-22T21:42:37.848272Z",
    "country": "gb",
    "parent": null,
    "longitude": 0.843999981880188,
    "latitude": 51.992000579834,
    "regions": [
      "1205"
    ]
  },
  {
    "code": "1f355",
    "name": "Oakmere",
    "updated_at": "2014-09-22T21:42:37.831802Z",
    "country": "gb",
    "parent": null,
    "longitude": -2.64199995994568,
    "latitude": 53.2190017700195,
    "regions": [
      "11ae"
    ]
  },
  {
    "code": "1f354",
    "name": "Volla",
    "updated_at": "2014-09-22T21:42:37.815089Z",
    "country": "it",
    "parent": null,
    "longitude": 14.3438997268677,
    "latitude": 40.8796005249023,
    "regions": [
      "1094"
    ]
  },
  {
    "code": "1f353",
    "name": "Mati",
    "updated_at": "2014-09-22T21:42:37.795068Z",
    "country": "gr",
    "parent": null,
    "longitude": 23.9979991912842,
    "latitude": 38.0460014343262,
    "regions": [
      "1438"
    ]
  },
  {
    "code": "1f352",
    "name": "Cala Pi",
    "updated_at": "2014-09-22T21:42:37.775249Z",
    "country": "es",
    "parent": null,
    "longitude": 2.85587000846863,
    "latitude": 39.3647994995117,
    "regions": [
      "1056",
      "1063"
    ]
  },
  {
    "code": "1f351",
    "name": "Camp de Mar",
    "updated_at": "2014-09-22T21:42:37.752099Z",
    "country": "es",
    "parent": null,
    "longitude": 2.417799949646,
    "latitude": 39.5386009216309,
    "regions": [
      "1056",
      "1063"
    ]
  },
  {
    "code": "1f350",
    "name": "Cala Bona",
    "updated_at": "2014-09-22T21:42:37.725925Z",
    "country": "es",
    "parent": null,
    "longitude": 3.38963007926941,
    "latitude": 39.6129989624023,
    "regions": [
      "1056",
      "1063"
    ]
  },
  {
    "code": "1f34f",
    "name": "Dällikon",
    "updated_at": "2014-09-22T21:42:37.701962Z",
    "country": "ch",
    "parent": null,
    "longitude": 8.43995952606201,
    "latitude": 47.4397010803223,
    "regions": [
      "1031"
    ]
  },
  {
    "code": "1f34e",
    "name": "Merone",
    "updated_at": "2014-09-22T21:42:37.668155Z",
    "country": "it",
    "parent": null,
    "longitude": 9.24499988555908,
    "latitude": 45.7879981994629,
    "regions": [
      "1099"
    ]
  },
  {
    "code": "1f34d",
    "name": "Cala Galdana",
    "updated_at": "2014-09-22T21:42:37.631952Z",
    "country": "es",
    "parent": null,
    "longitude": 3.96168994903564,
    "latitude": 39.9384994506836,
    "regions": [
      "1056",
      "1161"
    ]
  },
  {
    "code": "1f34c",
    "name": "Nueva Andalucia",
    "updated_at": "2014-09-22T21:42:37.600739Z",
    "country": "es",
    "parent": null,
    "longitude": -4.95725011825562,
    "latitude": 36.4902000427246,
    "regions": [
      "1053"
    ]
  },
  {
    "code": "1f34b",
    "name": "Poncebos",
    "updated_at": "2014-09-22T21:42:37.580822Z",
    "country": "es",
    "parent": null,
    "longitude": -4.83444976806641,
    "latitude": 43.2793006896973,
    "regions": [
      "1055"
    ]
  },
  {
    "code": "1f34a",
    "name": "Caleta De Fuste",
    "updated_at": "2014-09-22T21:42:37.561129Z",
    "country": "es",
    "parent": null,
    "longitude": -13.8632001876831,
    "latitude": 28.398099899292,
    "regions": [
      "1058",
      "105e"
    ]
  },
  {
    "code": "1f349",
    "name": "Bad Waltersdorf",
    "updated_at": "2014-09-22T21:42:37.540974Z",
    "country": "at",
    "parent": null,
    "longitude": 16.0086994171143,
    "latitude": 47.1696014404297,
    "regions": [
      "1009"
    ]
  },
  {
    "code": "1f348",
    "name": "Albena",
    "updated_at": "2014-09-22T21:42:37.522913Z",
    "country": "bg",
    "parent": null,
    "longitude": 28.0650959014893,
    "latitude": 43.3677711486816,
    "regions": [
      "10f9",
      "11f0"
    ]
  },
  {
    "code": "1f347",
    "name": "Roncadelle",
    "updated_at": "2014-09-22T21:42:37.504686Z",
    "country": "it",
    "parent": null,
    "longitude": 10.148099899292,
    "latitude": 45.5234985351562,
    "regions": [
      "1099"
    ]
  },
  {
    "code": "1f346",
    "name": "Es Cana",
    "updated_at": "2014-09-22T21:42:37.479505Z",
    "country": "es",
    "parent": null,
    "longitude": 1.59855997562408,
    "latitude": 39.0316009521484,
    "regions": [
      "1056",
      "1160"
    ]
  },
  {
    "code": "1f345",
    "name": "Gerakini",
    "updated_at": "2014-09-22T21:42:37.451123Z",
    "country": "gr",
    "parent": null,
    "longitude": 23.4477996826172,
    "latitude": 40.285701751709,
    "regions": [
      "14cb"
    ]
  },
  {
    "code": "1f344",
    "name": "Tamariu",
    "updated_at": "2014-09-22T21:42:37.423528Z",
    "country": "es",
    "parent": null,
    "longitude": 3.20655989646912,
    "latitude": 41.9183006286621,
    "regions": [
      "105c"
    ]
  },
  {
    "code": "1f343",
    "name": "Golden Sands",
    "updated_at": "2014-09-22T21:42:37.385443Z",
    "country": "bg",
    "parent": null,
    "longitude": 28.0401992797852,
    "latitude": 43.2812004089355,
    "regions": [
      "10f9"
    ]
  },
  {
    "code": "1f342",
    "name": "Sunny Beach",
    "updated_at": "2014-09-22T21:42:37.353472Z",
    "country": "bg",
    "parent": null,
    "longitude": 27.7103996276855,
    "latitude": 42.6915016174316,
    "regions": [
      "11f1"
    ]
  },
  {
    "code": "1f341",
    "name": "Sant Pere Pescador",
    "updated_at": "2014-09-22T21:42:37.325380Z",
    "country": "es",
    "parent": null,
    "longitude": 3.08053994178772,
    "latitude": 42.1880989074707,
    "regions": [
      "105c"
    ]
  },
  {
    "code": "1f340",
    "name": "Tignale",
    "updated_at": "2014-09-22T21:42:37.307378Z",
    "country": "it",
    "parent": null,
    "longitude": 10.7216997146606,
    "latitude": 45.7397003173828,
    "regions": [
      "1099"
    ]
  },
  {
    "code": "1f33f",
    "name": "Argonay",
    "updated_at": "2014-09-22T21:42:37.289293Z",
    "country": "fr",
    "parent": null,
    "longitude": 6.13967990875244,
    "latitude": 45.9449005126953,
    "regions": [
      "107a"
    ]
  },
  {
    "code": "1f33e",
    "name": "Punta Braccetto",
    "updated_at": "2014-09-22T21:42:37.270613Z",
    "country": "it",
    "parent": null,
    "longitude": 14.4709997177124,
    "latitude": 36.8160018920898,
    "regions": [
      "109e"
    ]
  },
  {
    "code": "1f33d",
    "name": "Ribadedeva",
    "updated_at": "2014-09-22T21:42:37.252443Z",
    "country": "es",
    "parent": null,
    "longitude": -4.54024982452393,
    "latitude": 43.3748016357422,
    "regions": [
      "1055"
    ]
  },
  {
    "code": "1f33c",
    "name": "Playa del Ingles",
    "updated_at": "2014-09-22T21:42:37.234155Z",
    "country": "es",
    "parent": null,
    "longitude": -15.5755996704102,
    "latitude": 27.75950050354,
    "regions": [
      "1058",
      "105f"
    ]
  },
  {
    "code": "1f33b",
    "name": "Muntelier",
    "updated_at": "2014-09-22T21:42:37.205827Z",
    "country": "ch",
    "parent": null,
    "longitude": 7.1230001449585,
    "latitude": 46.935001373291,
    "regions": [
      "102e"
    ]
  },
  {
    "code": "1f33a",
    "name": "Vandoies",
    "updated_at": "2014-09-22T21:42:37.179494Z",
    "country": "it",
    "parent": null,
    "longitude": 11.7229995727539,
    "latitude": 46.8170013427734,
    "regions": [
      "10a0"
    ]
  },
  {
    "code": "1f339",
    "name": "Mutxamel",
    "updated_at": "2014-09-22T21:42:37.150266Z",
    "country": "es",
    "parent": null,
    "longitude": -0.447876006364822,
    "latitude": 38.4205017089844,
    "regions": [
      "117b"
    ]
  },
  {
    "code": "1f338",
    "name": "Sant Andrea Bagni",
    "updated_at": "2014-09-22T21:42:37.113919Z",
    "country": "it",
    "parent": null,
    "longitude": 10.0899000167847,
    "latitude": 44.7228012084961,
    "regions": [
      "1095"
    ]
  },
  {
    "code": "1f337",
    "name": "San Paolo D'Argon",
    "updated_at": "2014-09-22T21:42:37.077894Z",
    "country": "it",
    "parent": null,
    "longitude": 9.80346012115479,
    "latitude": 45.6893997192383,
    "regions": [
      "1099"
    ]
  },
  {
    "code": "1f336",
    "name": "Side",
    "updated_at": "2014-09-22T21:42:37.048938Z",
    "country": "tr",
    "parent": null,
    "longitude": 31.3866996765137,
    "latitude": 36.7639007568359,
    "regions": [
      "10d5"
    ]
  },
  {
    "code": "1f335",
    "name": "Hornindal",
    "updated_at": "2014-09-22T21:42:37.030468Z",
    "country": "no",
    "parent": null,
    "longitude": 6.52389001846313,
    "latitude": 61.969898223877,
    "regions": [
      "10c7"
    ]
  },
  {
    "code": "1f334",
    "name": "Ospedaletto Lodigiano",
    "updated_at": "2014-09-22T21:42:37.011854Z",
    "country": "it",
    "parent": null,
    "longitude": 9.58699989318848,
    "latitude": 45.1730003356934,
    "regions": [
      "1099"
    ]
  },
  {
    "code": "1f333",
    "name": "Cagnano",
    "updated_at": "2014-09-22T21:42:36.974730Z",
    "country": "fr",
    "parent": null,
    "longitude": 9.47716999053955,
    "latitude": 42.8703002929688,
    "regions": [
      "115d"
    ]
  },
  {
    "code": "1f332",
    "name": "Xlendi",
    "updated_at": "2014-09-22T21:42:36.953430Z",
    "country": "mt",
    "parent": null,
    "longitude": 14.2180004119873,
    "latitude": 36.0340003967285,
    "regions": [
      "10a4"
    ]
  },
  {
    "code": "1f331",
    "name": "Schauenburg",
    "updated_at": "2014-09-22T21:42:36.927618Z",
    "country": "de",
    "parent": null,
    "longitude": 9.34202003479004,
    "latitude": 51.282901763916,
    "regions": [
      "1047"
    ]
  },
  {
    "code": "1f330",
    "name": "Budva",
    "updated_at": "2014-09-22T21:42:36.899554Z",
    "country": "me",
    "parent": null,
    "longitude": 18.8377105593668,
    "latitude": 42.2781347426669,
    "regions": [
      "161b"
    ]
  },
  {
    "code": "1f32f",
    "name": "Agiokampos",
    "updated_at": "2014-09-22T21:42:36.870049Z",
    "country": "gr",
    "parent": null,
    "longitude": 22.8659000396729,
    "latitude": 39.6880989074707,
    "regions": [
      "143a"
    ]
  },
  {
    "code": "1f32e",
    "name": "Heroldstatt",
    "updated_at": "2014-09-22T21:42:36.833832Z",
    "country": "de",
    "parent": null,
    "longitude": 9.67000007629395,
    "latitude": 48.4469985961914,
    "regions": [
      "1044"
    ]
  },
  {
    "code": "1f32d",
    "name": "Es Migjorn Gran",
    "updated_at": "2014-09-22T21:42:36.801314Z",
    "country": "es",
    "parent": null,
    "longitude": 4.04925012588501,
    "latitude": 39.9464988708496,
    "regions": [
      "1056",
      "1161"
    ]
  },
  {
    "code": "1f32c",
    "name": "Lo-Reninge",
    "updated_at": "2014-09-22T21:42:36.778329Z",
    "country": "be",
    "parent": null,
    "longitude": 2.74870991706848,
    "latitude": 50.980598449707,
    "regions": [
      "1019"
    ]
  },
  {
    "code": "1f32b",
    "name": "St Saviour Guernsey",
    "updated_at": "2014-09-22T21:42:36.761273Z",
    "country": "gb",
    "parent": null,
    "longitude": -2.61400008201599,
    "latitude": 49.4449996948242,
    "regions": [
      "116e"
    ]
  },
  {
    "code": "1f32a",
    "name": "Castel",
    "updated_at": "2014-09-22T21:42:36.743137Z",
    "country": "gb",
    "parent": null,
    "longitude": -2.60599994659424,
    "latitude": 49.4710006713867,
    "regions": [
      "116e"
    ]
  },
  {
    "code": "1f329",
    "name": "St Martin Guernsey",
    "updated_at": "2014-09-22T21:42:36.724667Z",
    "country": "gb",
    "parent": null,
    "longitude": -2.5550000667572,
    "latitude": 49.4370002746582,
    "regions": [
      "116e"
    ]
  },
  {
    "code": "1f328",
    "name": "Budoni",
    "updated_at": "2014-09-22T21:42:36.706229Z",
    "country": "it",
    "parent": null,
    "longitude": 9.6992301940918,
    "latitude": 40.7094993591309,
    "regions": [
      "109d"
    ]
  },
  {
    "code": "1f327",
    "name": "Sitterswald",
    "updated_at": "2014-09-22T21:42:36.683579Z",
    "country": "de",
    "parent": null,
    "longitude": 7.06583976745605,
    "latitude": 49.1293983459473,
    "regions": [
      "104c"
    ]
  },
  {
    "code": "1f326",
    "name": "Terme Vigliatore",
    "updated_at": "2014-09-22T21:42:36.657211Z",
    "country": "it",
    "parent": null,
    "longitude": 15.1639995574951,
    "latitude": 38.1349983215332,
    "regions": [
      "109e"
    ]
  },
  {
    "code": "1f325",
    "name": "St. Saviour",
    "updated_at": "2014-09-22T21:42:36.630753Z",
    "country": "gb",
    "parent": null,
    "longitude": -2.08200001716614,
    "latitude": 49.1980018615723,
    "regions": [
      "116a"
    ]
  },
  {
    "code": "1f324",
    "name": "St Lawrence",
    "updated_at": "2014-09-22T21:42:36.598952Z",
    "country": "gb",
    "parent": null,
    "longitude": -2.13800001144409,
    "latitude": 49.1980018615723,
    "regions": [
      "116a"
    ]
  },
  {
    "code": "1f323",
    "name": "Vulcano",
    "updated_at": "2014-09-22T21:42:36.564412Z",
    "country": "it",
    "parent": null,
    "longitude": 14.9569997787476,
    "latitude": 38.4140014648438,
    "regions": [
      "109e",
      "11e7"
    ]
  },
  {
    "code": "1f322",
    "name": "Stromboli",
    "updated_at": "2014-09-22T21:42:36.528101Z",
    "country": "it",
    "parent": null,
    "longitude": 15.2379999160767,
    "latitude": 38.8019981384277,
    "regions": [
      "109e",
      "11de"
    ]
  },
  {
    "code": "1f321",
    "name": "St Brelade",
    "updated_at": "2014-09-22T21:42:36.510433Z",
    "country": "gb",
    "parent": null,
    "longitude": -2.19357991218567,
    "latitude": 49.1851997375488,
    "regions": [
      "116a"
    ]
  },
  {
    "code": "1f320",
    "name": "St Mary",
    "updated_at": "2014-09-22T21:42:36.493886Z",
    "country": "gb",
    "parent": null,
    "longitude": -2.16986989974976,
    "latitude": 49.2350997924805,
    "regions": [
      "116a"
    ]
  },
  {
    "code": "1f31f",
    "name": "Bersteland",
    "updated_at": "2014-09-22T21:42:36.477009Z",
    "country": "de",
    "parent": null,
    "longitude": 13.7449998855591,
    "latitude": 51.9620018005371,
    "regions": [
      "1046"
    ]
  },
  {
    "code": "1f31e",
    "name": "Zeanuri",
    "updated_at": "2014-09-22T21:42:36.458610Z",
    "country": "es",
    "parent": null,
    "longitude": -2.75,
    "latitude": 43.0989990234375,
    "regions": [
      "1057"
    ]
  },
  {
    "code": "1f31d",
    "name": "Punta Prima",
    "updated_at": "2014-09-22T21:42:36.438843Z",
    "country": "es",
    "parent": null,
    "longitude": 4.27880001068115,
    "latitude": 39.8166999816895,
    "regions": [
      "1056",
      "1161"
    ]
  },
  {
    "code": "1f31c",
    "name": "Cala'n Porter",
    "updated_at": "2014-09-22T21:42:36.414420Z",
    "country": "es",
    "parent": null,
    "longitude": 4.13490009307861,
    "latitude": 39.8773002624512,
    "regions": [
      "1056",
      "1161"
    ]
  },
  {
    "code": "1f31b",
    "name": "Cosgaya",
    "updated_at": "2014-09-22T21:42:36.386001Z",
    "country": "es",
    "parent": null,
    "longitude": -4.72760009765625,
    "latitude": 43.1092987060547,
    "regions": [
      "1059"
    ]
  },
  {
    "code": "1f31a",
    "name": "Jesus Pobre",
    "updated_at": "2014-09-22T21:42:36.357658Z",
    "country": "es",
    "parent": null,
    "longitude": 0.0939999967813492,
    "latitude": 38.7960014343262,
    "regions": [
      "117b"
    ]
  },
  {
    "code": "1f319",
    "name": "Sant Hilari Sacalm",
    "updated_at": "2014-09-22T21:42:36.323982Z",
    "country": "es",
    "parent": null,
    "longitude": 2.50500011444092,
    "latitude": 41.9020004272461,
    "regions": [
      "105c"
    ]
  },
  {
    "code": "1f318",
    "name": "Portinatx",
    "updated_at": "2014-09-22T21:42:36.288398Z",
    "country": "es",
    "parent": null,
    "longitude": 1.51769995689392,
    "latitude": 39.1123008728027,
    "regions": [
      "1056",
      "1160"
    ]
  },
  {
    "code": "1f317",
    "name": "Tux",
    "updated_at": "2014-09-22T21:42:36.255901Z",
    "country": "at",
    "parent": null,
    "longitude": 11.7270002365112,
    "latitude": 47.1549987792969,
    "regions": [
      "100a"
    ]
  },
  {
    "code": "1f316",
    "name": "Selva di Val Gardena",
    "updated_at": "2014-09-22T21:42:36.240068Z",
    "country": "it",
    "parent": null,
    "longitude": 11.7550001144409,
    "latitude": 46.5559997558594,
    "regions": [
      "10a0"
    ]
  },
  {
    "code": "1f315",
    "name": "Poggio alla Malva",
    "updated_at": "2014-09-22T21:42:36.222170Z",
    "country": "it",
    "parent": null,
    "longitude": 11.0539999008179,
    "latitude": 43.7700004577637,
    "regions": [
      "109f"
    ]
  },
  {
    "code": "1f314",
    "name": "Cala Murada",
    "updated_at": "2014-09-22T21:42:36.203572Z",
    "country": "es",
    "parent": null,
    "longitude": 3.27600002288818,
    "latitude": 39.4529991149902,
    "regions": [
      "1056",
      "1063"
    ]
  },
  {
    "code": "1f313",
    "name": "S'Illot",
    "updated_at": "2014-09-22T21:42:36.185068Z",
    "country": "es",
    "parent": null,
    "longitude": 3.37100005149841,
    "latitude": 39.5610008239746,
    "regions": [
      "1056",
      "1063"
    ]
  },
  {
    "code": "1f312",
    "name": "Les Deux Alpes",
    "updated_at": "2014-09-22T21:42:36.166153Z",
    "country": "fr",
    "parent": null,
    "longitude": 6.125,
    "latitude": 45.0149993896484,
    "regions": [
      "107a"
    ]
  },
  {
    "code": "1f311",
    "name": "Cusago",
    "updated_at": "2014-09-22T21:42:36.137920Z",
    "country": "it",
    "parent": null,
    "longitude": 9.04899978637695,
    "latitude": 45.431999206543,
    "regions": [
      "1099"
    ]
  },
  {
    "code": "1f310",
    "name": "Nannestad",
    "updated_at": "2014-09-22T21:42:36.109394Z",
    "country": "no",
    "parent": null,
    "longitude": 11.0170001983643,
    "latitude": 60.2200012207031,
    "regions": [
      "10bf"
    ]
  },
  {
    "code": "1f30f",
    "name": "Aurland",
    "updated_at": "2014-09-22T21:42:36.073152Z",
    "country": "no",
    "parent": null,
    "longitude": 7.19299983978271,
    "latitude": 60.9059982299805,
    "regions": [
      "10c7"
    ]
  },
  {
    "code": "1f30e",
    "name": "Coinsins",
    "updated_at": "2014-09-22T21:42:36.038062Z",
    "country": "ch",
    "parent": null,
    "longitude": 6.23899984359741,
    "latitude": 46.423999786377,
    "regions": [
      "1414"
    ]
  },
  {
    "code": "1f30d",
    "name": "Morlon",
    "updated_at": "2014-09-22T21:42:36.003014Z",
    "country": "ch",
    "parent": null,
    "longitude": 7.08400011062622,
    "latitude": 46.625,
    "regions": [
      "102e"
    ]
  },
  {
    "code": "1f30c",
    "name": "Bettmeralp",
    "updated_at": "2014-09-22T21:42:35.978245Z",
    "country": "ch",
    "parent": null,
    "longitude": 8.06099987030029,
    "latitude": 46.3889999389648,
    "regions": [
      "1030"
    ]
  },
  {
    "code": "1f30b",
    "name": "Ausserberg",
    "updated_at": "2014-09-22T21:42:35.961918Z",
    "country": "ch",
    "parent": null,
    "longitude": 7.85200023651123,
    "latitude": 46.314998626709,
    "regions": [
      "1030"
    ]
  },
  {
    "code": "1f30a",
    "name": "Porto Taverna",
    "updated_at": "2014-09-22T21:42:35.946359Z",
    "country": "it",
    "parent": null,
    "longitude": 9.65100002288818,
    "latitude": 40.8600006103516,
    "regions": [
      "109d"
    ]
  },
  {
    "code": "1f309",
    "name": "Santo Tomé del Puerto",
    "updated_at": "2014-09-22T21:42:35.927827Z",
    "country": "es",
    "parent": null,
    "longitude": -3.5789999961853,
    "latitude": 41.1959991455078,
    "regions": [
      "105b"
    ]
  },
  {
    "code": "1f308",
    "name": "Hondarribia",
    "updated_at": "2014-09-22T21:42:35.909096Z",
    "country": "es",
    "parent": null,
    "longitude": -1.79359996318817,
    "latitude": 43.3698997497559,
    "regions": [
      "1057"
    ]
  },
  {
    "code": "1f307",
    "name": "La Seu D'urgell",
    "updated_at": "2014-09-22T21:42:35.887121Z",
    "country": "es",
    "parent": null,
    "longitude": 1.45899999141693,
    "latitude": 42.3580017089844,
    "regions": [
      "105c"
    ]
  },
  {
    "code": "1f306",
    "name": "Albavilla",
    "updated_at": "2014-09-22T21:42:35.858493Z",
    "country": "it",
    "parent": null,
    "longitude": 9.1879997253418,
    "latitude": 45.8019981384277,
    "regions": [
      "1099"
    ]
  },
  {
    "code": "1f305",
    "name": "Le Mont Saint Michel",
    "updated_at": "2014-09-22T21:42:35.829932Z",
    "country": "fr",
    "parent": null,
    "longitude": -1.5110000371933,
    "latitude": 48.6360015869141,
    "regions": [
      "1334"
    ]
  },
  {
    "code": "1f304",
    "name": "Montézillon",
    "updated_at": "2014-09-22T21:42:35.798660Z",
    "country": "ch",
    "parent": null,
    "longitude": 6.83699989318848,
    "latitude": 46.9860000610352,
    "regions": [
      "1425"
    ]
  },
  {
    "code": "1f303",
    "name": "Ipsach",
    "updated_at": "2014-09-22T21:42:35.760731Z",
    "country": "ch",
    "parent": null,
    "longitude": 7.23199987411499,
    "latitude": 47.1160011291504,
    "regions": [
      "1421"
    ]
  },
  {
    "code": "1f302",
    "name": "Origlio",
    "updated_at": "2014-09-22T21:42:35.708368Z",
    "country": "ch",
    "parent": null,
    "longitude": 8.9443998336792,
    "latitude": 46.0542984008789,
    "regions": [
      "102f"
    ]
  },
  {
    "code": "1f301",
    "name": "Merlischachen",
    "updated_at": "2014-09-22T21:42:35.692730Z",
    "country": "ch",
    "parent": null,
    "longitude": 8.40900039672852,
    "latitude": 47.0660018920898,
    "regions": [
      "1429"
    ]
  },
  {
    "code": "1f300",
    "name": "Alp",
    "updated_at": "2014-09-22T21:42:35.675751Z",
    "country": "es",
    "parent": null,
    "longitude": 1.88699996471405,
    "latitude": 42.3740005493164,
    "regions": [
      "105c"
    ]
  },
  {
    "code": "1f2ff",
    "name": "Costa Calma",
    "updated_at": "2014-09-22T21:42:35.655894Z",
    "country": "es",
    "parent": null,
    "longitude": -14.2239999771118,
    "latitude": 28.1650009155273,
    "regions": [
      "1058",
      "105e"
    ]
  },
  {
    "code": "1f2fe",
    "name": "Bagnatica",
    "updated_at": "2014-09-22T21:42:35.636019Z",
    "country": "it",
    "parent": null,
    "longitude": 9.7810001373291,
    "latitude": 45.6619987487793,
    "regions": [
      "1099"
    ]
  },
  {
    "code": "1f2fd",
    "name": "Nozzano Castello",
    "updated_at": "2014-09-22T21:42:35.613458Z",
    "country": "it",
    "parent": null,
    "longitude": 10.4139995574951,
    "latitude": 43.8419990539551,
    "regions": [
      "109f"
    ]
  },
  {
    "code": "1f2fc",
    "name": "Savignone",
    "updated_at": "2014-09-22T21:42:35.587279Z",
    "country": "it",
    "parent": null,
    "longitude": 8.98999977111816,
    "latitude": 44.5639991760254,
    "regions": [
      "1098"
    ]
  },
  {
    "code": "1f2fb",
    "name": "Fonte",
    "updated_at": "2014-09-22T21:42:35.562010Z",
    "country": "it",
    "parent": null,
    "longitude": 11.8699998855591,
    "latitude": 45.7840003967285,
    "regions": [
      "10a3"
    ]
  },
  {
    "code": "1f2fa",
    "name": "Agios Gordios",
    "updated_at": "2014-09-22T21:42:35.528517Z",
    "country": "gr",
    "parent": null,
    "longitude": 19.8514003753662,
    "latitude": 39.5458984375,
    "regions": [
      "107f",
      "1180"
    ]
  },
  {
    "code": "1f2f9",
    "name": "Sant Esteve Sesrovires",
    "updated_at": "2014-09-22T21:42:35.492636Z",
    "country": "es",
    "parent": null,
    "longitude": 1.87300002574921,
    "latitude": 41.4959983825684,
    "regions": [
      "105c"
    ]
  },
  {
    "code": "1f2f8",
    "name": "Ontinyent",
    "updated_at": "2014-09-22T21:42:35.455897Z",
    "country": "es",
    "parent": null,
    "longitude": -0.610513687133789,
    "latitude": 38.8212547302246,
    "regions": [
      "117b"
    ]
  },
  {
    "code": "1f2f7",
    "name": "Needham Market",
    "updated_at": "2014-09-22T21:42:35.436544Z",
    "country": "gb",
    "parent": null,
    "longitude": 1.05099999904633,
    "latitude": 52.1539993286133,
    "regions": [
      "1205"
    ]
  },
  {
    "code": "1f2f6",
    "name": "Drayton Parslow",
    "updated_at": "2014-09-22T21:42:35.418607Z",
    "country": "gb",
    "parent": null,
    "longitude": -0.774999976158142,
    "latitude": 51.951000213623,
    "regions": [
      "1207"
    ]
  },
  {
    "code": "1f2f5",
    "name": "Watermillock",
    "updated_at": "2014-09-22T21:42:35.365693Z",
    "country": "gb",
    "parent": null,
    "longitude": -2.85899996757507,
    "latitude": 54.5940017700195,
    "regions": [
      "10d7"
    ]
  },
  {
    "code": "1f2f4",
    "name": "Earl Shilton",
    "updated_at": "2014-09-22T21:42:35.341925Z",
    "country": "gb",
    "parent": null,
    "longitude": -1.31400001049042,
    "latitude": 52.576000213623,
    "regions": [
      "1191"
    ]
  },
  {
    "code": "1f2f3",
    "name": "Faedo",
    "updated_at": "2014-09-22T21:42:35.319637Z",
    "country": "it",
    "parent": null,
    "longitude": 11.1619997024536,
    "latitude": 46.193000793457,
    "regions": [
      "10a0"
    ]
  },
  {
    "code": "1f2f2",
    "name": "Pego",
    "updated_at": "2014-09-22T21:42:35.293436Z",
    "country": "es",
    "parent": null,
    "longitude": -0.116043001413345,
    "latitude": 38.8404998779297,
    "regions": [
      "117b"
    ]
  },
  {
    "code": "1f2f1",
    "name": "Capolona",
    "updated_at": "2014-09-22T21:42:35.260366Z",
    "country": "it",
    "parent": null,
    "longitude": 11.8640003204346,
    "latitude": 43.568000793457,
    "regions": [
      "109f"
    ]
  },
  {
    "code": "1f2f0",
    "name": "Dormelletto",
    "updated_at": "2014-09-22T21:42:35.224401Z",
    "country": "it",
    "parent": null,
    "longitude": 8.57826042175293,
    "latitude": 45.7263984680176,
    "regions": [
      "109b"
    ]
  },
  {
    "code": "1f2ef",
    "name": "Colonia Sant Jordi",
    "updated_at": "2014-09-22T21:42:35.196750Z",
    "country": "es",
    "parent": null,
    "longitude": 2.99300003051758,
    "latitude": 39.3170013427734,
    "regions": [
      "1056",
      "1063"
    ]
  },
  {
    "code": "1f2ee",
    "name": "Rödermark",
    "updated_at": "2014-09-22T21:42:35.177521Z",
    "country": "de",
    "parent": null,
    "longitude": 8.82800006866455,
    "latitude": 49.9780006408691,
    "regions": [
      "1047"
    ]
  },
  {
    "code": "1f2ed",
    "name": "Massino Visconti",
    "updated_at": "2014-09-22T21:42:35.160068Z",
    "country": "it",
    "parent": null,
    "longitude": 8.54255962371826,
    "latitude": 45.8221015930176,
    "regions": [
      "109b"
    ]
  },
  {
    "code": "1f2ec",
    "name": "L’Alfàs del Pi",
    "updated_at": "2014-09-22T21:42:35.141424Z",
    "country": "es",
    "parent": null,
    "longitude": -0.103000000119209,
    "latitude": 38.5789985656738,
    "regions": [
      "117b"
    ]
  },
  {
    "code": "1f2eb",
    "name": "Sa Coma",
    "updated_at": "2014-09-22T21:42:35.122860Z",
    "country": "es",
    "parent": null,
    "longitude": 3.37719988822937,
    "latitude": 39.5766983032227,
    "regions": [
      "1056",
      "1063"
    ]
  },
  {
    "code": "1f2ea",
    "name": "La Manga del Mar Menor",
    "updated_at": "2014-09-22T21:42:35.104162Z",
    "country": "es",
    "parent": null,
    "longitude": -0.718700408935547,
    "latitude": 37.6515617370605,
    "regions": [
      "1064"
    ]
  },
  {
    "code": "1f2e9",
    "name": "Ballynahinch",
    "updated_at": "2014-09-22T21:42:35.075654Z",
    "country": "ie",
    "parent": null,
    "longitude": -9.86400032043457,
    "latitude": 53.4620018005371,
    "regions": [
      "1087"
    ]
  },
  {
    "code": "1f2e8",
    "name": "Vecindario",
    "updated_at": "2014-09-22T21:42:35.046669Z",
    "country": "es",
    "parent": null,
    "longitude": -15.4479999542236,
    "latitude": 27.8390007019043,
    "regions": [
      "1058",
      "105f"
    ]
  },
  {
    "code": "1f2e7",
    "name": "Playa del Cura",
    "updated_at": "2014-09-22T21:42:35.016589Z",
    "country": "es",
    "parent": null,
    "longitude": -15.7320003509521,
    "latitude": 27.798999786377,
    "regions": [
      "1058",
      "105f"
    ]
  },
  {
    "code": "1f2e6",
    "name": "Kingston Blount",
    "updated_at": "2014-09-22T21:42:34.980588Z",
    "country": "gb",
    "parent": null,
    "longitude": -0.931999981403351,
    "latitude": 51.6889991760254,
    "regions": [
      "10e0"
    ]
  },
  {
    "code": "1f2e5",
    "name": "Cambourne",
    "updated_at": "2014-09-22T21:42:34.946188Z",
    "country": "gb",
    "parent": null,
    "longitude": -0.0700000002980232,
    "latitude": 52.2179985046387,
    "regions": [
      "1203"
    ]
  },
  {
    "code": "1f2e4",
    "name": "Cenerente",
    "updated_at": "2014-09-22T21:42:34.921066Z",
    "country": "it",
    "parent": null,
    "longitude": 12.3509998321533,
    "latitude": 43.1469993591309,
    "regions": [
      "10a1"
    ]
  },
  {
    "code": "1f2e3",
    "name": "Capo Vaticano",
    "updated_at": "2014-09-22T21:42:34.902994Z",
    "country": "it",
    "parent": null,
    "longitude": 15.8339996337891,
    "latitude": 38.6220016479492,
    "regions": [
      "1093"
    ]
  },
  {
    "code": "1f2e2",
    "name": "Les Carroz d'Araches",
    "updated_at": "2014-09-22T21:42:34.884970Z",
    "country": "fr",
    "parent": null,
    "longitude": 6.63768005371094,
    "latitude": 46.0245018005371,
    "regions": [
      "107a"
    ]
  },
  {
    "code": "1f2e1",
    "name": "Ryton",
    "updated_at": "2014-09-22T21:42:34.866148Z",
    "country": "gb",
    "parent": null,
    "longitude": -1.76199996471405,
    "latitude": 54.9729995727539,
    "regions": [
      "132c"
    ]
  },
  {
    "code": "1f2e0",
    "name": "Virginia Water",
    "updated_at": "2014-09-22T21:42:34.827088Z",
    "country": "gb",
    "parent": null,
    "longitude": -0.561999976634979,
    "latitude": 51.4020004272461,
    "regions": [
      "10e1"
    ]
  },
  {
    "code": "1f2df",
    "name": "Wadesmill",
    "updated_at": "2014-09-22T21:42:34.799884Z",
    "country": "gb",
    "parent": null,
    "longitude": -0.0299999993294477,
    "latitude": 51.8400001525879,
    "regions": [
      "11af"
    ]
  },
  {
    "code": "1f2de",
    "name": "Waterstock",
    "updated_at": "2014-09-22T21:42:34.772871Z",
    "country": "gb",
    "parent": null,
    "longitude": -1.0789999961853,
    "latitude": 51.7459983825684,
    "regions": [
      "10e0"
    ]
  },
  {
    "code": "1f2dd",
    "name": "Wheyrigg",
    "updated_at": "2014-09-22T21:42:34.741959Z",
    "country": "gb",
    "parent": null,
    "longitude": -3.25,
    "latitude": 54.8279991149902,
    "regions": [
      "10d7"
    ]
  },
  {
    "code": "1f2dc",
    "name": "Yateley",
    "updated_at": "2014-09-22T21:42:34.708201Z",
    "country": "gb",
    "parent": null,
    "longitude": -0.827000021934509,
    "latitude": 51.3419990539551,
    "regions": [
      "120b"
    ]
  },
  {
    "code": "1f2db",
    "name": "Borgarfjordur Eystri",
    "updated_at": "2014-09-22T21:42:34.676421Z",
    "country": "is",
    "parent": null,
    "longitude": -13.8149995803833,
    "latitude": 65.5189971923828,
    "regions": [
      "130e"
    ]
  },
  {
    "code": "1f2da",
    "name": "Torre Canne",
    "updated_at": "2014-09-22T21:42:34.654808Z",
    "country": "it",
    "parent": null,
    "longitude": 17.4629993438721,
    "latitude": 40.8339996337891,
    "regions": [
      "109c"
    ]
  },
  {
    "code": "1f2d9",
    "name": "Baja Sardinia",
    "updated_at": "2014-09-22T21:42:34.635283Z",
    "country": "it",
    "parent": null,
    "longitude": 9.47500038146973,
    "latitude": 41.1399993896484,
    "regions": [
      "109d"
    ]
  },
  {
    "code": "1f2d8",
    "name": "Castelnuovo del Garda",
    "updated_at": "2014-09-22T21:42:34.615537Z",
    "country": "it",
    "parent": null,
    "longitude": 10.7629995346069,
    "latitude": 45.4389991760254,
    "regions": [
      "10a3"
    ]
  },
  {
    "code": "1f2d7",
    "name": "Plesio",
    "updated_at": "2014-09-22T21:42:34.595446Z",
    "country": "it",
    "parent": null,
    "longitude": 9.23229026794434,
    "latitude": 46.0522994995117,
    "regions": [
      "1099"
    ]
  },
  {
    "code": "1f2d6",
    "name": "Flore",
    "updated_at": "2014-09-22T21:42:34.575415Z",
    "country": "gb",
    "parent": null,
    "longitude": -1.05799996852875,
    "latitude": 52.2379989624023,
    "regions": [
      "11ad"
    ]
  },
  {
    "code": "1f2d5",
    "name": "Rugy",
    "updated_at": "2014-09-22T21:42:34.553060Z",
    "country": "fr",
    "parent": null,
    "longitude": 6.21400022506714,
    "latitude": 49.2060012817383,
    "regions": [
      "1074"
    ]
  },
  {
    "code": "1f2d4",
    "name": "Scissett",
    "updated_at": "2014-09-22T21:42:34.506823Z",
    "country": "gb",
    "parent": null,
    "longitude": -1.62800002098083,
    "latitude": 53.5870018005371,
    "regions": [
      "132f"
    ]
  },
  {
    "code": "1f2d3",
    "name": "Washaway",
    "updated_at": "2014-09-22T21:42:34.474948Z",
    "country": "gb",
    "parent": null,
    "longitude": -4.7649998664856,
    "latitude": 50.4939994812012,
    "regions": [
      "118b"
    ]
  },
  {
    "code": "1f2d2",
    "name": "Gerrards Cross",
    "updated_at": "2014-09-22T21:42:34.439627Z",
    "country": "gb",
    "parent": null,
    "longitude": -0.561999976634979,
    "latitude": 51.5789985656738,
    "regions": [
      "1207"
    ]
  },
  {
    "code": "1f2d1",
    "name": "Holmrook",
    "updated_at": "2014-09-22T21:42:34.404796Z",
    "country": "gb",
    "parent": null,
    "longitude": -3.42000007629395,
    "latitude": 54.3849983215332,
    "regions": [
      "10d7"
    ]
  },
  {
    "code": "1f2d0",
    "name": "Clearwell",
    "updated_at": "2014-09-22T21:42:34.386858Z",
    "country": "gb",
    "parent": null,
    "longitude": -2.62100005149841,
    "latitude": 51.765998840332,
    "regions": [
      "1208"
    ]
  },
  {
    "code": "1f2cf",
    "name": "Winkton",
    "updated_at": "2014-09-22T21:42:34.368797Z",
    "country": "gb",
    "parent": null,
    "longitude": -1.77400004863739,
    "latitude": 50.7599983215332,
    "regions": [
      "10d8"
    ]
  },
  {
    "code": "1f2ce",
    "name": "Childer Thornton",
    "updated_at": "2014-09-22T21:42:31.277062Z",
    "country": "gb",
    "parent": null,
    "longitude": -2.95300006866455,
    "latitude": 53.2939987182617,
    "regions": [
      "11ae"
    ]
  },
  {
    "code": "1f2cd",
    "name": "Tremosine",
    "updated_at": "2014-09-22T21:42:31.258770Z",
    "country": "it",
    "parent": null,
    "longitude": 10.7589998245239,
    "latitude": 45.7719993591309,
    "regions": [
      "1099"
    ]
  },
  {
    "code": "1f2cc",
    "name": "Y Felinheli",
    "updated_at": "2014-09-22T21:42:31.231495Z",
    "country": "gb",
    "parent": null,
    "longitude": -4.21000003814697,
    "latitude": 53.1839981079102,
    "regions": [
      "120e"
    ]
  },
  {
    "code": "1f2cb",
    "name": "Lower Whitley",
    "updated_at": "2014-09-22T21:42:31.203489Z",
    "country": "gb",
    "parent": null,
    "longitude": -2.58100008964539,
    "latitude": 53.3059997558594,
    "regions": [
      "11ae"
    ]
  },
  {
    "code": "1f2ca",
    "name": "Port Erin",
    "updated_at": "2014-09-22T21:42:31.174978Z",
    "country": "gb",
    "parent": null,
    "longitude": -4.75799989700317,
    "latitude": 54.0849990844727,
    "regions": [
      "1237"
    ]
  },
  {
    "code": "1f2c9",
    "name": "Ponte Tresa",
    "updated_at": "2014-09-22T21:42:31.141162Z",
    "country": "ch",
    "parent": null,
    "longitude": 8.85832977294922,
    "latitude": 45.9693984985352,
    "regions": [
      "102f"
    ]
  },
  {
    "code": "1f2c8",
    "name": "Sant'Albino",
    "updated_at": "2014-09-22T21:42:31.105066Z",
    "country": "it",
    "parent": null,
    "longitude": 11.8100004196167,
    "latitude": 43.0699996948242,
    "regions": [
      "109f"
    ]
  },
  {
    "code": "1f2c7",
    "name": "Verbania",
    "updated_at": "2014-09-22T21:42:31.071510Z",
    "country": "it",
    "parent": null,
    "longitude": 8.55200004577637,
    "latitude": 45.9220008850098,
    "regions": [
      "109b"
    ]
  },
  {
    "code": "1f2c6",
    "name": "Carona",
    "updated_at": "2014-09-22T21:42:31.051433Z",
    "country": "ch",
    "parent": null,
    "longitude": 8.93599987030029,
    "latitude": 45.9570007324219,
    "regions": [
      "102f"
    ]
  },
  {
    "code": "1f2c5",
    "name": "Valdidentro",
    "updated_at": "2014-09-22T21:42:31.035042Z",
    "country": "it",
    "parent": null,
    "longitude": 10.296199798584,
    "latitude": 46.4887008666992,
    "regions": [
      "1099"
    ]
  },
  {
    "code": "1f2c4",
    "name": "Mombaruzzo",
    "updated_at": "2014-09-22T21:42:31.014956Z",
    "country": "it",
    "parent": null,
    "longitude": 8.44865036010742,
    "latitude": 44.7725982666016,
    "regions": [
      "109b"
    ]
  },
  {
    "code": "1f2c3",
    "name": "Punta Ala",
    "updated_at": "2014-09-22T21:42:30.994286Z",
    "country": "it",
    "parent": null,
    "longitude": 10.7670001983643,
    "latitude": 42.8089981079102,
    "regions": [
      "109f"
    ]
  },
  {
    "code": "1f2c2",
    "name": "Cerler",
    "updated_at": "2014-09-22T21:42:30.973525Z",
    "country": "es",
    "parent": null,
    "longitude": 0.537999987602234,
    "latitude": 42.5950012207031,
    "regions": [
      "1054"
    ]
  },
  {
    "code": "1f2c1",
    "name": "Weissensee",
    "updated_at": "2014-09-22T21:42:30.943307Z",
    "country": "at",
    "parent": null,
    "longitude": 13.2919998168945,
    "latitude": 46.7179985046387,
    "regions": [
      "10ec"
    ]
  },
  {
    "code": "1f2c0",
    "name": "Busingen am Hochrhein",
    "updated_at": "2014-09-22T21:42:30.916534Z",
    "country": "ch",
    "parent": null,
    "longitude": 8.67199993133545,
    "latitude": 47.6879997253418,
    "regions": [
      "1428"
    ]
  },
  {
    "code": "1f2bf",
    "name": "Porto San Paolo",
    "updated_at": "2014-09-22T21:42:30.892685Z",
    "country": "it",
    "parent": null,
    "longitude": 9.63020038604736,
    "latitude": 40.8740005493164,
    "regions": [
      "109d"
    ]
  },
  {
    "code": "1f2be",
    "name": "Kiotari",
    "updated_at": "2014-09-22T21:42:30.855040Z",
    "country": "gr",
    "parent": null,
    "longitude": 28.0240001678467,
    "latitude": 36.0820007324219,
    "regions": [
      "107e",
      "1182"
    ]
  },