[
  {
    "code": "21f3e",
    "name": "Salins-les-Thermes",
    "updated_at": "2014-09-22T21:18:43.537999Z",
    "country": "fr",
    "parent": null,
    "longitude": 6.53332996368408,
    "latitude": 45.4667015075684,
    "regions": []
  },
  {
    "code": "21f3d",
    "name": "Sallespisse",
    "updated_at": "2014-09-22T21:18:43.139001Z",
    "country": "fr",
    "parent": null,
    "longitude": -0.716666996479034,
    "latitude": 43.5332984924316,
    "regions": []
  },
  {
    "code": "21f3c",
    "name": "Salviac",
    "updated_at": "2014-09-22T21:18:43.062782Z",
    "country": "fr",
    "parent": null,
    "longitude": 1.2666699886322,
    "latitude": 44.6833000183105,
    "regions": []
  },
  {
    "code": "21f3b",
    "name": "San-Gavino-di-Carbini",
    "updated_at": "2014-09-22T21:18:42.568189Z",
    "country": "fr",
    "parent": null,
    "longitude": 9.14999961853027,
    "latitude": 41.7167015075684,
    "regions": []
  },
  {
    "code": "21f3a",
    "name": "Saulce-sur-Rhône",
    "updated_at": "2014-09-22T21:18:41.476889Z",
    "country": "fr",
    "parent": null,
    "longitude": 4.78332996368408,
    "latitude": 44.7000007629395,
    "regions": []
  },
  {
    "code": "21f39",
    "name": "Savas",
    "updated_at": "2014-09-22T21:18:40.446460Z",
    "country": "fr",
    "parent": null,
    "longitude": 4.69999980926514,
    "latitude": 45.2999992370605,
    "regions": []
  },
  {
    "code": "21f38",
    "name": "Savennières",
    "updated_at": "2014-09-22T21:18:40.391532Z",
    "country": "fr",
    "parent": null,
    "longitude": -0.649999976158142,
    "latitude": 47.38330078125,
    "regions": []
  },
  {
    "code": "21f37",
    "name": "Savignac-de-Duras",
    "updated_at": "2014-09-22T21:18:40.351645Z",
    "country": "fr",
    "parent": null,
    "longitude": 0.200000002980232,
    "latitude": 44.7000007629395,
    "regions": []
  },
  {
    "code": "21f36",
    "name": "Savigné-sous-le-Lude",
    "updated_at": "2014-09-22T21:18:40.271634Z",
    "country": "fr",
    "parent": null,
    "longitude": 0.0666666999459267,
    "latitude": 47.61669921875,
    "regions": []
  },
  {
    "code": "21f35",
    "name": "Savigny-Lévescault",
    "updated_at": "2014-09-22T21:18:40.075604Z",
    "country": "fr",
    "parent": null,
    "longitude": 0.5,
    "latitude": 46.5332984924316,
    "regions": []
  },
  {
    "code": "21f34",
    "name": "Savoillan",
    "updated_at": "2014-09-22T21:18:39.954945Z",
    "country": "fr",
    "parent": null,
    "longitude": 5.38332986831665,
    "latitude": 44.1833000183105,
    "regions": []
  },
  {
    "code": "21f33",
    "name": "Scillé",
    "updated_at": "2014-09-22T21:18:39.518610Z",
    "country": "fr",
    "parent": null,
    "longitude": -0.566667020320892,
    "latitude": 46.5999984741211,
    "regions": []
  },
  {
    "code": "21f32",
    "name": "Secondigny",
    "updated_at": "2014-09-22T21:18:39.354431Z",
    "country": "fr",
    "parent": null,
    "longitude": -0.416667014360428,
    "latitude": 46.61669921875,
    "regions": []
  },
  {
    "code": "21f31",
    "name": "Seillac",
    "updated_at": "2014-09-22T21:18:38.968078Z",
    "country": "fr",
    "parent": null,
    "longitude": 1.14999997615814,
    "latitude": 47.5499992370605,
    "regions": []
  },
  {
    "code": "21f30",
    "name": "Sembas",
    "updated_at": "2014-09-22T21:18:38.666381Z",
    "country": "fr",
    "parent": null,
    "longitude": 0.649999976158142,
    "latitude": 44.3333015441895,
    "regions": []
  },
  {
    "code": "21f2f",
    "name": "Sérent",
    "updated_at": "2014-09-22T21:18:34.455949Z",
    "country": "fr",
    "parent": null,
    "longitude": -2.5,
    "latitude": 47.8166999816895,
    "regions": []
  },
  {
    "code": "21f2e",
    "name": "Sers",
    "updated_at": "2014-09-22T21:18:33.939279Z",
    "country": "fr",
    "parent": null,
    "longitude": 0.31666699051857,
    "latitude": 45.5999984741211,
    "regions": []
  },
  {
    "code": "21f2d",
    "name": "Serviès-en-Val",
    "updated_at": "2014-09-22T21:18:33.878595Z",
    "country": "fr",
    "parent": null,
    "longitude": 2.5166699886322,
    "latitude": 43.0833015441895,
    "regions": []
  },
  {
    "code": "21f2c",
    "name": "Simiane-Collongue",
    "updated_at": "2014-09-22T21:18:32.781932Z",
    "country": "fr",
    "parent": null,
    "longitude": 5.43333005905151,
    "latitude": 43.4166984558105,
    "regions": []
  },
  {
    "code": "21f2b",
    "name": "Siouville",
    "updated_at": "2014-09-22T21:18:32.614543Z",
    "country": "fr",
    "parent": null,
    "longitude": -1.83333003520966,
    "latitude": 49.5499992370605,
    "regions": []
  },
  {
    "code": "21f2a",
    "name": "Siradan",
    "updated_at": "2014-09-22T21:18:32.595512Z",
    "country": "fr",
    "parent": null,
    "longitude": 0.616666972637177,
    "latitude": 42.9667015075684,
    "regions": []
  },
  {
    "code": "21f29",
    "name": "Sivergues",
    "updated_at": "2014-09-22T21:18:32.493111Z",
    "country": "fr",
    "parent": null,
    "longitude": 5.40000009536743,
    "latitude": 43.8333015441895,
    "regions": []
  },
  {
    "code": "21f28",
    "name": "Solomiac",
    "updated_at": "2014-09-22T21:18:31.900424Z",
    "country": "fr",
    "parent": null,
    "longitude": 0.883333027362823,
    "latitude": 43.7999992370605,
    "regions": []
  },
  {
    "code": "21f27",
    "name": "Soupex",
    "updated_at": "2014-09-22T21:18:30.807010Z",
    "country": "fr",
    "parent": null,
    "longitude": 1.89999997615814,
    "latitude": 43.38330078125,
    "regions": []
  },
  {
    "code": "21f26",
    "name": "Soursac",
    "updated_at": "2014-09-22T21:18:30.681412Z",
    "country": "fr",
    "parent": null,
    "longitude": 2.20000004768372,
    "latitude": 45.2832984924316,
    "regions": []
  },
  {
    "code": "21f25",
    "name": "Sousmoulins",
    "updated_at": "2014-09-22T21:18:30.622673Z",
    "country": "fr",
    "parent": null,
    "longitude": -0.333332985639572,
    "latitude": 45.2999992370605,
    "regions": []
  },
  {
    "code": "21f24",
    "name": "Souvigny-en-Sologne",
    "updated_at": "2014-09-22T21:18:30.466293Z",
    "country": "fr",
    "parent": null,
    "longitude": 2.16667008399963,
    "latitude": 47.6500015258789,
    "regions": []
  },
  {
    "code": "21f23",
    "name": "Soyans",
    "updated_at": "2014-09-22T21:18:30.440407Z",
    "country": "fr",
    "parent": null,
    "longitude": 5.01667022705078,
    "latitude": 44.63330078125,
    "regions": []
  },
  {
    "code": "21f22",
    "name": "Speloncato",
    "updated_at": "2014-09-22T21:18:30.345303Z",
    "country": "fr",
    "parent": null,
    "longitude": 8.96667003631592,
    "latitude": 42.5666999816895,
    "regions": []
  },
  {
    "code": "21f21",
    "name": "Tabre",
    "updated_at": "2014-09-22T21:18:29.382399Z",
    "country": "fr",
    "parent": null,
    "longitude": 1.85000002384186,
    "latitude": 42.9832992553711,
    "regions": []
  },
  {
    "code": "21f20",
    "name": "Talensac",
    "updated_at": "2014-09-22T21:18:29.033111Z",
    "country": "fr",
    "parent": null,
    "longitude": -1.93333005905151,
    "latitude": 48.0999984741211,
    "regions": []
  },
  {
    "code": "21f1f",
    "name": "Tancon",
    "updated_at": "2014-09-22T21:18:28.726555Z",
    "country": "fr",
    "parent": null,
    "longitude": 4.26667022705078,
    "latitude": 46.2000007629395,
    "regions": []
  },
  {
    "code": "21f1e",
    "name": "Tanneron",
    "updated_at": "2014-09-22T21:18:28.618089Z",
    "country": "fr",
    "parent": null,
    "longitude": 6.87573051443906,
    "latitude": 43.5906117915256,
    "regions": []
  },
  {
    "code": "21f1d",
    "name": "Tapon",
    "updated_at": "2014-09-22T21:18:28.553362Z",
    "country": "fr",
    "parent": null,
    "longitude": 3.41667008399963,
    "latitude": 45.2167015075684,
    "regions": []
  },
  {
    "code": "21f1c",
    "name": "Tasque",
    "updated_at": "2014-09-22T21:18:28.282025Z",
    "country": "fr",
    "parent": null,
    "longitude": 0.0166666992008686,
    "latitude": 43.6500015258789,
    "regions": []
  },
  {
    "code": "21f1b",
    "name": "Taussac",
    "updated_at": "2014-09-22T21:18:28.094352Z",
    "country": "fr",
    "parent": null,
    "longitude": 2.65000009536743,
    "latitude": 44.8333015441895,
    "regions": []
  },
  {
    "code": "21f1a",
    "name": "Templeuve",
    "updated_at": "2014-09-22T21:18:27.783746Z",
    "country": "fr",
    "parent": null,
    "longitude": 3.16667008399963,
    "latitude": 50.5332984924316,
    "regions": []
  },
  {
    "code": "21f19",
    "name": "Tendron",
    "updated_at": "2014-09-22T21:18:27.699300Z",
    "country": "fr",
    "parent": null,
    "longitude": 2.84999990463257,
    "latitude": 46.9667015075684,
    "regions": []
  },
  {
    "code": "21f18",
    "name": "Ternand",
    "updated_at": "2014-09-22T21:18:27.544346Z",
    "country": "fr",
    "parent": null,
    "longitude": 4.53332996368408,
    "latitude": 45.9500007629395,
    "regions": []
  },
  {
    "code": "21f17",
    "name": "Terrats",
    "updated_at": "2014-09-22T21:18:27.479122Z",
    "country": "fr",
    "parent": null,
    "longitude": 2.7666699886322,
    "latitude": 42.61669921875,
    "regions": []
  },
  {
    "code": "21f16",
    "name": "Teuillac",
    "updated_at": "2014-09-22T21:18:27.329953Z",
    "country": "fr",
    "parent": null,
    "longitude": -0.533333003520966,
    "latitude": 45.0833015441895,
    "regions": []
  },
  {
    "code": "21f15",
    "name": "Thézan-des-Corbières",
    "updated_at": "2014-09-22T21:18:26.643020Z",
    "country": "fr",
    "parent": null,
    "longitude": 2.7666699886322,
    "latitude": 43.0999984741211,
    "regions": []
  },
  {
    "code": "21f14",
    "name": "Thiers-sur-Thève",
    "updated_at": "2014-09-22T21:18:26.480583Z",
    "country": "fr",
    "parent": null,
    "longitude": 2.58332991600037,
    "latitude": 49.1500015258789,
    "regions": []
  },
  {
    "code": "21f13",
    "name": "Thury",
    "updated_at": "2014-09-22T21:18:25.666973Z",
    "country": "fr",
    "parent": null,
    "longitude": 4.51667022705078,
    "latitude": 47.0332984924316,
    "regions": []
  },
  {
    "code": "21f12",
    "name": "Tilloloy",
    "updated_at": "2014-09-22T21:18:25.305147Z",
    "country": "fr",
    "parent": null,
    "longitude": 2.75,
    "latitude": 49.63330078125,
    "regions": []
  },
  {
    "code": "21f11",
    "name": "Tombeboeuf",
    "updated_at": "2014-09-22T21:18:25.019489Z",
    "country": "fr",
    "parent": null,
    "longitude": 0.449999988079071,
    "latitude": 44.5,
    "regions": []
  },
  {
    "code": "21f10",
    "name": "Torcé-en-Charnie",
    "updated_at": "2014-09-22T21:18:24.826568Z",
    "country": "fr",
    "parent": null,
    "longitude": -0.266667008399963,
    "latitude": 48.0999984741211,
    "regions": []
  },
  {
    "code": "21f0f",
    "name": "Tornac",
    "updated_at": "2014-09-22T21:18:24.790575Z",
    "country": "fr",
    "parent": null,
    "longitude": 3.9833300113678,
    "latitude": 44.0167007446289,
    "regions": []
  },
  {
    "code": "21f0e",
    "name": "Toulouges",
    "updated_at": "2014-09-22T21:18:24.557746Z",
    "country": "fr",
    "parent": null,
    "longitude": 2.83332991600037,
    "latitude": 42.6666984558105,
    "regions": []
  },
  {
    "code": "21f0d",
    "name": "Tourtoirac",
    "updated_at": "2014-09-22T21:18:23.777926Z",
    "country": "fr",
    "parent": null,
    "longitude": 1.06666994094849,
    "latitude": 45.2667007446289,
    "regions": []
  },
  {
    "code": "21f0c",
    "name": "Tourville-en-Auge",
    "updated_at": "2014-09-22T21:18:23.716045Z",
    "country": "fr",
    "parent": null,
    "longitude": 0.200000002980232,
    "latitude": 49.3166999816895,
    "regions": []
  },
  {
    "code": "21f0b",
    "name": "Toutainville",
    "updated_at": "2014-09-22T21:18:23.629843Z",
    "country": "fr",
    "parent": null,
    "longitude": 0.466666996479034,
    "latitude": 49.36669921875,
    "regions": []
  },
  {
    "code": "21f0a",
    "name": "Tréban",
    "updated_at": "2014-09-22T21:18:23.412674Z",
    "country": "fr",
    "parent": null,
    "longitude": 3.16667008399963,
    "latitude": 46.4000015258789,
    "regions": []
  },
  {
    "code": "21f09",
    "name": "Trèbes",
    "updated_at": "2014-09-22T21:18:23.349233Z",
    "country": "fr",
    "parent": null,
    "longitude": 2.43333005905151,
    "latitude": 43.2167015075684,
    "regions": []
  },
  {
    "code": "21f08",
    "name": "Trédias",
    "updated_at": "2014-09-22T21:18:23.249897Z",
    "country": "fr",
    "parent": null,
    "longitude": -2.2333300113678,
    "latitude": 48.3499984741211,
    "regions": []
  },
  {
    "code": "21f07",
    "name": "Trie-Château",
    "updated_at": "2014-09-22T21:18:18.527671Z",
    "country": "fr",
    "parent": null,
    "longitude": 1.83333003520966,
    "latitude": 49.2832984924316,
    "regions": []
  },
  {
    "code": "21f06",
    "name": "Triel-sur-Seine",
    "updated_at": "2014-09-22T21:18:18.489738Z",
    "country": "fr",
    "parent": null,
    "longitude": 2.0,
    "latitude": 48.9832992553711,
    "regions": []
  },
  {
    "code": "21f05",
    "name": "Troques",
    "updated_at": "2014-09-22T21:18:18.352068Z",
    "country": "fr",
    "parent": null,
    "longitude": 0.5,
    "latitude": 47.11669921875,
    "regions": []
  },
  {
    "code": "21f04",
    "name": "Tuchan",
    "updated_at": "2014-09-22T21:18:17.896646Z",
    "country": "fr",
    "parent": null,
    "longitude": 2.71667003631592,
    "latitude": 42.88330078125,
    "regions": []
  },
  {
    "code": "21f03",
    "name": "Turenne",
    "updated_at": "2014-09-22T21:18:17.801213Z",
    "country": "fr",
    "parent": null,
    "longitude": 1.58333003520966,
    "latitude": 45.0499992370605,
    "regions": []
  },
  {
    "code": "21f02",
    "name": "Unieux",
    "updated_at": "2014-09-22T21:18:17.435173Z",
    "country": "fr",
    "parent": null,
    "longitude": 4.26667022705078,
    "latitude": 45.4000015258789,
    "regions": []
  },
  {
    "code": "21f01",
    "name": "Urtaca",
    "updated_at": "2014-09-22T21:18:17.257202Z",
    "country": "fr",
    "parent": null,
    "longitude": 9.16666984558105,
    "latitude": 42.5999984741211,
    "regions": []
  },
  {
    "code": "21f00",
    "name": "Uxelles",
    "updated_at": "2014-09-22T21:18:16.907612Z",
    "country": "fr",
    "parent": null,
    "longitude": 5.78332996368408,
    "latitude": 46.5999984741211,
    "regions": []
  },
  {
    "code": "21eff",
    "name": "Valaire",
    "updated_at": "2014-09-22T21:18:16.302478Z",
    "country": "fr",
    "parent": null,
    "longitude": 1.2666699886322,
    "latitude": 47.4667015075684,
    "regions": []
  },
  {
    "code": "21efe",
    "name": "Valdrôme",
    "updated_at": "2014-09-22T21:18:16.081465Z",
    "country": "fr",
    "parent": null,
    "longitude": 5.58333015441895,
    "latitude": 44.5,
    "regions": []
  },
  {
    "code": "21efd",
    "name": "Valence",
    "updated_at": "2014-09-22T21:18:15.990412Z",
    "country": "fr",
    "parent": null,
    "longitude": 0.916666984558105,
    "latitude": 44.0999984741211,
    "regions": []
  },
  {
    "code": "21efc",
    "name": "Valette",
    "updated_at": "2014-09-22T21:18:15.842075Z",
    "country": "fr",
    "parent": null,
    "longitude": 2.59999990463257,
    "latitude": 45.2832984924316,
    "regions": []
  },
  {
    "code": "21efb",
    "name": "Valflaunès",
    "updated_at": "2014-09-22T21:18:15.734517Z",
    "country": "fr",
    "parent": null,
    "longitude": 3.86666989326477,
    "latitude": 43.7999992370605,
    "regions": []
  },
  {
    "code": "21efa",
    "name": "Valleraugue",
    "updated_at": "2014-09-22T21:18:15.520163Z",
    "country": "fr",
    "parent": null,
    "longitude": 3.63333010673523,
    "latitude": 44.0833015441895,
    "regions": []
  },
  {
    "code": "21ef9",
    "name": "Vallières",
    "updated_at": "2014-09-22T21:18:15.457521Z",
    "country": "fr",
    "parent": null,
    "longitude": 2.03332996368408,
    "latitude": 45.9000015258789,
    "regions": []
  },
  {
    "code": "21ef8",
    "name": "Valouse",
    "updated_at": "2014-09-22T21:18:15.173853Z",
    "country": "fr",
    "parent": null,
    "longitude": 5.19999980926514,
    "latitude": 44.4667015075684,
    "regions": []
  },
  {
    "code": "21ef7",
    "name": "Vaour",
    "updated_at": "2014-09-22T21:18:14.862893Z",
    "country": "fr",
    "parent": null,
    "longitude": 1.79999995231628,
    "latitude": 44.0666999816895,
    "regions": []
  },
  {
    "code": "21ef6",
    "name": "Varennes",
    "updated_at": "2014-09-22T21:18:14.648840Z",
    "country": "fr",
    "parent": null,
    "longitude": 3.06666994094849,
    "latitude": 45.7000007629395,
    "regions": []
  },
  {
    "code": "21ef5",
    "name": "Varennes",
    "updated_at": "2014-09-22T21:18:14.628878Z",
    "country": "fr",
    "parent": null,
    "longitude": 1.71667003631592,
    "latitude": 46.7667007446289,
    "regions": []
  },
  {
    "code": "21ef4",
    "name": "Varennes-Saint-Honorat",
    "updated_at": "2014-09-22T21:18:14.536459Z",
    "country": "fr",
    "parent": null,
    "longitude": 3.63333010673523,
    "latitude": 45.1833000183105,
    "regions": []
  },
  {
    "code": "21ef3",
    "name": "Varreddes",
    "updated_at": "2014-09-22T21:18:14.397369Z",
    "country": "fr",
    "parent": null,
    "longitude": 2.93333005905151,
    "latitude": 49.0,
    "regions": []
  },
  {
    "code": "21ef2",
    "name": "Vattetot-sur-Mer",
    "updated_at": "2014-09-22T21:18:14.319067Z",
    "country": "fr",
    "parent": null,
    "longitude": 0.283333003520966,
    "latitude": 49.7332992553711,
    "regions": []
  },
  {
    "code": "21ef1",
    "name": "Vauchelles-lès-Domart",
    "updated_at": "2014-09-22T21:18:14.264054Z",
    "country": "fr",
    "parent": null,
    "longitude": 2.04999995231628,
    "latitude": 50.0499992370605,
    "regions": []
  },
  {
    "code": "21ef0",
    "name": "Vauciennes",
    "updated_at": "2014-09-22T21:18:14.201871Z",
    "country": "fr",
    "parent": null,
    "longitude": 3.03332996368408,
    "latitude": 49.2332992553711,
    "regions": []
  },
  {
    "code": "21eef",
    "name": "Vaux-sur-Seulles",
    "updated_at": "2014-09-22T21:18:13.667488Z",
    "country": "fr",
    "parent": null,
    "longitude": -0.633333027362823,
    "latitude": 49.2667007446289,
    "regions": []
  },
  {
    "code": "21eee",
    "name": "Vay",
    "updated_at": "2014-09-22T21:18:13.629402Z",
    "country": "fr",
    "parent": null,
    "longitude": -1.70000004768372,
    "latitude": 47.5499992370605,
    "regions": []
  },
  {
    "code": "21eed",
    "name": "Vendrennes",
    "updated_at": "2014-09-22T21:18:13.179869Z",
    "country": "fr",
    "parent": null,
    "longitude": -1.125887,
    "latitude": 46.833138,
    "regions": []
  },
  {
    "code": "21eec",
    "name": "Ventouse",
    "updated_at": "2014-09-22T21:18:12.903753Z",
    "country": "fr",
    "parent": null,
    "longitude": 0.333332985639572,
    "latitude": 45.9000015258789,
    "regions": []
  },
  {
    "code": "21eeb",
    "name": "Véranne",
    "updated_at": "2014-09-22T21:18:12.807930Z",
    "country": "fr",
    "parent": null,
    "longitude": 4.66666984558105,
    "latitude": 45.36669921875,
    "regions": []
  },
  {
    "code": "21eea",
    "name": "Verdelot",
    "updated_at": "2014-09-22T21:18:12.716999Z",
    "country": "fr",
    "parent": null,
    "longitude": 3.36666989326477,
    "latitude": 48.86669921875,
    "regions": []
  },
  {
    "code": "21ee9",
    "name": "Vernajoul",
    "updated_at": "2014-09-22T21:18:12.390701Z",
    "country": "fr",
    "parent": null,
    "longitude": 1.60000002384186,
    "latitude": 42.9832992553711,
    "regions": []
  },
  {
    "code": "21ee8",
    "name": "Veyras",
    "updated_at": "2014-09-22T21:18:11.472341Z",
    "country": "fr",
    "parent": null,
    "longitude": 4.56666994094849,
    "latitude": 44.7332992553711,
    "regions": []
  },
  {
    "code": "21ee7",
    "name": "Vézins-de-Lévézou",
    "updated_at": "2014-09-22T21:18:11.194003Z",
    "country": "fr",
    "parent": null,
    "longitude": 2.95000004768372,
    "latitude": 44.2832984924316,
    "regions": []
  },
  {
    "code": "21ee6",
    "name": "Viella",
    "updated_at": "2014-09-22T21:18:10.657938Z",
    "country": "fr",
    "parent": null,
    "longitude": 0.0166666992008686,
    "latitude": 42.86669921875,
    "regions": []
  },
  {
    "code": "21ee5",
    "name": "Vieux-Pont",
    "updated_at": "2014-09-22T21:18:10.367211Z",
    "country": "fr",
    "parent": null,
    "longitude": 0.0333333015441895,
    "latitude": 49.0332984924316,
    "regions": []
  },
  {
    "code": "21ee4",
    "name": "Viéville",
    "updated_at": "2014-09-22T21:18:10.291559Z",
    "country": "fr",
    "parent": null,
    "longitude": 5.13332986831665,
    "latitude": 48.2332992553711,
    "regions": []
  },
  {
    "code": "21ee3",
    "name": "Vignoux-sur-Barangeon",
    "updated_at": "2014-09-22T21:18:10.073319Z",
    "country": "fr",
    "parent": null,
    "longitude": 2.18333005905151,
    "latitude": 47.2167015075684,
    "regions": []
  },
  {
    "code": "21ee2",
    "name": "Villard-sur-Boëge",
    "updated_at": "2014-09-22T21:18:09.659378Z",
    "country": "fr",
    "parent": null,
    "longitude": 6.44999980926514,
    "latitude": 46.2332992553711,
    "regions": []
  },
  {
    "code": "21ee1",
    "name": "Villars",
    "updated_at": "2014-09-22T21:18:09.496532Z",
    "country": "fr",
    "parent": null,
    "longitude": 0.75,
    "latitude": 45.4166984558105,
    "regions": []
  },
  {
    "code": "21ee0",
    "name": "Villebois-Lavalette",
    "updated_at": "2014-09-22T21:18:09.225310Z",
    "country": "fr",
    "parent": null,
    "longitude": 0.283333003520966,
    "latitude": 45.4832992553711,
    "regions": []
  },
  {
    "code": "21edf",
    "name": "Villedieu",
    "updated_at": "2014-09-22T21:18:09.088104Z",
    "country": "fr",
    "parent": null,
    "longitude": 5.03332996368408,
    "latitude": 44.2832984924316,
    "regions": []
  },
  {
    "code": "21ede",
    "name": "Villefranche-dʼAlbigeois",
    "updated_at": "2014-09-22T21:18:08.909518Z",
    "country": "fr",
    "parent": null,
    "longitude": 2.34999990463257,
    "latitude": 43.9000015258789,
    "regions": []
  },
  {
    "code": "21edd",
    "name": "Villefranche-du-Queyran",
    "updated_at": "2014-09-22T21:18:08.793786Z",
    "country": "fr",
    "parent": null,
    "longitude": 0.200000002980232,
    "latitude": 44.2999992370605,
    "regions": []
  },
  {
    "code": "21edc",
    "name": "Villelongue-dʼAude",
    "updated_at": "2014-09-22T21:18:08.512620Z",
    "country": "fr",
    "parent": null,
    "longitude": 2.08332991600037,
    "latitude": 43.0499992370605,
    "regions": []
  },
  {
    "code": "21edb",
    "name": "Villemoirieu",
    "updated_at": "2014-09-22T21:18:08.460218Z",
    "country": "fr",
    "parent": null,
    "longitude": 5.21667003631592,
    "latitude": 45.7167015075684,
    "regions": []
  },
  {
    "code": "21eda",
    "name": "Villeneuve",
    "updated_at": "2014-09-22T21:18:08.234744Z",
    "country": "fr",
    "parent": null,
    "longitude": 5.86667013168335,
    "latitude": 43.9000015258789,
    "regions": []
  },
  {
    "code": "21ed9",
    "name": "Villeneuve-de-Duras",
    "updated_at": "2014-09-22T21:18:08.075773Z",
    "country": "fr",
    "parent": null,
    "longitude": 0.233333006501198,
    "latitude": 44.7332992553711,
    "regions": []
  },
  {
    "code": "21ed8",
    "name": "Villeneuve-le-Roi",
    "updated_at": "2014-09-22T21:18:07.864390Z",
    "country": "fr",
    "parent": null,
    "longitude": 2.41667008399963,
    "latitude": 48.7332992553711,
    "regions": []
  },
  {
    "code": "21ed7",
    "name": "Villeny",
    "updated_at": "2014-09-22T21:18:07.464672Z",
    "country": "fr",
    "parent": null,
    "longitude": 1.75,
    "latitude": 47.61669921875,
    "regions": []
  },
  {
    "code": "21ed6",
    "name": "Villers-lès-Nancy",
    "updated_at": "2014-09-22T21:18:03.834347Z",
    "country": "fr",
    "parent": null,
    "longitude": 6.15000009536743,
    "latitude": 48.6666984558105,
    "regions": []
  },
  {
    "code": "21ed5",
    "name": "Villers-Saint-Sépulcre",
    "updated_at": "2014-09-22T21:18:03.780545Z",
    "country": "fr",
    "parent": null,
    "longitude": 2.21667003631592,
    "latitude": 49.38330078125,
    "regions": []
  },
  {
    "code": "21ed4",
    "name": "Villeveyrac",
    "updated_at": "2014-09-22T21:18:03.482408Z",
    "country": "fr",
    "parent": null,
    "longitude": 3.59999990463257,
    "latitude": 43.5,
    "regions": []
  },
  {
    "code": "21ed3",
    "name": "Villiers",
    "updated_at": "2014-09-22T21:18:03.421378Z",
    "country": "fr",
    "parent": null,
    "longitude": 0.183332994580269,
    "latitude": 46.6833000183105,
    "regions": []
  },
  {
    "code": "21ed2",
    "name": "Vinon-sur-Verdon",
    "updated_at": "2014-09-22T21:18:02.898458Z",
    "country": "fr",
    "parent": null,
    "longitude": 5.80000019073486,
    "latitude": 43.7167015075684,
    "regions": []
  },
  {
    "code": "21ed1",
    "name": "Virargues",
    "updated_at": "2014-09-22T21:18:02.718765Z",
    "country": "fr",
    "parent": null,
    "longitude": 2.91667008399963,
    "latitude": 45.13330078125,
    "regions": []
  },
  {
    "code": "21ed0",
    "name": "Vittefleur",
    "updated_at": "2014-09-22T21:18:02.291053Z",
    "country": "fr",
    "parent": null,
    "longitude": 0.649999976158142,
    "latitude": 49.8166999816895,
    "regions": []
  },
  {
    "code": "21ecf",
    "name": "Vosnon",
    "updated_at": "2014-09-22T21:18:01.621897Z",
    "country": "fr",
    "parent": null,
    "longitude": 3.84999990463257,
    "latitude": 48.0999984741211,
    "regions": []
  },
  {
    "code": "21ece",
    "name": "Voué",
    "updated_at": "2014-09-22T21:18:01.584225Z",
    "country": "fr",
    "parent": null,
    "longitude": 4.11667013168335,
    "latitude": 48.4667015075684,
    "regions": []
  },
  {
    "code": "21ecd",
    "name": "Vouvant",
    "updated_at": "2014-09-22T21:18:01.291758Z",
    "country": "fr",
    "parent": null,
    "longitude": -0.783333003520966,
    "latitude": 46.5666999816895,
    "regions": []
  },
  {
    "code": "21ecc",
    "name": "Vuillecin",
    "updated_at": "2014-09-22T21:18:01.057506Z",
    "country": "fr",
    "parent": null,
    "longitude": 6.31666994094849,
    "latitude": 46.9333000183105,
    "regions": []
  },
  {
    "code": "21ecb",
    "name": "Wattignies",
    "updated_at": "2014-09-22T21:18:00.822998Z",
    "country": "fr",
    "parent": null,
    "longitude": 3.04999995231628,
    "latitude": 50.5833015441895,
    "regions": []
  },
  {
    "code": "21eca",
    "name": "Wuenheim",
    "updated_at": "2014-09-22T21:18:00.057780Z",
    "country": "fr",
    "parent": null,
    "longitude": 7.19999980926514,
    "latitude": 47.88330078125,
    "regions": []
  },
  {
    "code": "21ec9",
    "name": "Yainville",
    "updated_at": "2014-09-22T21:17:59.983189Z",
    "country": "fr",
    "parent": null,
    "longitude": 0.833333015441895,
    "latitude": 49.4500007629395,
    "regions": []
  },
  {
    "code": "21ec8",
    "name": "Yèvres",
    "updated_at": "2014-09-22T21:17:59.859126Z",
    "country": "fr",
    "parent": null,
    "longitude": 1.20000004768372,
    "latitude": 48.2000007629395,
    "regions": []
  },
  {
    "code": "21ec7",
    "name": "Lilongwe",
    "updated_at": "2014-09-22T21:17:59.265273Z",
    "country": "mw",
    "parent": null,
    "longitude": 33.7832984924316,
    "latitude": -13.9833002090454,
    "regions": []
  },
  {
    "code": "21ec6",
    "name": "Kara",
    "updated_at": "2014-09-22T21:17:59.248249Z",
    "country": "tg",
    "parent": null,
    "longitude": 1.20000004768372,
    "latitude": 9.55000019073486,
    "regions": []
  },
  {
    "code": "21ec5",
    "name": "Lomé",
    "updated_at": "2014-09-22T21:17:59.229943Z",
    "country": "tg",
    "parent": null,
    "longitude": 1.22277998924255,
    "latitude": 6.13193988800049,
    "regions": []
  },
  {
    "code": "21ec4",
    "name": "Eadargóil",
    "updated_at": "2014-09-22T21:17:59.080657Z",
    "country": "ie",
    "parent": null,
    "longitude": -9.72500038146973,
    "latitude": 51.7008018493652,
    "regions": []
  },
  {
    "code": "21ec3",
    "name": "Ardgroom",
    "updated_at": "2014-09-22T21:17:58.910865Z",
    "country": "ie",
    "parent": null,
    "longitude": -9.8955602645874,
    "latitude": 51.7406005859375,
    "regions": []
  },
  {
    "code": "21ec2",
    "name": "Bagenalstown",
    "updated_at": "2014-09-22T21:17:58.660221Z",
    "country": "ie",
    "parent": null,
    "longitude": -6.965344,
    "latitude": 52.700182,
    "regions": []
  },
  {
    "code": "21ec1",
    "name": "Ballintober",
    "updated_at": "2014-09-22T21:17:58.335550Z",
    "country": "ie",
    "parent": null,
    "longitude": -9.30000019073486,
    "latitude": 53.7332992553711,
    "regions": []
  },
  {
    "code": "21ec0",
    "name": "Ballintra",
    "updated_at": "2014-09-22T21:17:58.278518Z",
    "country": "ie",
    "parent": null,
    "longitude": -8.11972045898438,
    "latitude": 54.5769004821777,
    "regions": []
  },
  {
    "code": "21ebf",
    "name": "Béal Atha an Tuair",
    "updated_at": "2014-09-22T21:17:58.251126Z",
    "country": "ie",
    "parent": null,
    "longitude": -6.81943988800049,
    "latitude": 53.0069007873535,
    "regions": []
  },
  {
    "code": "21ebe",
    "name": "Ballyfarnon",
    "updated_at": "2014-09-22T21:17:58.006509Z",
    "country": "ie",
    "parent": null,
    "longitude": -8.19944000244141,
    "latitude": 54.0680999755859,
    "regions": []
  },
  {
    "code": "21ebd",
    "name": "Ballyhenry",
    "updated_at": "2014-09-22T21:17:57.906422Z",
    "country": "ie",
    "parent": null,
    "longitude": -9.11666965484619,
    "latitude": 53.5499992370605,
    "regions": []
  },
  {
    "code": "21ebc",
    "name": "Ballymurn",
    "updated_at": "2014-09-22T21:17:57.761885Z",
    "country": "ie",
    "parent": null,
    "longitude": -6.4747200012207,
    "latitude": 52.4411010742188,
    "regions": []
  },
  {
    "code": "21ebb",
    "name": "Bealach Conglais",
    "updated_at": "2016-02-09T09:32:30.321021Z",
    "country": "ie",
    "parent": null,
    "longitude": -6.70916986465454,
    "latitude": 52.937198638916,
    "regions": []
  },
  {
    "code": "21eba",
    "name": "Barrow",
    "updated_at": "2014-09-22T21:17:57.406869Z",
    "country": "ie",
    "parent": null,
    "longitude": -9.84416961669922,
    "latitude": 52.3083000183105,
    "regions": []
  },
  {
    "code": "21eb9",
    "name": "Belleek",
    "updated_at": "2014-09-22T21:17:57.341296Z",
    "country": "gb",
    "parent": null,
    "longitude": -8.08333015441895,
    "latitude": 54.4832992553711,
    "regions": []
  },
  {
    "code": "21eb8",
    "name": "Blacklion",
    "updated_at": "2014-09-22T21:17:57.221137Z",
    "country": "ie",
    "parent": null,
    "longitude": -7.87527990341187,
    "latitude": 54.2928009033203,
    "regions": []
  },
  {
    "code": "21eb7",
    "name": "Blackwater",
    "updated_at": "2014-09-22T21:17:57.178871Z",
    "country": "ie",
    "parent": null,
    "longitude": -6.34528017044067,
    "latitude": 52.4467010498047,
    "regions": []
  },
  {
    "code": "21eb6",
    "name": "Caherlistrane",
    "updated_at": "2014-09-22T21:17:56.721306Z",
    "country": "ie",
    "parent": null,
    "longitude": -9.01667022705078,
    "latitude": 53.5,
    "regions": []
  },
  {
    "code": "21eb5",
    "name": "Carney",
    "updated_at": "2014-09-22T21:17:56.520797Z",
    "country": "ie",
    "parent": null,
    "longitude": -8.52721977233887,
    "latitude": 54.3405990600586,
    "regions": []
  },
  {
    "code": "21eb4",
    "name": "Carrowkennedy",
    "updated_at": "2014-09-22T21:17:56.387837Z",
    "country": "ie",
    "parent": null,
    "longitude": -9.55000019073486,
    "latitude": 53.7000007629395,
    "regions": []
  },
  {
    "code": "21eb3",
    "name": "Castleblayney",
    "updated_at": "2014-09-22T21:17:56.309617Z",
    "country": "ie",
    "parent": null,
    "longitude": -6.73332977294922,
    "latitude": 54.11669921875,
    "regions": []
  },
  {
    "code": "21eb2",
    "name": "Castledermot",
    "updated_at": "2014-09-22T21:17:56.274315Z",
    "country": "ie",
    "parent": null,
    "longitude": -6.84221982955933,
    "latitude": 52.9089012145996,
    "regions": []
  },
  {
    "code": "21eb1",
    "name": "Castletownbere",
    "updated_at": "2014-09-22T21:17:56.085992Z",
    "country": "ie",
    "parent": null,
    "longitude": -9.91666984558105,
    "latitude": 51.6500015258789,
    "regions": []
  },
  {
    "code": "21eb0",
    "name": "Cloghan",
    "updated_at": "2014-09-22T21:17:55.718983Z",
    "country": "ie",
    "parent": null,
    "longitude": -7.8841700553894,
    "latitude": 53.2216987609863,
    "regions": []
  },
  {
    "code": "21eaf",
    "name": "Clogheen",
    "updated_at": "2014-09-22T21:17:55.680463Z",
    "country": "ie",
    "parent": null,
    "longitude": -7.99221992492676,
    "latitude": 52.2757987976074,
    "regions": []
  },
  {
    "code": "21eae",
    "name": "Cluain Eois",
    "updated_at": "2014-09-22T21:17:55.569180Z",
    "country": "ie",
    "parent": null,
    "longitude": -7.23332977294922,
    "latitude": 54.1833000183105,
    "regions": []
  },
  {
    "code": "21ead",
    "name": "Cloyne",
    "updated_at": "2014-09-22T21:17:55.470680Z",
    "country": "ie",
    "parent": null,
    "longitude": -8.12444019317627,
    "latitude": 51.8628005981445,
    "regions": []
  },
  {
    "code": "21eac",
    "name": "Collon",
    "updated_at": "2014-09-22T21:17:55.425814Z",
    "country": "ie",
    "parent": null,
    "longitude": -6.48693990707397,
    "latitude": 53.7811012268066,
    "regions": []
  },
  {
    "code": "21eab",
    "name": "Corrofin",
    "updated_at": "2014-09-22T21:17:55.325758Z",
    "country": "ie",
    "parent": null,
    "longitude": -9.06305980682373,
    "latitude": 52.9477996826172,
    "regions": []
  },
  {
    "code": "21eaa",
    "name": "Creagh",
    "updated_at": "2016-02-09T09:32:29.922455Z",
    "country": "ie",
    "parent": null,
    "longitude": -8.95888996124268,
    "latitude": 51.6013984680176,
    "regions": []
  },
  {
    "code": "21ea9",
    "name": "Crossmolina",
    "updated_at": "2014-09-22T21:17:55.210249Z",
    "country": "ie",
    "parent": null,
    "longitude": -9.31667041778564,
    "latitude": 54.0999984741211,
    "regions": []
  },
  {
    "code": "21ea8",
    "name": "Culdaff",
    "updated_at": "2014-09-22T21:17:55.150523Z",
    "country": "ie",
    "parent": null,
    "longitude": -7.16666984558105,
    "latitude": 55.2832984924316,
    "regions": []
  },
  {
    "code": "21ea7",
    "name": "Curragh",
    "updated_at": "2014-09-22T21:17:55.131512Z",
    "country": "ie",
    "parent": null,
    "longitude": -8.4399995803833,
    "latitude": 53.1147003173828,
    "regions": []
  },
  {
    "code": "21ea6",
    "name": "Dún ar Aill",
    "updated_at": "2014-09-22T21:17:55.035403Z",
    "country": "ie",
    "parent": null,
    "longitude": -8.58333015441895,
    "latitude": 52.2167015075684,
    "regions": []
  },
  {
    "code": "21ea5",
    "name": "Doochary",
    "updated_at": "2014-09-22T21:17:54.960578Z",
    "country": "ie",
    "parent": null,
    "longitude": -8.20944023132324,
    "latitude": 54.9063987731934,
    "regions": []
  },
  {
    "code": "21ea4",
    "name": "Drumcliff",
    "updated_at": "2014-09-22T21:17:54.807711Z",
    "country": "ie",
    "parent": null,
    "longitude": -8.5,
    "latitude": 54.3333015441895,
    "regions": []
  },
  {
    "code": "21ea3",
    "name": "Duncannon",
    "updated_at": "2014-09-22T21:17:54.683677Z",
    "country": "ie",
    "parent": null,
    "longitude": -6.91694021224976,
    "latitude": 52.2202987670898,
    "regions": []
  },
  {
    "code": "21ea2",
    "name": "Dunglow",
    "updated_at": "2014-09-22T21:17:54.530540Z",
    "country": "ie",
    "parent": null,
    "longitude": -8.35916996002197,
    "latitude": 54.951099395752,
    "regions": []
  },
  {
    "code": "21ea1",
    "name": "Dunquin",
    "updated_at": "2014-09-22T21:17:54.394397Z",
    "country": "ie",
    "parent": null,
    "longitude": -10.457200050354,
    "latitude": 52.1314010620117,
    "regions": []
  },
  {
    "code": "21ea0",
    "name": "Fanore",
    "updated_at": "2014-09-22T21:17:54.156541Z",
    "country": "ie",
    "parent": null,
    "longitude": -9.29028034210205,
    "latitude": 53.1180992126465,
    "regions": []
  },
  {
    "code": "21e9f",
    "name": "Fiodh Ard",
    "updated_at": "2014-09-22T21:17:54.086473Z",
    "country": "ie",
    "parent": null,
    "longitude": -7.69111013412476,
    "latitude": 52.4672012329102,
    "regions": []
  },
  {
    "code": "21e9e",
    "name": "Harrylock",
    "updated_at": "2014-09-22T21:17:53.623097Z",
    "country": "ie",
    "parent": null,
    "longitude": -6.88721990585327,
    "latitude": 52.1627998352051,
    "regions": []
  },
  {
    "code": "21e9d",
    "name": "Inch",
    "updated_at": "2014-09-22T21:17:53.529134Z",
    "country": "ie",
    "parent": null,
    "longitude": -6.23443984985352,
    "latitude": 52.738899230957,
    "regions": []
  },
  {
    "code": "21e9c",
    "name": "Inverin",
    "updated_at": "2014-09-22T21:17:53.490837Z",
    "country": "ie",
    "parent": null,
    "longitude": -9.42916965484619,
    "latitude": 53.2421989440918,
    "regions": []
  },
  {
    "code": "21e9b",
    "name": "Kilcar",
    "updated_at": "2014-09-22T21:17:53.364353Z",
    "country": "ie",
    "parent": null,
    "longitude": -8.59333038330078,
    "latitude": 54.6338996887207,
    "regions": []
  },
  {
    "code": "21e9a",
    "name": "Kilrane",
    "updated_at": "2014-09-22T21:17:53.038698Z",
    "country": "ie",
    "parent": null,
    "longitude": -6.35249996185303,
    "latitude": 52.2411003112793,
    "regions": []
  },
  {
    "code": "21e99",
    "name": "Lismore",
    "updated_at": "2014-09-22T21:17:52.569566Z",
    "country": "ie",
    "parent": null,
    "longitude": -7.93083000183105,
    "latitude": 52.1366996765137,
    "regions": []
  },
  {
    "code": "21e98",
    "name": "Longueville",
    "updated_at": "2014-09-22T21:17:52.495218Z",
    "country": "ie",
    "parent": null,
    "longitude": -8.73332977294922,
    "latitude": 52.13330078125,
    "regions": []
  },
  {
    "code": "21e97",
    "name": "Longwood",
    "updated_at": "2014-09-22T21:17:52.475949Z",
    "country": "ie",
    "parent": null,
    "longitude": -6.92193984985352,
    "latitude": 53.4538993835449,
    "regions": []
  },
  {
    "code": "21e96",
    "name": "Milford",
    "updated_at": "2014-09-22T21:17:52.173222Z",
    "country": "ie",
    "parent": null,
    "longitude": -7.698890209198,
    "latitude": 55.0881004333496,
    "regions": []
  },
  {
    "code": "21e95",
    "name": "Mountnugent",
    "updated_at": "2014-09-22T21:17:51.980811Z",
    "country": "ie",
    "parent": null,
    "longitude": -7.25,
    "latitude": 53.8166999816895,
    "regions": []
  },
  {
    "code": "21e94",
    "name": "Mullagh",
    "updated_at": "2014-09-22T21:17:48.349817Z",
    "country": "ie",
    "parent": null,
    "longitude": -9.73332977294922,
    "latitude": 53.75,
    "regions": []
  },
  {
    "code": "21e93",
    "name": "Multyfarnham",
    "updated_at": "2014-09-22T21:17:48.253255Z",
    "country": "ie",
    "parent": null,
    "longitude": -7.38332986831665,
    "latitude": 53.61669921875,
    "regions": []
  },
  {
    "code": "21e92",
    "name": "Murrisk",
    "updated_at": "2014-09-22T21:17:48.219198Z",
    "country": "ie",
    "parent": null,
    "longitude": -9.64999961853027,
    "latitude": 53.7832984924316,
    "regions": []
  },
  {
    "code": "21e91",
    "name": "Newport",
    "updated_at": "2014-09-22T21:17:48.093934Z",
    "country": "ie",
    "parent": null,
    "longitude": -9.55000019073486,
    "latitude": 53.88330078125,
    "regions": []
  },
  {
    "code": "21e90",
    "name": "Oldbridge",
    "updated_at": "2014-09-22T21:17:48.014650Z",
    "country": "ie",
    "parent": null,
    "longitude": -6.27555990219116,
    "latitude": 53.0499992370605,
    "regions": []
  },
  {
    "code": "21e8f",
    "name": "Ovens",
    "updated_at": "2014-09-22T21:17:47.907179Z",
    "country": "ie",
    "parent": null,
    "longitude": -8.66666984558105,
    "latitude": 51.86669921875,
    "regions": []
  },
  {
    "code": "21e8e",
    "name": "Rosslare Harbour",
    "updated_at": "2014-09-22T21:17:47.336202Z",
    "country": "ie",
    "parent": null,
    "longitude": -6.34999990463257,
    "latitude": 52.25,
    "regions": []
  },
  {
    "code": "21e8d",
    "name": "Skull",
    "updated_at": "2014-09-22T21:17:47.083057Z",
    "country": "ie",
    "parent": null,
    "longitude": -9.53332996368408,
    "latitude": 51.5332984924316,
    "regions": []
  },
  {
    "code": "21e8c",
    "name": "Teelin",
    "updated_at": "2014-09-22T21:17:46.683672Z",
    "country": "ie",
    "parent": null,
    "longitude": -8.64167022705078,
    "latitude": 54.6347007751465,
    "regions": []
  },
  {
    "code": "21e8b",
    "name": "Terryglass",
    "updated_at": "2014-09-22T21:17:46.600255Z",
    "country": "ie",
    "parent": null,
    "longitude": -8.19888973236084,
    "latitude": 53.0503005981445,
    "regions": []
  },
  {
    "code": "21e8a",
    "name": "Tullaghan",
    "updated_at": "2014-09-22T21:17:46.353015Z",
    "country": "ie",
    "parent": null,
    "longitude": -8.33111000061035,
    "latitude": 54.4682998657227,
    "regions": []
  },
  {
    "code": "21e89",
    "name": "Tully",
    "updated_at": "2014-09-22T21:17:46.298187Z",
    "country": "ie",
    "parent": null,
    "longitude": -9.48332977294922,
    "latitude": 53.2332992553711,
    "regions": []
  },
  {
    "code": "21e88",
    "name": "Tyrrellspass",
    "updated_at": "2014-09-22T21:17:46.279596Z",
    "country": "ie",
    "parent": null,
    "longitude": -7.37361001968384,
    "latitude": 53.3889007568359,
    "regions": []
  },
  {
    "code": "21e87",
    "name": "Unionhall",
    "updated_at": "2016-02-09T09:32:28.191396Z",
    "country": "ie",
    "parent": null,
    "longitude": -9.13333034515381,
    "latitude": 51.5499992370605,
    "regions": []
  },
  {
    "code": "21e86",
    "name": "Urlingford",
    "updated_at": "2014-09-22T21:17:46.240193Z",
    "country": "ie",
    "parent": null,
    "longitude": -7.58249998092651,
    "latitude": 52.7206001281738,
    "regions": []
  },
  {
    "code": "21e85",
    "name": "Virginia",
    "updated_at": "2014-09-22T21:17:46.188190Z",
    "country": "ie",
    "parent": null,
    "longitude": -7.07556009292603,
    "latitude": 53.8339004516602,
    "regions": []
  },
  {
    "code": "21e84",
    "name": "Awhitu",
    "updated_at": "2014-09-22T21:17:45.773395Z",
    "country": "nz",
    "parent": null,
    "longitude": 174.649993896484,
    "latitude": -37.0833015441895,
    "regions": []
  },
  {
    "code": "21e83",
    "name": "Camerons",
    "updated_at": "2014-09-22T21:17:45.625326Z",
    "country": "nz",
    "parent": null,
    "longitude": 171.132995605469,
    "latitude": -42.5499992370605,
    "regions": []
  },
  {
    "code": "21e82",
    "name": "Cheviot",
    "updated_at": "2014-09-22T21:17:45.530057Z",
    "country": "nz",
    "parent": null,
    "longitude": 173.266998291016,
    "latitude": -42.8166999816895,
    "regions": []
  },
  {
    "code": "21e81",
    "name": "Cowes",
    "updated_at": "2014-09-22T21:17:45.381087Z",
    "country": "nz",
    "parent": null,
    "longitude": -1.30102002620697,
    "latitude": 50.7588005065918,
    "regions": []
  },
  {
    "code": "21e80",
    "name": "Donnellys Crossing",
    "updated_at": "2014-09-22T21:17:45.319512Z",
    "country": "nz",
    "parent": null,
    "longitude": 173.617004394531,
    "latitude": -35.7167015075684,
    "regions": []
  },
  {
    "code": "21e7f",
    "name": "Duntroon",
    "updated_at": "2014-09-22T21:17:45.282432Z",
    "country": "nz",
    "parent": null,
    "longitude": 170.682998657227,
    "latitude": -44.86669921875,
    "regions": []
  },
  {
    "code": "21e7e",
    "name": "Hakahaka",
    "updated_at": "2014-09-22T21:17:45.024819Z",
    "country": "nz",
    "parent": null,
    "longitude": 174.117004394531,
    "latitude": -41.2999992370605,
    "regions": []
  },
  {
    "code": "21e7d",
    "name": "Kaka Point",
    "updated_at": "2014-09-22T21:17:44.678170Z",
    "country": "nz",
    "parent": null,
    "longitude": 169.783004760742,
    "latitude": -46.38330078125,
    "regions": []
  },
  {
    "code": "21e7c",
    "name": "Kakapotahi",
    "updated_at": "2014-09-22T21:17:44.658507Z",
    "country": "nz",
    "parent": null,
    "longitude": 170.699996948242,
    "latitude": -42.9832992553711,
    "regions": []
  },
  {
    "code": "21e7b",
    "name": "Kimbell",
    "updated_at": "2014-09-22T21:17:44.554253Z",
    "country": "nz",
    "parent": null,
    "longitude": 170.75,
    "latitude": -44.0499992370605,
    "regions": []
  },
  {
    "code": "21e7a",
    "name": "Korokoro",
    "updated_at": "2014-09-22T21:17:44.505118Z",
    "country": "nz",
    "parent": null,
    "longitude": 174.867004394531,
    "latitude": -41.2167015075684,
    "regions": []
  },
  {
    "code": "21e79",
    "name": "Macandrew Bay",
    "updated_at": "2014-09-22T21:17:44.275938Z",
    "country": "nz",
    "parent": null,
    "longitude": 170.600006103516,
    "latitude": -45.86669921875,
    "regions": []
  },
  {
    "code": "21e78",
    "name": "Mahurangi",
    "updated_at": "2014-09-22T21:17:44.224284Z",
    "country": "nz",
    "parent": null,
    "longitude": 174.733001708984,
    "latitude": -36.4832992553711,
    "regions": []
  },
  {
    "code": "21e77",
    "name": "Mangawhai",
    "updated_at": "2014-09-22T21:17:44.113142Z",
    "country": "nz",
    "parent": null,
    "longitude": 174.567001342773,
    "latitude": -36.11669921875,
    "regions": []
  },
  {
    "code": "21e76",
    "name": "Maraekakaho",
    "updated_at": "2014-09-22T21:17:44.030569Z",
    "country": "nz",
    "parent": null,
    "longitude": 176.632995605469,
    "latitude": -39.6500015258789,
    "regions": []
  },
  {
    "code": "21e75",
    "name": "Matata",
    "updated_at": "2014-09-22T21:17:43.983911Z",
    "country": "nz",
    "parent": null,
    "longitude": 176.75,
    "latitude": -37.88330078125,
    "regions": []
  },
  {
    "code": "21e74",
    "name": "Mauku",
    "updated_at": "2014-09-22T21:17:43.934402Z",
    "country": "nz",
    "parent": null,
    "longitude": 174.817001342773,
    "latitude": -37.2000007629395,
    "regions": []
  },
  {
    "code": "21e73",
    "name": "Ngatimoti",
    "updated_at": "2014-09-22T21:17:43.690740Z",
    "country": "nz",
    "parent": null,
    "longitude": 172.899993896484,
    "latitude": -41.2167015075684,
    "regions": []
  },
  {
    "code": "21e72",
    "name": "Ohaupo",
    "updated_at": "2014-09-22T21:17:43.578426Z",
    "country": "nz",
    "parent": null,
    "longitude": 175.317001342773,
    "latitude": -37.9166984558105,
    "regions": []
  },
  {
    "code": "21e71",
    "name": "Omata",
    "updated_at": "2014-09-22T21:17:43.453880Z",
    "country": "nz",
    "parent": null,
    "longitude": 174.016998291016,
    "latitude": -39.0999984741211,
    "regions": []
  },
  {
    "code": "21e70",
    "name": "Oruanui",
    "updated_at": "2014-09-22T21:17:43.248969Z",
    "country": "nz",
    "parent": null,
    "longitude": 176.033004760742,
    "latitude": -38.5833015441895,
    "regions": []
  },
  {
    "code": "21e6f",
    "name": "Owen River",
    "updated_at": "2014-09-22T21:17:43.205926Z",
    "country": "nz",
    "parent": null,
    "longitude": 172.449996948242,
    "latitude": -41.6500015258789,
    "regions": []
  },
  {
    "code": "21e6e",
    "name": "Parakai",
    "updated_at": "2014-09-22T21:17:43.066448Z",
    "country": "nz",
    "parent": null,
    "longitude": 174.432998657227,
    "latitude": -36.6500015258789,
    "regions": []
  },
  {
    "code": "21e6d",
    "name": "Rapahoe",
    "updated_at": "2014-09-22T21:17:42.589171Z",
    "country": "nz",
    "parent": null,
    "longitude": 171.25,
    "latitude": -42.36669921875,
    "regions": []
  },
  {
    "code": "21e6c",
    "name": "Rawhiti",
    "updated_at": "2014-09-22T21:17:42.553401Z",
    "country": "nz",
    "parent": null,
    "longitude": 174.25,
    "latitude": -35.2332992553711,
    "regions": []
  },
  {
    "code": "21e6b",
    "name": "Reefton",
    "updated_at": "2014-09-22T21:17:42.539535Z",
    "country": "nz",
    "parent": null,
    "longitude": 171.867004394531,
    "latitude": -42.11669921875,
    "regions": []
  },
  {
    "code": "21e6a",
    "name": "Seddon",
    "updated_at": "2014-09-22T21:17:42.364353Z",
    "country": "nz",
    "parent": null,
    "longitude": 174.082992553711,
    "latitude": -41.6666984558105,
    "regions": []
  },
  {
    "code": "21e69",
    "name": "Stoke",
    "updated_at": "2014-09-22T21:17:42.324111Z",
    "country": "nz",
    "parent": null,
    "longitude": 173.233001708984,
    "latitude": -41.3166999816895,
    "regions": []
  },
  {
    "code": "21e68",
    "name": "Surfdale",
    "updated_at": "2014-09-22T21:17:42.310183Z",
    "country": "nz",
    "parent": null,
    "longitude": 175.0,
    "latitude": -36.7832984924316,
    "regions": []
  },
  {
    "code": "21e67",
    "name": "Tamahere",
    "updated_at": "2014-09-22T21:17:42.221947Z",
    "country": "nz",
    "parent": null,
    "longitude": 175.350006103516,
    "latitude": -37.8333015441895,
    "regions": []
  },
  {
    "code": "21e66",
    "name": "Terras",
    "updated_at": "2014-09-22T21:17:42.184533Z",
    "country": "nz",
    "parent": null,
    "longitude": 169.417007446289,
    "latitude": -44.8333015441895,
    "regions": []
  },
  {
    "code": "21e65",
    "name": "Te Aroha West",
    "updated_at": "2014-09-22T21:17:42.030877Z",
    "country": "nz",
    "parent": null,
    "longitude": 175.733001708984,
    "latitude": -37.5833015441895,
    "regions": []
  },
  {
    "code": "21e64",
    "name": "Te Kopuru",
    "updated_at": "2014-09-22T21:17:41.987267Z",
    "country": "nz",
    "parent": null,
    "longitude": 173.932998657227,
    "latitude": -36.0332984924316,
    "regions": []
  },
  {
    "code": "21e63",
    "name": "Tongariro",
    "updated_at": "2014-09-22T21:17:41.923550Z",
    "country": "nz",
    "parent": null,
    "longitude": 175.649993896484,
    "latitude": -39.0332984924316,
    "regions": []
  },
  {
    "code": "21e62",
    "name": "Waikino",
    "updated_at": "2014-09-22T21:17:41.706526Z",
    "country": "nz",
    "parent": null,
    "longitude": 175.841221,
    "latitude": -37.390082,
    "regions": []
  },
  {
    "code": "21e61",
    "name": "Wainuiomata",
    "updated_at": "2014-09-22T21:17:41.691672Z",
    "country": "nz",
    "parent": null,
    "longitude": 174.949996948242,
    "latitude": -41.2667007446289,
    "regions": []
  },
  {
    "code": "21e60",
    "name": "Waiongona",
    "updated_at": "2014-09-22T21:17:41.677670Z",
    "country": "nz",
    "parent": null,
    "longitude": 174.216995239258,
    "latitude": -39.0999984741211,
    "regions": []
  },
  {
    "code": "21e5f",
    "name": "Waitahinga",
    "updated_at": "2014-09-22T21:17:41.633878Z",
    "country": "nz",
    "parent": null,
    "longitude": 174.949996948242,
    "latitude": -39.75,
    "regions": []
  },
  {
    "code": "21e5e",
    "name": "Whitehall",
    "updated_at": "2014-09-22T21:17:41.345601Z",
    "country": "nz",
    "parent": null,
    "longitude": 175.567001342773,
    "latitude": -37.88330078125,
    "regions": []
  },
  {
    "code": "21e5d",
    "name": "Ardmore College",
    "updated_at": "2014-09-22T21:17:41.303501Z",
    "country": "nz",
    "parent": null,
    "longitude": 175.0,
    "latitude": -37.0332984924316,
    "regions": []
  },
  {
    "code": "21e5c",
    "name": "Andros Town",
    "updated_at": "2014-09-22T21:17:41.254912Z",
    "country": "bs",
    "parent": null,
    "longitude": -77.7667007446289,
    "latitude": 24.7000007629395,
    "regions": []
  },
  {
    "code": "21e5b",
    "name": "Arthurʼs Town",
    "updated_at": "2014-09-22T21:17:41.236575Z",
    "country": "bs",
    "parent": null,
    "longitude": -75.6999969482422,
    "latitude": 24.63330078125,
    "regions": []
  },
  {
    "code": "21e5a",
    "name": "Cabbage Hill",
    "updated_at": "2014-09-22T21:17:41.134597Z",
    "country": "bs",
    "parent": null,
    "longitude": -74.2166976928711,
    "latitude": 22.75,
    "regions": []
  },
  {
    "code": "21e59",
    "name": "Coakley Town",
    "updated_at": "2014-09-22T21:17:41.039159Z",
    "country": "bs",
    "parent": null,
    "longitude": -77.8167037963867,
    "latitude": 24.7332992553711,
    "regions": []
  },
  {
    "code": "21e58",
    "name": "Colonel Hill",
    "updated_at": "2014-09-22T21:17:41.017494Z",
    "country": "bs",
    "parent": null,
    "longitude": -74.2166976928711,
    "latitude": 22.7667007446289,
    "regions": []
  },
  {
    "code": "21e57",
    "name": "Cooperʼs Town",
    "updated_at": "2014-09-22T21:17:40.995875Z",
    "country": "bs",
    "parent": null,
    "longitude": -77.5167007446289,
    "latitude": 26.86669921875,
    "regions": []
  },
  {
    "code": "21e56",
    "name": "Governorʼs Harbour",
    "updated_at": "2014-09-22T21:17:40.822883Z",
    "country": "bs",
    "parent": null,
    "longitude": -76.2332992553711,
    "latitude": 25.1667003631592,
    "regions": []
  },
  {
    "code": "21e55",
    "name": "Spanish Wells Settlement",
    "updated_at": "2014-09-22T21:17:40.401390Z",
    "country": "bs",
    "parent": null,
    "longitude": -76.75,
    "latitude": 25.5499992370605,
    "regions": []
  },
  {
    "code": "21e54",
    "name": "Williams Town",
    "updated_at": "2014-09-22T21:17:40.326740Z",
    "country": "bs",
    "parent": null,
    "longitude": -78.6667022705078,
    "latitude": 26.4832992553711,
    "regions": []
  },
  {
    "code": "21e53",
    "name": "Bellefontaine",
    "updated_at": "2014-09-22T21:17:40.227419Z",
    "country": "mq",
    "parent": null,
    "longitude": -61.1666984558105,
    "latitude": 14.6667003631592,
    "regions": []
  },
  {
    "code": "21e52",
    "name": "Case-Pilote",
    "updated_at": "2014-09-22T21:17:40.214129Z",
    "country": "mq",
    "parent": null,
    "longitude": -61.13330078125,
    "latitude": 14.6332998275757,
    "regions": []
  },
  {
    "code": "21e51",
    "name": "Le Prêcheur",
    "updated_at": "2014-09-22T21:17:40.134953Z",
    "country": "mq",
    "parent": null,
    "longitude": -61.2167015075684,
    "latitude": 14.8000001907349,
    "regions": []
  },
  {
    "code": "21e50",
    "name": "Saint Esprit",
    "updated_at": "2014-09-22T21:17:40.103199Z",
    "country": "mq",
    "parent": null,
    "longitude": -60.9333000183105,
    "latitude": 14.5500001907349,
    "regions": []
  },
  {
    "code": "21e4f",
    "name": "Les Anses-dʼArlets",
    "updated_at": "2014-09-22T21:17:40.087911Z",
    "country": "mq",
    "parent": null,
    "longitude": -61.0833015441895,
    "latitude": 14.4833002090454,
    "regions": []
  },
  {
    "code": "21e4e",
    "name": "Rivière-Pilote",
    "updated_at": "2014-09-22T21:17:40.044268Z",
    "country": "mq",
    "parent": null,
    "longitude": -60.9000015258789,
    "latitude": 14.4833002090454,
    "regions": []
  },
  {
    "code": "21e4d",
    "name": "Saint-Joseph",
    "updated_at": "2014-09-22T21:17:39.970679Z",
    "country": "mq",
    "parent": null,
    "longitude": -61.0332984924316,
    "latitude": 14.6667003631592,
    "regions": []
  },
  {
    "code": "21e4c",
    "name": "Saint-Pierre",
    "updated_at": "2014-09-22T21:17:39.955415Z",
    "country": "mq",
    "parent": null,
    "longitude": -61.1666984558105,
    "latitude": 14.7333002090454,
    "regions": []
  },
  {
    "code": "21e4b",
    "name": "Alexandra",
    "updated_at": "2014-09-22T21:17:39.648112Z",
    "country": "au",
    "parent": null,
    "longitude": 145.699996948242,
    "latitude": -37.1833000183105,
    "regions": []
  },
  {
    "code": "21e4a",
    "name": "Aspendale",
    "updated_at": "2014-09-22T21:17:39.278716Z",
    "country": "au",
    "parent": null,
    "longitude": 145.100006103516,
    "latitude": -38.0332984924316,
    "regions": []
  },
  {
    "code": "21e49",
    "name": "Austins Ferry",
    "updated_at": "2014-09-22T21:17:39.159340Z",
    "country": "au",
    "parent": null,
    "longitude": 147.25,
    "latitude": -42.7667007446289,
    "regions": []
  },
  {
    "code": "21e48",
    "name": "Babinda",
    "updated_at": "2014-09-22T21:17:39.061140Z",
    "country": "au",
    "parent": null,
    "longitude": 145.917007446289,
    "latitude": -17.3500003814697,
    "regions": []
  },
  {
    "code": "21e47",
    "name": "Badger Creek",
    "updated_at": "2014-09-22T21:17:39.041579Z",
    "country": "au",
    "parent": null,
    "longitude": 145.516998291016,
    "latitude": -37.7000007629395,
    "regions": []
  },
  {
    "code": "21e46",
    "name": "Barham",
    "updated_at": "2014-09-22T21:17:38.747352Z",
    "country": "au",
    "parent": null,
    "longitude": 144.132995605469,
    "latitude": -35.63330078125,
    "regions": []
  },
  {
    "code": "21e45",
    "name": "Barongarook",
    "updated_at": "2014-09-22T21:17:38.640480Z",
    "country": "au",
    "parent": null,
    "longitude": 143.565727,
    "latitude": -38.443926,
    "regions": []
  },
  {
    "code": "21e44",
    "name": "Barrine",
    "updated_at": "2014-09-22T21:17:38.573394Z",
    "country": "au",
    "parent": null,
    "longitude": 145.632995605469,
    "latitude": -17.2000007629395,
    "regions": []
  },
  {
    "code": "21e43",
    "name": "Barwon Heads",
    "updated_at": "2014-09-22T21:17:38.516744Z",
    "country": "au",
    "parent": null,
    "longitude": 144.5,
    "latitude": -38.2832984924316,
    "regions": []
  },
  {
    "code": "21e42",
    "name": "Beachport",
    "updated_at": "2014-09-22T21:17:38.399995Z",
    "country": "au",
    "parent": null,
    "longitude": 140.016998291016,
    "latitude": -37.5,
    "regions": []
  },
  {
    "code": "21e41",
    "name": "Belford",
    "updated_at": "2014-09-22T21:17:38.106920Z",
    "country": "au",
    "parent": null,
    "longitude": 151.283004760742,
    "latitude": -32.6666984558105,
    "regions": []
  },
  {
    "code": "21e40",
    "name": "Bellawongarah",
    "updated_at": "2014-09-22T21:17:38.036616Z",
    "country": "au",
    "parent": null,
    "longitude": 150.632995605469,
    "latitude": -34.7667007446289,
    "regions": []
  },
  {
    "code": "21e3f",
    "name": "Bellbird",
    "updated_at": "2014-09-22T21:17:38.015333Z",
    "country": "au",
    "parent": null,
    "longitude": 151.317001342773,
    "latitude": -32.86669921875,
    "regions": []
  },
  {
    "code": "21e3e",
    "name": "Bellevue",
    "updated_at": "2014-09-22T21:17:37.976643Z",
    "country": "au",
    "parent": null,
    "longitude": 116.016998291016,
    "latitude": -31.8999996185303,
    "regions": []
  },
  {
    "code": "21e3d",
    "name": "Bellingen",
    "updated_at": "2014-09-22T21:17:37.957843Z",
    "country": "au",
    "parent": null,
    "longitude": 152.882995605469,
    "latitude": -30.4500007629395,
    "regions": []
  },
  {
    "code": "21e3c",
    "name": "Berri",
    "updated_at": "2014-09-22T21:17:37.784569Z",
    "country": "au",
    "parent": null,
    "longitude": 140.600006103516,
    "latitude": -34.2832984924316,
    "regions": []
  },
  {
    "code": "21e3b",
    "name": "Berrigan",
    "updated_at": "2014-09-22T21:17:37.744368Z",
    "country": "au",
    "parent": null,
    "longitude": 145.817001342773,
    "latitude": -35.6500015258789,
    "regions": []
  },
  {
    "code": "21e3a",
    "name": "Willaumez Island",
    "updated_at": "2014-09-22T21:17:37.639420Z",
    "country": "au",
    "parent": null,
    "longitude": 147.483993530273,
    "latitude": -43.0564002990723,
    "regions": []
  },
  {
    "code": "21e39",
    "name": "Biboohra",
    "updated_at": "2014-09-22T21:17:37.613303Z",
    "country": "au",
    "parent": null,
    "longitude": 145.417007446289,
    "latitude": -16.9333000183105,
    "regions": []
  },
  {
    "code": "21e38",
    "name": "Billimari",
    "updated_at": "2014-09-22T21:17:37.509349Z",
    "country": "au",
    "parent": null,
    "longitude": 148.617004394531,
    "latitude": -33.6833000183105,
    "regions": []
  },
  {
    "code": "21e37",
    "name": "Blayney",
    "updated_at": "2014-09-22T21:17:33.984900Z",
    "country": "au",
    "parent": null,
    "longitude": 149.266998291016,
    "latitude": -33.5332984924316,
    "regions": []
  },
  {
    "code": "21e36",
    "name": "Bonnie Doon",
    "updated_at": "2014-09-22T21:17:33.893625Z",
    "country": "au",
    "parent": null,
    "longitude": 145.867004394531,
    "latitude": -37.0167007446289,
    "regions": []
  },
  {
    "code": "21e35",
    "name": "Booloumba",
    "updated_at": "2014-09-22T21:17:33.820995Z",
    "country": "au",
    "parent": null,
    "longitude": 152.682998657227,
    "latitude": -26.6499996185303,
    "regions": []
  },
  {
    "code": "21e34",
    "name": "Brandon",
    "updated_at": "2014-09-22T21:17:33.584126Z",
    "country": "au",
    "parent": null,
    "longitude": 147.367004394531,
    "latitude": -19.5666999816895,
    "regions": []
  },
  {
    "code": "21e33",
    "name": "Bulahdelah",
    "updated_at": "2014-09-22T21:17:32.979476Z",
    "country": "au",
    "parent": null,
    "longitude": 152.216995239258,
    "latitude": -32.4166984558105,
    "regions": []
  },
  {
    "code": "21e32",
    "name": "Bullsbrook",
    "updated_at": "2014-09-22T21:17:32.916928Z",
    "country": "au",
    "parent": null,
    "longitude": 116.0,
    "latitude": -31.6667003631592,
    "regions": []
  },
  {
    "code": "21e31",
    "name": "Bullyard",
    "updated_at": "2014-09-22T21:17:32.878879Z",
    "country": "au",
    "parent": null,
    "longitude": 152.067001342773,
    "latitude": -24.9500007629395,
    "regions": []
  },
  {
    "code": "21e30",
    "name": "Burraga",
    "updated_at": "2014-09-22T21:17:32.728815Z",
    "country": "au",
    "parent": null,
    "longitude": 149.533004760742,
    "latitude": -33.9500007629395,
    "regions": []
  },
  {
    "code": "21e2f",
    "name": "Campbellfield",
    "updated_at": "2014-09-22T21:17:32.452565Z",
    "country": "au",
    "parent": null,
    "longitude": 144.949996948242,
    "latitude": -37.6833000183105,
    "regions": []
  },
  {
    "code": "21e2e",
    "name": "Capel",
    "updated_at": "2014-09-22T21:17:32.177175Z",
    "country": "au",
    "parent": null,
    "longitude": 115.550003051758,
    "latitude": -33.5666999816895,
    "regions": []
  },
  {
    "code": "21e2d",
    "name": "Carcoar",
    "updated_at": "2014-09-22T21:17:32.070506Z",
    "country": "au",
    "parent": null,
    "longitude": 149.132995605469,
    "latitude": -33.5999984741211,
    "regions": []
  },
  {
    "code": "21e2c",
    "name": "Carlsruhe",
    "updated_at": "2014-09-22T21:17:31.999322Z",
    "country": "au",
    "parent": null,
    "longitude": 144.5,
    "latitude": -37.2832984924316,
    "regions": []
  },
  {
    "code": "21e2b",
    "name": "Cheshunt",
    "updated_at": "2014-09-22T21:17:31.425902Z",
    "country": "au",
    "parent": null,
    "longitude": 146.432998657227,
    "latitude": -36.7999992370605,
    "regions": []
  },
  {
    "code": "21e2a",
    "name": "Childers",
    "updated_at": "2014-09-22T21:17:31.361786Z",
    "country": "au",
    "parent": null,
    "longitude": 152.266998291016,
    "latitude": -25.25,
    "regions": []
  },
  {
    "code": "21e29",
    "name": "Clarendon",
    "updated_at": "2014-09-22T21:17:31.226461Z",
    "country": "au",
    "parent": null,
    "longitude": 143.966995239258,
    "latitude": -37.7000007629395,
    "regions": []
  },
  {
    "code": "21e28",
    "name": "Claude Road",
    "updated_at": "2014-09-22T21:17:31.198615Z",
    "country": "au",
    "parent": null,
    "longitude": 146.283004760742,
    "latitude": -41.4333000183105,
    "regions": []
  },
  {
    "code": "21e27",
    "name": "Cobar",
    "updated_at": "2014-09-22T21:17:31.041089Z",
    "country": "au",
    "parent": null,
    "longitude": 145.817001342773,
    "latitude": -31.5,
    "regions": []
  },
  {
    "code": "21e26",
    "name": "Conondale",
    "updated_at": "2014-09-22T21:17:30.685339Z",
    "country": "au",
    "parent": null,
    "longitude": 152.716995239258,
    "latitude": -26.7332992553711,
    "regions": []
  },
  {
    "code": "21e25",
    "name": "Coogee",
    "updated_at": "2014-09-22T21:17:30.632001Z",
    "country": "au",
    "parent": null,
    "longitude": 115.766998291016,
    "latitude": -32.11669921875,
    "regions": []
  },
  {
    "code": "21e24",
    "name": "Copeland",
    "updated_at": "2014-09-22T21:17:30.328733Z",
    "country": "au",
    "parent": null,
    "longitude": 151.832992553711,
    "latitude": -32.0,
    "regions": []
  },
  {
    "code": "21e23",
    "name": "Corio",
    "updated_at": "2014-09-22T21:17:30.272086Z",
    "country": "au",
    "parent": null,
    "longitude": 144.382995605469,
    "latitude": -38.0833015441895,
    "regions": []
  },
  {
    "code": "21e22",
    "name": "Cowes",
    "updated_at": "2014-09-22T21:17:30.149628Z",
    "country": "au",
    "parent": null,
    "longitude": -1.30102002620697,
    "latitude": 50.7588005065918,
    "regions": []
  },
  {
    "code": "21e21",
    "name": "Crafers",
    "updated_at": "2014-09-22T21:17:30.105908Z",
    "country": "au",
    "parent": null,
    "longitude": 138.699996948242,
    "latitude": -35.0,
    "regions": []
  },
  {
    "code": "21e20",
    "name": "Deepwater",
    "updated_at": "2014-09-22T21:17:29.563805Z",
    "country": "au",
    "parent": null,
    "longitude": 151.850006103516,
    "latitude": -29.4333000183105,
    "regions": []
  },
  {
    "code": "21e1f",
    "name": "Dimboola",
    "updated_at": "2014-09-22T21:17:29.243583Z",
    "country": "au",
    "parent": null,
    "longitude": 142.050003051758,
    "latitude": -36.4667015075684,
    "regions": []
  },
  {
    "code": "21e1e",
    "name": "Dinmore",
    "updated_at": "2014-09-22T21:17:29.189793Z",
    "country": "au",
    "parent": null,
    "longitude": 152.832992553711,
    "latitude": -27.6000003814697,
    "regions": []
  },
  {
    "code": "21e1d",
    "name": "Dungog",
    "updated_at": "2014-09-22T21:17:28.865649Z",
    "country": "au",
    "parent": null,
    "longitude": 151.766998291016,
    "latitude": -32.4166984558105,
    "regions": []
  },
  {
    "code": "21e1c",
    "name": "Eaglehawk Neck",
    "updated_at": "2014-09-22T21:17:28.723996Z",
    "country": "au",
    "parent": null,
    "longitude": 147.932998657227,
    "latitude": -43.0332984924316,
    "regions": []
  },
  {
    "code": "21e1b",
    "name": "Elliott Heads",
    "updated_at": "2014-09-22T21:17:28.463543Z",
    "country": "au",
    "parent": null,
    "longitude": 152.483001708984,
    "latitude": -24.9167003631592,
    "regions": []
  },
  {
    "code": "21e1a",
    "name": "Emu Bay",
    "updated_at": "2014-09-22T21:17:28.383633Z",
    "country": "au",
    "parent": null,
    "longitude": 137.5,
    "latitude": -35.5999984741211,
    "regions": []
  },
  {
    "code": "21e19",
    "name": "Eschol",
    "updated_at": "2014-09-22T21:17:28.313518Z",
    "country": "au",
    "parent": null,
    "longitude": 148.649993896484,
    "latitude": -32.3333015441895,
    "regions": []
  },
  {
    "code": "21e18",
    "name": "Exmouth",
    "updated_at": "2014-09-22T21:17:28.121062Z",
    "country": "au",
    "parent": null,
    "longitude": -3.40473008155823,
    "latitude": 50.619701385498,
    "regions": []
  },
  {
    "code": "21e17",
    "name": "Foster",
    "updated_at": "2014-09-22T21:17:27.725116Z",
    "country": "au",
    "parent": null,
    "longitude": 146.182998657227,
    "latitude": -38.6500015258789,
    "regions": []
  },
  {
    "code": "21e16",
    "name": "Gindie",
    "updated_at": "2014-09-22T21:17:27.431744Z",
    "country": "au",
    "parent": null,
    "longitude": 148.132995605469,
    "latitude": -23.7332992553711,
    "regions": []
  },
  {
    "code": "21e15",
    "name": "Glenalbyn",
    "updated_at": "2014-09-22T21:17:27.251823Z",
    "country": "au",
    "parent": null,
    "longitude": 143.733001708984,
    "latitude": -36.5167007446289,
    "regions": []
  },
  {
    "code": "21e14",
    "name": "Glenelg",
    "updated_at": "2014-09-22T21:17:27.208766Z",
    "country": "au",
    "parent": null,
    "longitude": 138.516998291016,
    "latitude": -34.9832992553711,
    "regions": []
  },
  {
    "code": "21e13",
    "name": "Glenlyon",
    "updated_at": "2014-09-22T21:17:27.153442Z",
    "country": "au",
    "parent": null,
    "longitude": 144.25,
    "latitude": -37.2999992370605,
    "regions": []
  },
  {
    "code": "21e12",
    "name": "Glen Warning",
    "updated_at": "2014-09-22T21:17:27.117890Z",
    "country": "au",
    "parent": null,
    "longitude": 153.266998291016,
    "latitude": -28.4333000183105,
    "regions": []
  },
  {
    "code": "21e11",
    "name": "Goolgowi",
    "updated_at": "2014-09-22T21:17:27.035469Z",
    "country": "au",
    "parent": null,
    "longitude": 145.682998657227,
    "latitude": -33.9667015075684,
    "regions": []
  },
  {
    "code": "21e10",
    "name": "Great Keppel Island",
    "updated_at": "2014-09-22T21:17:26.794069Z",
    "country": "au",
    "parent": null,
    "longitude": 150.949996948242,
    "latitude": -23.1667003631592,
    "regions": []
  },
  {
    "code": "21e0f",
    "name": "Guildford",
    "updated_at": "2014-09-22T21:17:26.635196Z",
    "country": "au",
    "parent": null,
    "longitude": 115.967002868652,
    "latitude": -31.8999996185303,
    "regions": []
  },
  {
    "code": "21e0e",
    "name": "Gundaroo",
    "updated_at": "2014-09-22T21:17:26.559640Z",
    "country": "au",
    "parent": null,
    "longitude": 149.25,
    "latitude": -35.0332984924316,
    "regions": []
  },
  {
    "code": "21e0d",
    "name": "Gunning",
    "updated_at": "2014-09-22T21:17:26.523918Z",
    "country": "au",
    "parent": null,
    "longitude": 149.283004760742,
    "latitude": -34.7832984924316,
    "regions": []
  },
  {
    "code": "21e0c",
    "name": "Guthalungra",
    "updated_at": "2014-09-22T21:17:26.503918Z",
    "country": "au",
    "parent": null,
    "longitude": 147.832992553711,
    "latitude": -19.9167003631592,
    "regions": []
  },
  {
    "code": "21e0b",
    "name": "Hat Head",
    "updated_at": "2014-09-22T21:17:26.242038Z",
    "country": "au",
    "parent": null,
    "longitude": 153.050003051758,
    "latitude": -31.0499992370605,
    "regions": []
  },
  {
    "code": "21e0a",
    "name": "Helidon",
    "updated_at": "2014-09-22T21:17:26.010337Z",
    "country": "au",
    "parent": null,
    "longitude": 152.132995605469,
    "latitude": -27.5499992370605,
    "regions": []
  },
  {
    "code": "21e09",
    "name": "Heywood",
    "updated_at": "2014-09-22T21:17:25.972250Z",
    "country": "au",
    "parent": null,
    "longitude": 141.632995605469,
    "latitude": -38.13330078125,
    "regions": []
  },
  {
    "code": "21e08",
    "name": "Hillwood",
    "updated_at": "2014-09-22T21:17:25.952744Z",
    "country": "au",
    "parent": null,
    "longitude": 147.0,
    "latitude": -41.2332992553711,
    "regions": []
  },
  {
    "code": "21e07",
    "name": "Hindmarsh Island",
    "updated_at": "2014-09-22T21:17:25.933627Z",
    "country": "au",
    "parent": null,
    "longitude": 138.815431594849,
    "latitude": -35.502643037046,
    "regions": []
  },
  {
    "code": "21e06",
    "name": "Hythe",
    "updated_at": "2014-09-22T21:17:25.661878Z",
    "country": "au",
    "parent": null,
    "longitude": 146.983001708984,
    "latitude": -43.4166984558105,
    "regions": []
  },
  {
    "code": "21e05",
    "name": "Inglewood",
    "updated_at": "2014-09-22T21:17:25.486773Z",
    "country": "au",
    "parent": null,
    "longitude": 143.867004394531,
    "latitude": -36.5833015441895,
    "regions": []
  },
  {
    "code": "21e04",
    "name": "Isabella",
    "updated_at": "2014-09-22T21:17:25.333540Z",
    "country": "au",
    "parent": null,
    "longitude": 149.667007446289,
    "latitude": -33.9500007629395,
    "regions": []
  },
  {
    "code": "21e03",
    "name": "Kelmscott",
    "updated_at": "2014-09-22T21:17:24.762269Z",
    "country": "au",
    "parent": null,
    "longitude": 116.016998291016,
    "latitude": -32.11669921875,
    "regions": []
  },
  {
    "code": "21e02",
    "name": "Kerang",
    "updated_at": "2014-09-22T21:17:24.639563Z",
    "country": "au",
    "parent": null,
    "longitude": 143.917007446289,
    "latitude": -35.7332992553711,
    "regions": []
  },
  {
    "code": "21e01",
    "name": "Kianga",
    "updated_at": "2014-09-22T21:17:24.563039Z",
    "country": "au",
    "parent": null,
    "longitude": 150.117004394531,
    "latitude": -36.1833000183105,
    "regions": []
  },
  {
    "code": "21e00",
    "name": "Kinka",
    "updated_at": "2014-09-22T21:17:24.308158Z",
    "country": "au",
    "parent": null,
    "longitude": 150.800003051758,
    "latitude": -23.2332992553711,
    "regions": []
  },
  {
    "code": "21dff",
    "name": "Korweinguboora",
    "updated_at": "2014-09-22T21:17:24.220138Z",
    "country": "au",
    "parent": null,
    "longitude": 144.132995605469,
    "latitude": -37.4500007629395,
    "regions": []
  },
  {
    "code": "21dfe",
    "name": "Kronkup",
    "updated_at": "2014-09-22T21:17:24.155498Z",
    "country": "au",
    "parent": null,
    "longitude": 117.624000549316,
    "latitude": -35.0368995666504,
    "regions": []
  },
  {
    "code": "21dfd",
    "name": "Kyogle",
    "updated_at": "2014-09-22T21:17:23.995688Z",
    "country": "au",
    "parent": null,
    "longitude": 153.0,
    "latitude": -28.61669921875,
    "regions": []
  },
  {
    "code": "21dfc",
    "name": "Lalor",
    "updated_at": "2014-09-22T21:17:23.887119Z",
    "country": "au",
    "parent": null,
    "longitude": 145.016998291016,
    "latitude": -37.6666984558105,
    "regions": []
  },
  {
    "code": "21dfb",
    "name": "Lara",
    "updated_at": "2014-09-22T21:17:23.809564Z",
    "country": "au",
    "parent": null,
    "longitude": 144.399993896484,
    "latitude": -38.0167007446289,
    "regions": []
  },
  {
    "code": "21dfa",
    "name": "Laverton",
    "updated_at": "2014-09-22T21:17:23.751233Z",
    "country": "au",
    "parent": null,
    "longitude": 144.75,
    "latitude": -37.8499984741211,
    "regions": []
  },
  {
    "code": "21df9",
    "name": "Lewisham",
    "updated_at": "2014-09-22T21:17:23.586881Z",
    "country": "au",
    "parent": null,
    "longitude": 147.617004394531,
    "latitude": -42.8333015441895,
    "regions": []
  },
  {
    "code": "21df8",
    "name": "Lidster",
    "updated_at": "2014-09-22T21:17:23.558935Z",
    "country": "au",
    "parent": null,
    "longitude": 149.016998291016,
    "latitude": -33.2832984924316,
    "regions": []
  },
  {
    "code": "21df7",
    "name": "Maclean",
    "updated_at": "2014-09-22T21:17:23.012969Z",
    "country": "au",
    "parent": null,
    "longitude": 153.216995239258,
    "latitude": -29.4666996002197,
    "regions": []
  },
  {
    "code": "21df6",
    "name": "Marrickville",
    "updated_at": "2014-09-22T21:17:22.545016Z",
    "country": "au",
    "parent": null,
    "longitude": 151.167007446289,
    "latitude": -33.9166984558105,
    "regions": []
  },
  {
    "code": "21df5",
    "name": "Meekatharra",
    "updated_at": "2014-09-22T21:17:22.312875Z",
    "country": "au",
    "parent": null,
    "longitude": 118.483001708984,
    "latitude": -26.6000003814697,
    "regions": []
  },
  {
    "code": "21df4",
    "name": "Miles",
    "updated_at": "2014-09-22T21:17:21.935123Z",
    "country": "au",
    "parent": null,
    "longitude": 150.182998657227,
    "latitude": -26.6667003631592,
    "regions": []
  },
  {
    "code": "21df3",
    "name": "Moke Pilly",
    "updated_at": "2014-09-22T21:17:21.668594Z",
    "country": "au",
    "parent": null,
    "longitude": 142.632995605469,
    "latitude": -37.0999984741211,
    "regions": []
  },
  {
    "code": "21df2",
    "name": "Moonee Beach",
    "updated_at": "2014-09-22T21:17:18.413740Z",
    "country": "au",
    "parent": null,
    "longitude": 153.149993896484,
    "latitude": -30.2166996002197,
    "regions": []
  },
  {
    "code": "21df1",
    "name": "Mount Evelyn",
    "updated_at": "2014-09-22T21:17:18.029025Z",
    "country": "au",
    "parent": null,
    "longitude": 145.382995605469,
    "latitude": -37.7832984924316,
    "regions": []
  },
  {
    "code": "21df0",
    "name": "Musk",
    "updated_at": "2014-09-22T21:17:17.546811Z",
    "country": "au",
    "parent": null,
    "longitude": 144.199996948242,
    "latitude": -37.38330078125,
    "regions": []
  },
  {
    "code": "21def",
    "name": "Narellan",
    "updated_at": "2014-09-22T21:17:17.264919Z",
    "country": "au",
    "parent": null,
    "longitude": 150.733001708984,
    "latitude": -34.0332984924316,
    "regions": []
  },
  {
    "code": "21dee",
    "name": "Nornalup",
    "updated_at": "2014-09-22T21:17:16.644201Z",
    "country": "au",
    "parent": null,
    "longitude": 116.817001342773,
    "latitude": -35.0,
    "regions": []
  },
  {
    "code": "21ded",
    "name": "North Beach",
    "updated_at": "2014-09-22T21:17:16.585081Z",
    "country": "au",
    "parent": null,
    "longitude": 115.75,
    "latitude": -31.86669921875,
    "regions": []
  },
  {
    "code": "21dec",
    "name": "Pennyroyal",
    "updated_at": "2014-09-22T21:17:15.733618Z",
    "country": "au",
    "parent": null,
    "longitude": 143.850006103516,
    "latitude": -38.4166984558105,
    "regions": []
  },
  {
    "code": "21deb",
    "name": "Point Samson",
    "updated_at": "2014-09-22T21:17:15.454252Z",
    "country": "au",
    "parent": null,
    "longitude": 117.199996948242,
    "latitude": -20.63330078125,
    "regions": []
  },
  {
    "code": "21dea",
    "name": "Point Turton",
    "updated_at": "2014-09-22T21:17:15.429824Z",
    "country": "au",
    "parent": null,
    "longitude": 137.350006103516,
    "latitude": -34.9500007629395,
    "regions": []
  },
  {
    "code": "21de9",
    "name": "Port Noarlunga",
    "updated_at": "2014-09-22T21:17:14.862499Z",
    "country": "au",
    "parent": null,
    "longitude": 138.466995239258,
    "latitude": -35.1500015258789,
    "regions": []
  },
  {
    "code": "21de8",
    "name": "Quaama",
    "updated_at": "2014-09-22T21:17:14.626345Z",
    "country": "au",
    "parent": null,
    "longitude": 149.867004394531,
    "latitude": -36.4667015075684,
    "regions": []
  },
  {
    "code": "21de7",
    "name": "Red Rock",
    "updated_at": "2014-09-22T21:17:14.311041Z",
    "country": "au",
    "parent": null,
    "longitude": 153.216995239258,
    "latitude": -29.9832992553711,
    "regions": []
  },
  {
    "code": "21de6",
    "name": "Rhyll",
    "updated_at": "2014-09-22T21:17:14.245656Z",
    "country": "au",
    "parent": null,
    "longitude": 145.300003051758,
    "latitude": -38.4667015075684,
    "regions": []
  },
  {
    "code": "21de5",
    "name": "Rookhurst",
    "updated_at": "2014-09-22T21:17:14.022404Z",
    "country": "au",
    "parent": null,
    "longitude": 151.882995605469,
    "latitude": -31.88330078125,
    "regions": []
  },
  {
    "code": "21de4",
    "name": "Ropeley",
    "updated_at": "2014-09-22T21:17:13.987375Z",
    "country": "au",
    "parent": null,
    "longitude": 152.266998291016,
    "latitude": -27.6667003631592,
    "regions": []
  },
  {
    "code": "21de3",
    "name": "Sandford",
    "updated_at": "2014-09-22T21:17:13.601157Z",
    "country": "au",
    "parent": null,
    "longitude": 147.5,
    "latitude": -42.9333000183105,
    "regions": []
  },
  {
    "code": "21de2",
    "name": "Scotsburn",
    "updated_at": "2014-09-22T21:17:13.393497Z",
    "country": "au",
    "parent": null,
    "longitude": 143.932998657227,
    "latitude": -37.6666984558105,
    "regions": []
  },
  {
    "code": "21de1",
    "name": "Sellicks Hill",
    "updated_at": "2014-09-22T21:17:13.354987Z",
    "country": "au",
    "parent": null,
    "longitude": 138.466995239258,
    "latitude": -35.3333015441895,
    "regions": []
  },
  {
    "code": "21de0",
    "name": "Shorncliffe",
    "updated_at": "2014-09-22T21:17:13.163316Z",
    "country": "au",
    "parent": null,
    "longitude": 153.082992553711,
    "latitude": -27.3332996368408,
    "regions": []
  },
  {
    "code": "21ddf",
    "name": "Slacks Creek",
    "updated_at": "2014-09-22T21:17:13.112510Z",
    "country": "au",
    "parent": null,
    "longitude": 153.149993896484,
    "latitude": -27.6499996185303,
    "regions": []
  },
  {
    "code": "21dde",
    "name": "South Melbourne",
    "updated_at": "2014-09-22T21:17:12.980601Z",
    "country": "au",
    "parent": null,
    "longitude": 144.966995239258,
    "latitude": -37.8333015441895,
    "regions": []
  },
  {
    "code": "21ddd",
    "name": "Springton",
    "updated_at": "2014-09-22T21:17:12.813397Z",
    "country": "au",
    "parent": null,
    "longitude": 139.082992553711,
    "latitude": -34.7167015075684,
    "regions": []
  },
  {
    "code": "21ddc",
    "name": "Stirling",
    "updated_at": "2014-09-22T21:17:12.684724Z",
    "country": "au",
    "parent": null,
    "longitude": 138.716995239258,
    "latitude": -35.0,
    "regions": []
  },
  {
    "code": "21ddb",
    "name": "Strath Creek",
    "updated_at": "2014-09-22T21:17:12.568037Z",
    "country": "au",
    "parent": null,
    "longitude": 145.216995239258,
    "latitude": -37.2332992553711,
    "regions": []
  },
  {
    "code": "21dda",
    "name": "Talbot",
    "updated_at": "2014-09-22T21:17:12.326400Z",
    "country": "au",
    "parent": null,
    "longitude": 143.699996948242,
    "latitude": -37.1666984558105,
    "regions": []
  },
  {
    "code": "21dd9",
    "name": "Telegraph Point",
    "updated_at": "2014-09-22T21:17:12.086244Z",
    "country": "au",
    "parent": null,
    "longitude": 152.800003051758,
    "latitude": -31.3332996368408,
    "regions": []
  },
  {
    "code": "21dd8",
    "name": "Thulimbah",
    "updated_at": "2014-09-22T21:17:11.766018Z",
    "country": "au",
    "parent": null,
    "longitude": 151.949996948242,
    "latitude": -28.5499992370605,
    "regions": []
  },
  {
    "code": "21dd7",
    "name": "Tinamba",
    "updated_at": "2014-09-22T21:17:11.725672Z",
    "country": "au",
    "parent": null,
    "longitude": 146.882995605469,
    "latitude": -37.9667015075684,
    "regions": []
  },
  {
    "code": "21dd6",
    "name": "Toronto",
    "updated_at": "2014-09-22T21:17:11.551240Z",
    "country": "au",
    "parent": null,
    "longitude": 151.600006103516,
    "latitude": -33.0,
    "regions": []
  },
  {
    "code": "21dd5",
    "name": "Trigg Island",
    "updated_at": "2016-02-09T09:32:28.649913Z",
    "country": "au",
    "parent": null,
    "longitude": 115.75,
    "latitude": -31.86669921875,
    "regions": []
  },
  {
    "code": "21dd4",
    "name": "Tullamarine",
    "updated_at": "2014-09-22T21:17:11.323056Z",
    "country": "au",
    "parent": null,
    "longitude": 144.867004394531,
    "latitude": -37.7000007629395,
    "regions": []
  },
  {
    "code": "21dd3",
    "name": "Turkey Creek",
    "updated_at": "2014-09-22T21:17:11.228011Z",
    "country": "au",
    "parent": null,
    "longitude": 128.199996948242,
    "latitude": -17.0333003997803,
    "regions": []
  },
  {
    "code": "21dd2",
    "name": "Tuross Heads",
    "updated_at": "2014-09-22T21:17:11.191946Z",
    "country": "au",
    "parent": null,
    "longitude": 150.132995605469,
    "latitude": -36.0666999816895,
    "regions": []
  },
  {
    "code": "21dd1",
    "name": "Walkerville",
    "updated_at": "2014-09-22T21:17:10.760782Z",
    "country": "au",
    "parent": null,
    "longitude": 146.0,
    "latitude": -38.86669921875,
    "regions": []
  },
  {
    "code": "21dd0",
    "name": "Walpole",
    "updated_at": "2014-09-22T21:17:10.684578Z",
    "country": "au",
    "parent": null,
    "longitude": 116.733001708984,
    "latitude": -34.9500007629395,
    "regions": []
  },
  {
    "code": "21dcf",
    "name": "Wandering",
    "updated_at": "2014-09-22T21:17:10.647234Z",
    "country": "au",
    "parent": null,
    "longitude": 116.666999816895,
    "latitude": -32.6833000183105,
    "regions": []
  },
  {
    "code": "21dce",
    "name": "Warren",
    "updated_at": "2014-09-22T21:17:10.418094Z",
    "country": "au",
    "parent": null,
    "longitude": 147.817001342773,
    "latitude": -31.7000007629395,
    "regions": []
  },
  {
    "code": "21dcd",
    "name": "Wattle Hill",
    "updated_at": "2014-09-22T21:17:10.362720Z",
    "country": "au",
    "parent": null,
    "longitude": 143.25,
    "latitude": -38.7832984924316,
    "regions": []
  },
  {
    "code": "21dcc",
    "name": "Wentworth",
    "updated_at": "2014-09-22T21:17:10.252768Z",
    "country": "au",
    "parent": null,
    "longitude": 141.917007446289,
    "latitude": -34.11669921875,
    "regions": []
  },
  {
    "code": "21dcb",
    "name": "Wiangaree",
    "updated_at": "2014-09-22T21:17:10.067638Z",
    "country": "au",
    "parent": null,
    "longitude": 152.966995239258,
    "latitude": -28.5167007446289,
    "regions": []
  },
  {
    "code": "21dca",
    "name": "Woodanilling",
    "updated_at": "2014-09-22T21:17:09.737515Z",
    "country": "au",
    "parent": null,
    "longitude": 117.432998657227,
    "latitude": -33.5666999816895,
    "regions": []
  },
  {
    "code": "21dc9",
    "name": "Woodgate",
    "updated_at": "2014-09-22T21:17:09.661017Z",
    "country": "au",
    "parent": null,
    "longitude": 152.550003051758,
    "latitude": -25.1000003814697,
    "regions": []
  },
  {
    "code": "21dc8",
    "name": "Wye River",
    "updated_at": "2014-09-22T21:17:09.421467Z",
    "country": "au",
    "parent": null,
    "longitude": 143.882995605469,
    "latitude": -38.63330078125,
    "regions": []
  },
  {
    "code": "21dc7",
    "name": "Wyndham",
    "updated_at": "2014-09-22T21:17:09.397705Z",
    "country": "au",
    "parent": null,
    "longitude": 128.100006103516,
    "latitude": -15.4666996002197,
    "regions": []
  },
  {
    "code": "21dc6",
    "name": "Acatzingo de Hidalgo",
    "updated_at": "2014-09-22T21:17:08.849234Z",
    "country": "mx",
    "parent": null,
    "longitude": -97.7833023071289,
    "latitude": 18.9832992553711,
    "regions": []
  },
  {
    "code": "21dc5",
    "name": "Acayucan",
    "updated_at": "2014-09-22T21:17:08.833101Z",
    "country": "mx",
    "parent": null,
    "longitude": -94.9167022705078,
    "latitude": 17.9500007629395,
    "regions": []
  },
  {
    "code": "21dc4",
    "name": "Ahuacatlán",
    "updated_at": "2014-09-22T21:17:08.666553Z",
    "country": "mx",
    "parent": null,
    "longitude": -104.483001708984,
    "latitude": 21.0499992370605,
    "regions": []
  },
  {
    "code": "21dc3",
    "name": "Anenecuilco",
    "updated_at": "2014-09-22T21:17:08.451313Z",
    "country": "mx",
    "parent": null,
    "longitude": -98.9832992553711,
    "latitude": 18.7667007446289,
    "regions": []
  },
  {
    "code": "21dc2",
    "name": "Buenavista",
    "updated_at": "2014-09-22T21:17:07.829031Z",
    "country": "mx",
    "parent": null,
    "longitude": -100.467002868652,
    "latitude": 20.8166999816895,
    "regions": []
  },
  {
    "code": "21dc1",
    "name": "Cacahoatán",
    "updated_at": "2014-09-22T21:17:07.741515Z",
    "country": "mx",
    "parent": null,
    "longitude": -92.1667022705078,
    "latitude": 14.9833002090454,
    "regions": []
  },
  {
    "code": "21dc0",
    "name": "Calderón",
    "updated_at": "2014-09-22T21:17:07.655688Z",
    "country": "mx",
    "parent": null,
    "longitude": -100.782997131348,
    "latitude": 20.8500003814697,
    "regions": []
  },
  {
    "code": "21dbf",
    "name": "Caños de Santa Rita",
    "updated_at": "2014-09-22T21:17:07.518316Z",
    "country": "mx",
    "parent": null,
    "longitude": -96.2667007446289,
    "latitude": 19.1833000183105,
    "regions": []
  },
  {
    "code": "21dbe",
    "name": "Chamela",
    "updated_at": "2014-09-22T21:17:07.274497Z",
    "country": "mx",
    "parent": null,
    "longitude": -105.083000183105,
    "latitude": 19.5333003997803,
    "regions": []
  },
  {
    "code": "21dbd",
    "name": "Cheuman",
    "updated_at": "2014-09-22T21:17:07.113674Z",
    "country": "mx",
    "parent": null,
    "longitude": -89.7166976928711,
    "latitude": 21.0666999816895,
    "regions": []
  },
  {
    "code": "21dbc",
    "name": "Ciudad Constitución",
    "updated_at": "2014-09-22T21:17:03.792682Z",
    "country": "mx",
    "parent": null,
    "longitude": -111.664001464844,
    "latitude": 25.0368995666504,
    "regions": []
  },
  {
    "code": "21dbb",
    "name": "Ciudad Granja",
    "updated_at": "2014-09-22T21:17:03.700377Z",
    "country": "mx",
    "parent": null,
    "longitude": -103.432998657227,
    "latitude": 20.6833000183105,
    "regions": []
  },
  {
    "code": "21dba",
    "name": "Colón",
    "updated_at": "2014-09-22T21:17:03.410628Z",
    "country": "mx",
    "parent": null,
    "longitude": -100.050003051758,
    "latitude": 20.7999992370605,
    "regions": []
  },
  {
    "code": "21db9",
    "name": "Concepción de Buenos Aires",
    "updated_at": "2014-09-22T21:17:03.255113Z",
    "country": "mx",
    "parent": null,
    "longitude": -103.266998291016,
    "latitude": 19.9666996002197,
    "regions": []
  },
  {
    "code": "21db8",
    "name": "Coscomatepec de Bravo",
    "updated_at": "2014-09-22T21:17:03.180038Z",
    "country": "mx",
    "parent": null,
    "longitude": -97.0333023071289,
    "latitude": 19.0666999816895,
    "regions": []
  },
  {
    "code": "21db7",
    "name": "Cuajimalpa",
    "updated_at": "2014-09-22T21:17:03.059577Z",
    "country": "mx",
    "parent": null,
    "longitude": -99.3011016845703,
    "latitude": 19.3558006286621,
    "regions": []
  },
  {
    "code": "21db6",
    "name": "Cuautlancingo",
    "updated_at": "2014-09-22T21:17:02.901936Z",
    "country": "mx",
    "parent": null,
    "longitude": -98.2667007446289,
    "latitude": 19.0832996368408,
    "regions": []
  },
  {
    "code": "21db5",
    "name": "El Carmen",
    "updated_at": "2014-09-22T21:17:02.585146Z",
    "country": "mx",
    "parent": null,
    "longitude": -96.7166976928711,
    "latitude": 16.9832992553711,
    "regions": []
  },
  {
    "code": "21db4",
    "name": "El Coyote",
    "updated_at": "2014-09-22T21:17:02.537949Z",
    "country": "mx",
    "parent": null,
    "longitude": -100.182998657227,
    "latitude": 20.5666999816895,
    "regions": []
  },
  {
    "code": "21db3",
    "name": "El Mante",
    "updated_at": "2014-09-22T21:17:02.378351Z",
    "country": "mx",
    "parent": null,
    "longitude": -98.9666976928711,
    "latitude": 22.7332992553711,
    "regions": []
  },
  {
    "code": "21db2",
    "name": "El Naranjo",
    "updated_at": "2014-09-22T21:17:02.327073Z",
    "country": "mx",
    "parent": null,
    "longitude": -92.25,
    "latitude": 15.1167001724243,
    "regions": []
  },
  {
    "code": "21db1",
    "name": "El Placer",
    "updated_at": "2014-09-22T21:17:02.257456Z",
    "country": "mx",
    "parent": null,
    "longitude": -87.5999984741211,
    "latitude": 19.0,
    "regions": []
  },
  {
    "code": "21db0",
    "name": "El Suazal",
    "updated_at": "2014-09-22T21:17:02.167625Z",
    "country": "mx",
    "parent": null,
    "longitude": -116.682998657227,
    "latitude": 31.8999996185303,
    "regions": []
  },
  {
    "code": "21daf",
    "name": "Gallinero",
    "updated_at": "2014-09-22T21:17:01.944908Z",
    "country": "mx",
    "parent": null,
    "longitude": -99.7332992553711,
    "latitude": 16.8166999816895,
    "regions": []
  },
  {
    "code": "21dae",
    "name": "Gordo",
    "updated_at": "2014-09-22T21:17:01.847789Z",
    "country": "mx",
    "parent": null,
    "longitude": -99.0500030517578,
    "latitude": 19.5666999816895,
    "regions": []
  },
  {
    "code": "21dad",
    "name": "Gutiérrez Zamora",
    "updated_at": "2014-09-22T21:17:01.722568Z",
    "country": "mx",
    "parent": null,
    "longitude": -97.0832977294922,
    "latitude": 20.4500007629395,
    "regions": []
  },
  {
    "code": "21dac",
    "name": "Zitácuaro",
    "updated_at": "2014-09-22T21:17:01.636278Z",
    "country": "mx",
    "parent": null,
    "longitude": -100.366996765137,
    "latitude": 19.3999996185303,
    "regions": []
  },
  {
    "code": "21dab",
    "name": "Hidalgo del Parral",
    "updated_at": "2014-09-22T21:17:01.615518Z",
    "country": "mx",
    "parent": null,
    "longitude": -105.666999816895,
    "latitude": 26.9333000183105,
    "regions": []
  },
  {
    "code": "21daa",
    "name": "Huejutla de Reyes",
    "updated_at": "2014-09-22T21:17:01.379080Z",
    "country": "mx",
    "parent": null,
    "longitude": -98.4167022705078,
    "latitude": 21.13330078125,
    "regions": []
  },
  {
    "code": "21da9",
    "name": "Ixtlán del Río",
    "updated_at": "2014-09-22T21:17:01.127311Z",
    "country": "mx",
    "parent": null,
    "longitude": -104.366996765137,
    "latitude": 21.0333003997803,
    "regions": []
  },
  {
    "code": "21da8",
    "name": "Jiquilpan de Juárez",
    "updated_at": "2014-09-22T21:17:00.954552Z",
    "country": "mx",
    "parent": null,
    "longitude": -102.717002868652,
    "latitude": 19.9832992553711,
    "regions": []
  },
  {
    "code": "21da7",
    "name": "Jojutla",
    "updated_at": "2014-09-22T21:17:00.845596Z",
    "country": "mx",
    "parent": null,
    "longitude": -99.1832962036133,
    "latitude": 18.61669921875,
    "regions": []
  },
  {
    "code": "21da6",
    "name": "Juárez",
    "updated_at": "2014-09-22T21:17:00.764158Z",
    "country": "mx",
    "parent": null,
    "longitude": -100.083000183105,
    "latitude": 25.6499996185303,
    "regions": []
  },
  {
    "code": "21da5",
    "name": "Jusché",
    "updated_at": "2014-09-22T21:17:00.705759Z",
    "country": "mx",
    "parent": null,
    "longitude": -89.3167037963867,
    "latitude": 20.9666996002197,
    "regions": []
  },
  {
    "code": "21da4",
    "name": "La Garita",
    "updated_at": "2014-09-22T21:17:00.490156Z",
    "country": "mx",
    "parent": null,
    "longitude": -103.116996765137,
    "latitude": 19.75,
    "regions": []
  },
  {
    "code": "21da3",
    "name": "Lagunillas",
    "updated_at": "2014-09-22T21:17:00.431862Z",
    "country": "mx",
    "parent": null,
    "longitude": -101.733001708984,
    "latitude": 17.8332996368408,
    "regions": []
  },
  {
    "code": "21da2",
    "name": "La Noria",
    "updated_at": "2014-09-22T21:17:00.283659Z",
    "country": "mx",
    "parent": null,
    "longitude": -100.782997131348,
    "latitude": 20.3332996368408,
    "regions": []
  },
  {
    "code": "21da1",
    "name": "Lerma",
    "updated_at": "2014-09-22T21:17:00.023069Z",
    "country": "mx",
    "parent": null,
    "longitude": -90.5999984741211,
    "latitude": 19.7999992370605,
    "regions": []
  },
  {
    "code": "21da0",
    "name": "Lo de Marcos",
    "updated_at": "2014-09-22T21:16:59.968441Z",
    "country": "mx",
    "parent": null,
    "longitude": -105.349998474121,
    "latitude": 20.9500007629395,
    "regions": []
  },
  {
    "code": "21d9f",
    "name": "Los Ángeles Tetela",
    "updated_at": "2014-09-22T21:16:59.913849Z",
    "country": "mx",
    "parent": null,
    "longitude": -98.1667022705078,
    "latitude": 18.8999996185303,
    "regions": []
  },
  {
    "code": "21d9e",
    "name": "Los Lirios",
    "updated_at": "2014-09-22T21:16:59.804656Z",
    "country": "mx",
    "parent": null,
    "longitude": -100.633003234863,
    "latitude": 25.36669921875,
    "regions": []
  },
  {
    "code": "21d9d",
    "name": "Magdalena de Kino",
    "updated_at": "2014-09-22T21:16:59.674077Z",
    "country": "mx",
    "parent": null,
    "longitude": -110.949996948242,
    "latitude": 30.63330078125,
    "regions": []
  },
  {
    "code": "21d9c",
    "name": "Matehuala",
    "updated_at": "2014-09-22T21:16:59.416568Z",
    "country": "mx",
    "parent": null,
    "longitude": -100.650001525879,
    "latitude": 23.6499996185303,
    "regions": []
  },
  {
    "code": "21d9b",
    "name": "Metepec",
    "updated_at": "2014-09-22T21:16:59.210414Z",
    "country": "mx",
    "parent": null,
    "longitude": -99.6078033447266,
    "latitude": 19.2535991668701,
    "regions": []
  },
  {
    "code": "21d9a",
    "name": "Milpa Alta",
    "updated_at": "2014-09-22T21:16:59.141514Z",
    "country": "mx",
    "parent": null,
    "longitude": -99.0235977172852,
    "latitude": 19.1919002532959,
    "regions": []
  },
  {
    "code": "21d99",
    "name": "La Misión",
    "updated_at": "2014-09-22T21:16:58.959323Z",
    "country": "mx",
    "parent": null,
    "longitude": -116.859001159668,
    "latitude": 32.0928001403809,
    "regions": []
  },
  {
    "code": "21d98",
    "name": "Nanacamilpa",
    "updated_at": "2014-09-22T21:16:58.811783Z",
    "country": "mx",
    "parent": null,
    "longitude": -98.5500030517578,
    "latitude": 19.4832992553711,
    "regions": []
  },
  {
    "code": "21d97",
    "name": "Ocotlán",
    "updated_at": "2014-09-22T21:16:58.579224Z",
    "country": "mx",
    "parent": null,
    "longitude": -102.766998291016,
    "latitude": 20.3500003814697,
    "regions": []
  },
  {
    "code": "21d96",
    "name": "Ocoyoacac",
    "updated_at": "2014-09-22T21:16:58.552408Z",
    "country": "mx",
    "parent": null,
    "longitude": -99.4589004516602,
    "latitude": 19.271900177002,
    "regions": []
  },
  {
    "code": "21d95",
    "name": "Ocozocuautla",
    "updated_at": "2014-09-22T21:16:58.520673Z",
    "country": "mx",
    "parent": null,
    "longitude": -93.36669921875,
    "latitude": 16.7667007446289,
    "regions": []
  },
  {
    "code": "21d94",
    "name": "Villa de Ojinaga",
    "updated_at": "2014-09-22T21:16:58.437098Z",
    "country": "mx",
    "parent": null,
    "longitude": -104.416999816895,
    "latitude": 29.5666999816895,
    "regions": []
  },
  {
    "code": "21d93",
    "name": "Oriental",
    "updated_at": "2014-09-22T21:16:58.402768Z",
    "country": "mx",
    "parent": null,
    "longitude": -97.61669921875,
    "latitude": 19.36669921875,
    "regions": []
  },
  {
    "code": "21d92",
    "name": "Paraiso",
    "updated_at": "2014-09-22T21:16:58.145632Z",
    "country": "mx",
    "parent": null,
    "longitude": -88.4832992553711,
    "latitude": 18.9832992553711,
    "regions": []
  },
  {
    "code": "21d91",
    "name": "Parras de la Fuente",
    "updated_at": "2014-09-22T21:16:58.128518Z",
    "country": "mx",
    "parent": null,
    "longitude": -102.182998657227,
    "latitude": 25.4167003631592,
    "regions": []
  },
  {
    "code": "21d90",
    "name": "Perote",
    "updated_at": "2014-09-22T21:16:57.995254Z",
    "country": "mx",
    "parent": null,
    "longitude": -97.2332992553711,
    "latitude": 19.5666999816895,
    "regions": []
  },