[
  {
    "code": "16b8d",
    "name": "Île-Tudy",
    "updated_at": "2014-09-22T21:21:15.768233Z",
    "country": "fr",
    "parent": null,
    "longitude": -4.16666984558105,
    "latitude": 47.8333015441895,
    "regions": [
      "106d"
    ]
  },
  {
    "code": "16b8c",
    "name": "Ille-sur-Têt",
    "updated_at": "2014-09-22T21:21:15.750433Z",
    "country": "fr",
    "parent": null,
    "longitude": 2.61666989326477,
    "latitude": 42.6666984558105,
    "regions": [
      "1072"
    ]
  },
  {
    "code": "16b8b",
    "name": "Illfurth",
    "updated_at": "2014-09-22T21:21:15.732617Z",
    "country": "fr",
    "parent": null,
    "longitude": 7.26667022705078,
    "latitude": 47.6666984558105,
    "regions": [
      "106a"
    ]
  },
  {
    "code": "16b8a",
    "name": "Illhaeusern",
    "updated_at": "2014-09-22T21:21:15.715144Z",
    "country": "fr",
    "parent": null,
    "longitude": 7.43333005905151,
    "latitude": 48.1833000183105,
    "regions": [
      "106a"
    ]
  },
  {
    "code": "16b89",
    "name": "Illiers",
    "updated_at": "2014-09-22T21:21:15.695403Z",
    "country": "fr",
    "parent": null,
    "longitude": 1.25,
    "latitude": 48.2999992370605,
    "regions": [
      "106f"
    ]
  },
  {
    "code": "16b88",
    "name": "Illifaut",
    "updated_at": "2014-09-22T21:21:15.677181Z",
    "country": "fr",
    "parent": null,
    "longitude": -2.34999990463257,
    "latitude": 48.1500015258789,
    "regions": [
      "106d"
    ]
  },
  {
    "code": "16b87",
    "name": "Illkirch-Graffenstaden",
    "updated_at": "2014-09-22T21:21:15.658688Z",
    "country": "fr",
    "parent": null,
    "longitude": 7.71667003631592,
    "latitude": 48.5332984924316,
    "regions": [
      "106a"
    ]
  },
  {
    "code": "16b86",
    "name": "Illzach",
    "updated_at": "2014-09-22T21:21:15.637629Z",
    "country": "fr",
    "parent": null,
    "longitude": 7.33333015441895,
    "latitude": 47.7832984924316,
    "regions": [
      "106a"
    ]
  },
  {
    "code": "16b85",
    "name": "Imbsheim",
    "updated_at": "2014-09-22T21:21:15.612083Z",
    "country": "fr",
    "parent": null,
    "longitude": 7.44999980926514,
    "latitude": 48.7999992370605,
    "regions": [
      "106a"
    ]
  },
  {
    "code": "16b84",
    "name": "Ingersheim",
    "updated_at": "2014-09-22T21:21:15.589124Z",
    "country": "fr",
    "parent": null,
    "longitude": 7.30000019073486,
    "latitude": 48.0999984741211,
    "regions": [
      "106a"
    ]
  },
  {
    "code": "16b83",
    "name": "Ingouville",
    "updated_at": "2014-09-22T21:21:15.562729Z",
    "country": "fr",
    "parent": null,
    "longitude": 0.683332979679108,
    "latitude": 49.8333015441895,
    "regions": [
      "1335"
    ]
  },
  {
    "code": "16b82",
    "name": "Ingrandes",
    "updated_at": "2014-09-22T21:21:15.534478Z",
    "country": "fr",
    "parent": null,
    "longitude": 0.966666996479034,
    "latitude": 46.5999984741211,
    "regions": [
      "106f"
    ]
  },
  {
    "code": "16b81",
    "name": "Ingwiller",
    "updated_at": "2014-09-22T21:21:15.506501Z",
    "country": "fr",
    "parent": null,
    "longitude": 7.48332977294922,
    "latitude": 48.86669921875,
    "regions": [
      "106a"
    ]
  },
  {
    "code": "16b80",
    "name": "Innenheim",
    "updated_at": "2014-09-22T21:21:15.479765Z",
    "country": "fr",
    "parent": null,
    "longitude": 7.56666994094849,
    "latitude": 48.5,
    "regions": [
      "106a"
    ]
  },
  {
    "code": "16b7f",
    "name": "Inor",
    "updated_at": "2014-09-22T21:21:15.460558Z",
    "country": "fr",
    "parent": null,
    "longitude": 5.15000009536743,
    "latitude": 49.5499992370605,
    "regions": [
      "1074"
    ]
  },
  {
    "code": "16b7e",
    "name": "Irigny",
    "updated_at": "2014-09-22T21:21:15.442654Z",
    "country": "fr",
    "parent": null,
    "longitude": 4.81666994094849,
    "latitude": 45.6666984558105,
    "regions": [
      "107a"
    ]
  },
  {
    "code": "16b7d",
    "name": "Irissarry",
    "updated_at": "2014-09-22T21:21:15.424703Z",
    "country": "fr",
    "parent": null,
    "longitude": -1.2333300113678,
    "latitude": 43.2667007446289,
    "regions": [
      "106b"
    ]
  },
  {
    "code": "16b7c",
    "name": "Irmstett",
    "updated_at": "2016-02-09T09:32:32.370085Z",
    "country": "fr",
    "parent": null,
    "longitude": 7.48332977294922,
    "latitude": 48.5833015441895,
    "regions": [
      "106a"
    ]
  },
  {
    "code": "16b7b",
    "name": "Isenay",
    "updated_at": "2014-09-22T21:21:15.387936Z",
    "country": "fr",
    "parent": null,
    "longitude": 3.70000004768372,
    "latitude": 46.9000015258789,
    "regions": [
      "106e"
    ]
  },
  {
    "code": "16b7a",
    "name": "Isigny-le-Buat",
    "updated_at": "2014-09-22T21:21:15.370893Z",
    "country": "fr",
    "parent": null,
    "longitude": -1.16666996479034,
    "latitude": 48.61669921875,
    "regions": [
      "1334"
    ]
  },
  {
    "code": "16b79",
    "name": "Isigny-sur-Mer",
    "updated_at": "2014-09-22T21:21:15.351272Z",
    "country": "fr",
    "parent": null,
    "longitude": -1.10000002384186,
    "latitude": 49.3166999816895,
    "regions": [
      "1334"
    ]
  },
  {
    "code": "16b78",
    "name": "Isle",
    "updated_at": "2014-09-22T21:21:15.331370Z",
    "country": "fr",
    "parent": null,
    "longitude": 1.21667003631592,
    "latitude": 45.8166999816895,
    "regions": [
      "1073"
    ]
  },
  {
    "code": "16b77",
    "name": "Isle-Aumont",
    "updated_at": "2014-09-22T21:21:15.308225Z",
    "country": "fr",
    "parent": null,
    "longitude": 4.13332986831665,
    "latitude": 48.2167015075684,
    "regions": [
      "1070"
    ]
  },
  {
    "code": "16b76",
    "name": "Isle-et-Bardais",
    "updated_at": "2014-09-22T21:21:15.282470Z",
    "country": "fr",
    "parent": null,
    "longitude": 2.79999995231628,
    "latitude": 46.6833000183105,
    "regions": [
      "106c"
    ]
  },
  {
    "code": "16b75",
    "name": "Isles-lès-Villenoy",
    "updated_at": "2014-09-22T21:21:15.255702Z",
    "country": "fr",
    "parent": null,
    "longitude": 2.83332991600037,
    "latitude": 48.9166984558105,
    "regions": [
      "116b"
    ]
  },
  {
    "code": "16b74",
    "name": "Isles-sur-Suippe",
    "updated_at": "2014-09-22T21:21:15.228746Z",
    "country": "fr",
    "parent": null,
    "longitude": 4.19999980926514,
    "latitude": 49.3499984741211,
    "regions": [
      "1070"
    ]
  },
  {
    "code": "16b73",
    "name": "Isneauville",
    "updated_at": "2014-09-22T21:21:15.179082Z",
    "country": "fr",
    "parent": null,
    "longitude": 1.14999997615814,
    "latitude": 49.5,
    "regions": [
      "1335"
    ]
  },
  {
    "code": "16b72",
    "name": "Isola",
    "updated_at": "2014-09-22T21:21:15.162765Z",
    "country": "fr",
    "parent": null,
    "longitude": 7.05000019073486,
    "latitude": 44.1833000183105,
    "regions": [
      "1079"
    ]
  },
  {
    "code": "16b71",
    "name": "Ispagnac",
    "updated_at": "2014-09-22T21:21:15.146105Z",
    "country": "fr",
    "parent": null,
    "longitude": 3.53332996368408,
    "latitude": 44.36669921875,
    "regions": [
      "1072"
    ]
  },
  {
    "code": "16b70",
    "name": "Ispoure",
    "updated_at": "2014-09-22T21:21:15.129412Z",
    "country": "fr",
    "parent": null,
    "longitude": -1.2333300113678,
    "latitude": 43.1666984558105,
    "regions": [
      "106b"
    ]
  },
  {
    "code": "16b6f",
    "name": "Issel",
    "updated_at": "2014-09-22T21:21:15.113167Z",
    "country": "fr",
    "parent": null,
    "longitude": 1.9833300113678,
    "latitude": 43.36669921875,
    "regions": [
      "1072"
    ]
  },
  {
    "code": "16b6e",
    "name": "Issendolus",
    "updated_at": "2014-09-22T21:21:15.096859Z",
    "country": "fr",
    "parent": null,
    "longitude": 1.79999995231628,
    "latitude": 44.7332992553711,
    "regions": [
      "1075"
    ]
  },
  {
    "code": "16b6d",
    "name": "Issenheim",
    "updated_at": "2014-09-22T21:21:15.080459Z",
    "country": "fr",
    "parent": null,
    "longitude": 7.26667022705078,
    "latitude": 47.9000015258789,
    "regions": [
      "106a"
    ]
  },
  {
    "code": "16b6c",
    "name": "Isserpent",
    "updated_at": "2014-09-22T21:21:15.063048Z",
    "country": "fr",
    "parent": null,
    "longitude": 3.61666989326477,
    "latitude": 46.1500015258789,
    "regions": [
      "106c"
    ]
  },
  {
    "code": "16b6b",
    "name": "Issigeac",
    "updated_at": "2014-09-22T21:21:15.046756Z",
    "country": "fr",
    "parent": null,
    "longitude": 0.600000023841858,
    "latitude": 44.7332992553711,
    "regions": [
      "106b"
    ]
  },
  {
    "code": "16b6a",
    "name": "Issoire",
    "updated_at": "2014-09-22T21:21:15.030424Z",
    "country": "fr",
    "parent": null,
    "longitude": 3.25,
    "latitude": 45.5499992370605,
    "regions": [
      "106c"
    ]
  },
  {
    "code": "16b69",
    "name": "Issoncourt",
    "updated_at": "2014-09-22T21:21:15.012915Z",
    "country": "fr",
    "parent": null,
    "longitude": 5.28332996368408,
    "latitude": 48.9667015075684,
    "regions": []
  },
  {
    "code": "16b68",
    "name": "Issor",
    "updated_at": "2014-09-22T21:21:14.994053Z",
    "country": "fr",
    "parent": null,
    "longitude": -0.666666984558105,
    "latitude": 43.0999984741211,
    "regions": [
      "106b"
    ]
  },
  {
    "code": "16b67",
    "name": "Issoudun",
    "updated_at": "2014-09-22T21:21:14.972875Z",
    "country": "fr",
    "parent": null,
    "longitude": 2.0,
    "latitude": 46.9500007629395,
    "regions": [
      "106f"
    ]
  },
  {
    "code": "16b66",
    "name": "Is-sur-Tille",
    "updated_at": "2014-09-22T21:21:14.954401Z",
    "country": "fr",
    "parent": null,
    "longitude": 5.09999990463257,
    "latitude": 47.5167007446289,
    "regions": [
      "106e"
    ]
  },
  {
    "code": "16b65",
    "name": "Issus",
    "updated_at": "2014-09-22T21:21:14.935773Z",
    "country": "fr",
    "parent": null,
    "longitude": 1.5,
    "latitude": 43.4166984558105,
    "regions": [
      "1075"
    ]
  },
  {
    "code": "16b64",
    "name": "Issy-les-Moulineaux",
    "updated_at": "2014-09-22T21:21:14.913082Z",
    "country": "fr",
    "parent": null,
    "longitude": 2.2666699886322,
    "latitude": 48.8166999816895,
    "regions": [
      "116b"
    ]
  },
  {
    "code": "16b63",
    "name": "Istres",
    "updated_at": "2014-09-22T21:21:14.891918Z",
    "country": "fr",
    "parent": null,
    "longitude": 4.98332977294922,
    "latitude": 43.5167007446289,
    "regions": [
      "1079"
    ]
  },
  {
    "code": "16b62",
    "name": "Itterswiller",
    "updated_at": "2014-09-22T21:21:14.870459Z",
    "country": "fr",
    "parent": null,
    "longitude": 7.41666984558105,
    "latitude": 48.3499984741211,
    "regions": [
      "106a"
    ]
  },
  {
    "code": "16b61",
    "name": "Itteville",
    "updated_at": "2014-09-22T21:21:14.847991Z",
    "country": "fr",
    "parent": null,
    "longitude": 2.33332991600037,
    "latitude": 48.5167007446289,
    "regions": [
      "116b"
    ]
  },
  {
    "code": "16b60",
    "name": "Ittlenheim",
    "updated_at": "2014-09-22T21:21:14.827241Z",
    "country": "fr",
    "parent": null,
    "longitude": 7.55000019073486,
    "latitude": 48.6666984558105,
    "regions": [
      "106a"
    ]
  },
  {
    "code": "16b5f",
    "name": "Itxassou",
    "updated_at": "2014-09-22T21:21:14.810909Z",
    "country": "fr",
    "parent": null,
    "longitude": -1.39999997615814,
    "latitude": 43.3166999816895,
    "regions": [
      "106b"
    ]
  },
  {
    "code": "16b5e",
    "name": "Ivry-le-Temple",
    "updated_at": "2014-09-22T21:21:14.794477Z",
    "country": "fr",
    "parent": null,
    "longitude": 2.03332996368408,
    "latitude": 49.2332992553711,
    "regions": [
      "1078"
    ]
  },
  {
    "code": "16b5d",
    "name": "Ivry-sur-Seine",
    "updated_at": "2014-09-22T21:21:14.777705Z",
    "country": "fr",
    "parent": null,
    "longitude": 2.38333010673523,
    "latitude": 48.8166999816895,
    "regions": [
      "116b"
    ]
  },
  {
    "code": "16b5c",
    "name": "Izeaux",
    "updated_at": "2014-09-22T21:21:14.760160Z",
    "country": "fr",
    "parent": null,
    "longitude": 5.41666984558105,
    "latitude": 45.3333015441895,
    "regions": [
      "107a"
    ]
  },
  {
    "code": "16b5b",
    "name": "Jaligny",
    "updated_at": "2014-09-22T21:21:14.743707Z",
    "country": "fr",
    "parent": null,
    "longitude": 3.58332991600037,
    "latitude": 46.38330078125,
    "regions": [
      "106c"
    ]
  },
  {
    "code": "16b5a",
    "name": "Jâlons",
    "updated_at": "2014-09-22T21:21:14.727349Z",
    "country": "fr",
    "parent": null,
    "longitude": 4.18333005905151,
    "latitude": 49.0,
    "regions": [
      "1070"
    ]
  },
  {
    "code": "16b59",
    "name": "Jans",
    "updated_at": "2014-09-22T21:21:14.709219Z",
    "country": "fr",
    "parent": null,
    "longitude": -1.61667001247406,
    "latitude": 47.61669921875,
    "regions": [
      "1077"
    ]
  },
  {
    "code": "16b58",
    "name": "Janzé",
    "updated_at": "2014-09-22T21:21:14.692774Z",
    "country": "fr",
    "parent": null,
    "longitude": -1.5,
    "latitude": 47.9667015075684,
    "regions": [
      "106d"
    ]
  },
  {
    "code": "16b57",
    "name": "Jard-sur-Mer",
    "updated_at": "2014-09-22T21:21:14.676371Z",
    "country": "fr",
    "parent": null,
    "longitude": -1.58333003520966,
    "latitude": 46.4166984558105,
    "regions": [
      "1077"
    ]
  },
  {
    "code": "16b56",
    "name": "Jargeau",
    "updated_at": "2014-09-22T21:21:14.658553Z",
    "country": "fr",
    "parent": null,
    "longitude": 2.11666989326477,
    "latitude": 47.86669921875,
    "regions": [
      "106f"
    ]
  },
  {
    "code": "16b55",
    "name": "Jarjayes",
    "updated_at": "2014-09-22T21:21:14.639676Z",
    "country": "fr",
    "parent": null,
    "longitude": 6.11667013168335,
    "latitude": 44.5,
    "regions": [
      "1079"
    ]
  },
  {
    "code": "16b54",
    "name": "Jarnac",
    "updated_at": "2014-09-22T21:21:14.620670Z",
    "country": "fr",
    "parent": null,
    "longitude": -0.166666999459267,
    "latitude": 45.6833000183105,
    "regions": [
      "1232"
    ]
  },
  {
    "code": "16b53",
    "name": "Jarnac-Champagne",
    "updated_at": "2014-09-22T21:21:14.601548Z",
    "country": "fr",
    "parent": null,
    "longitude": -0.400000005960464,
    "latitude": 45.5666999816895,
    "regions": [
      "1232"
    ]
  },
  {
    "code": "16b52",
    "name": "Jarnioux",
    "updated_at": "2014-09-22T21:21:14.585110Z",
    "country": "fr",
    "parent": null,
    "longitude": 4.63332986831665,
    "latitude": 45.9667015075684,
    "regions": [
      "107a"
    ]
  },
  {
    "code": "16b51",
    "name": "Jars",
    "updated_at": "2014-09-22T21:21:14.564276Z",
    "country": "fr",
    "parent": null,
    "longitude": 2.68333005905151,
    "latitude": 47.4000015258789,
    "regions": [
      "106f"
    ]
  },
  {
    "code": "16b50",
    "name": "Jarsy",
    "updated_at": "2014-09-22T21:21:14.537382Z",
    "country": "fr",
    "parent": null,
    "longitude": 6.18333005905151,
    "latitude": 45.6500015258789,
    "regions": [
      "107a"
    ]
  },
  {
    "code": "16b4f",
    "name": "Jarzé",
    "updated_at": "2014-09-22T21:21:14.512528Z",
    "country": "fr",
    "parent": null,
    "longitude": -0.233333006501198,
    "latitude": 47.5499992370605,
    "regions": [
      "1077"
    ]
  },
  {
    "code": "16b4e",
    "name": "Jas",
    "updated_at": "2014-09-22T21:21:14.491678Z",
    "country": "fr",
    "parent": null,
    "longitude": 4.31666994094849,
    "latitude": 45.75,
    "regions": []
  },
  {
    "code": "16b4d",
    "name": "Jasseron",
    "updated_at": "2014-09-22T21:21:14.470555Z",
    "country": "fr",
    "parent": null,
    "longitude": 5.33333015441895,
    "latitude": 46.2167015075684,
    "regions": []
  },
  {
    "code": "16b4c",
    "name": "Jau-Dignac-et-Loirac",
    "updated_at": "2014-09-22T21:21:14.454230Z",
    "country": "fr",
    "parent": null,
    "longitude": -0.966666996479034,
    "latitude": 45.4166984558105,
    "regions": [
      "106b"
    ]
  },
  {
    "code": "16b4b",
    "name": "Jauldes",
    "updated_at": "2014-09-22T21:21:14.437473Z",
    "country": "fr",
    "parent": null,
    "longitude": 0.266667008399963,
    "latitude": 45.7832984924316,
    "regions": [
      "1232"
    ]
  },
  {
    "code": "16b4a",
    "name": "Jaulny",
    "updated_at": "2014-09-22T21:21:14.421161Z",
    "country": "fr",
    "parent": null,
    "longitude": 5.88332986831665,
    "latitude": 48.9667015075684,
    "regions": [
      "1074"
    ]
  },
  {
    "code": "16b49",
    "name": "Jaunay-Clan",
    "updated_at": "2014-09-22T21:21:14.404359Z",
    "country": "fr",
    "parent": null,
    "longitude": 0.366667002439499,
    "latitude": 46.6833000183105,
    "regions": [
      "1232"
    ]
  },
  {
    "code": "16b48",
    "name": "Jausiers",
    "updated_at": "2014-09-22T21:21:14.387542Z",
    "country": "fr",
    "parent": null,
    "longitude": 6.73332977294922,
    "latitude": 44.4166984558105,
    "regions": [
      "1079"
    ]
  },
  {
    "code": "16b47",
    "name": "Jaux",
    "updated_at": "2014-09-22T21:21:14.371023Z",
    "country": "fr",
    "parent": null,
    "longitude": 2.7666699886322,
    "latitude": 49.38330078125,
    "regions": [
      "1078"
    ]
  },
  {
    "code": "16b46",
    "name": "Jayac",
    "updated_at": "2014-09-22T21:21:14.353900Z",
    "country": "fr",
    "parent": null,
    "longitude": 1.33333003520966,
    "latitude": 45.0332984924316,
    "regions": [
      "106b"
    ]
  },
  {
    "code": "16b45",
    "name": "Jayat",
    "updated_at": "2014-09-22T21:21:14.337764Z",
    "country": "fr",
    "parent": null,
    "longitude": 5.11667013168335,
    "latitude": 46.36669921875,
    "regions": [
      "107a"
    ]
  },
  {
    "code": "16b44",
    "name": "Jeantes",
    "updated_at": "2014-09-22T21:21:14.300650Z",
    "country": "fr",
    "parent": null,
    "longitude": 4.05000019073486,
    "latitude": 49.7999992370605,
    "regions": []
  },
  {
    "code": "16b43",
    "name": "Jeu-Maloches",
    "updated_at": "2014-09-22T21:21:14.280690Z",
    "country": "fr",
    "parent": null,
    "longitude": 1.45000004768372,
    "latitude": 47.0332984924316,
    "regions": [
      "106f"
    ]
  },
  {
    "code": "16b42",
    "name": "Joannas",
    "updated_at": "2014-09-22T21:21:14.255076Z",
    "country": "fr",
    "parent": null,
    "longitude": 4.25,
    "latitude": 44.5666999816895,
    "regions": [
      "107a"
    ]
  },
  {
    "code": "16b41",
    "name": "Joch",
    "updated_at": "2014-09-22T21:21:14.226362Z",
    "country": "fr",
    "parent": null,
    "longitude": 2.53332996368408,
    "latitude": 42.61669921875,
    "regions": [
      "1072"
    ]
  },
  {
    "code": "16b40",
    "name": "Joigny",
    "updated_at": "2014-09-22T21:21:14.193441Z",
    "country": "fr",
    "parent": null,
    "longitude": 3.40000009536743,
    "latitude": 47.9832992553711,
    "regions": [
      "106e"
    ]
  },
  {
    "code": "16b3f",
    "name": "Joinville",
    "updated_at": "2014-09-22T21:21:14.162530Z",
    "country": "fr",
    "parent": null,
    "longitude": 5.13332986831665,
    "latitude": 48.4500007629395,
    "regions": [
      "1070"
    ]
  },
  {
    "code": "16b3e",
    "name": "Joinville",
    "updated_at": "2016-02-09T09:32:30.471893Z",
    "country": "fr",
    "parent": null,
    "longitude": 2.46667003631592,
    "latitude": 48.8166999816895,
    "regions": [
      "116b"
    ]
  },
  {
    "code": "16b3d",
    "name": "Jolimetz",
    "updated_at": "2014-09-22T21:21:14.117324Z",
    "country": "fr",
    "parent": null,
    "longitude": 3.68333005905151,
    "latitude": 50.2332992553711,
    "regions": [
      "1076",
      "1230"
    ]
  },
  {
    "code": "16b3c",
    "name": "Joncels",
    "updated_at": "2014-09-22T21:21:14.099233Z",
    "country": "fr",
    "parent": null,
    "longitude": 3.18333005905151,
    "latitude": 43.7332992553711,
    "regions": [
      "1072"
    ]
  },
  {
    "code": "16b3b",
    "name": "Jongieux",
    "updated_at": "2014-09-22T21:21:14.080758Z",
    "country": "fr",
    "parent": null,
    "longitude": 5.80000019073486,
    "latitude": 45.7332992553711,
    "regions": [
      "107a"
    ]
  },
  {
    "code": "16b3a",
    "name": "Jonquery",
    "updated_at": "2014-09-22T21:21:14.061860Z",
    "country": "fr",
    "parent": null,
    "longitude": 3.78332996368408,
    "latitude": 49.1500015258789,
    "regions": [
      "1070"
    ]
  },
  {
    "code": "16b39",
    "name": "Jonquières",
    "updated_at": "2014-09-22T21:21:14.020765Z",
    "country": "fr",
    "parent": null,
    "longitude": 2.7333300113678,
    "latitude": 49.4000015258789,
    "regions": [
      "1078"
    ]
  },
  {
    "code": "16b38",
    "name": "Jons",
    "updated_at": "2014-09-22T21:21:13.997253Z",
    "country": "fr",
    "parent": null,
    "longitude": 5.08333015441895,
    "latitude": 45.8166999816895,
    "regions": [
      "107a"
    ]
  },
  {
    "code": "16b37",
    "name": "Jonzac",
    "updated_at": "2014-09-22T21:21:13.968303Z",
    "country": "fr",
    "parent": null,
    "longitude": -0.43333300948143,
    "latitude": 45.4500007629395,
    "regions": [
      "1232"
    ]
  },
  {
    "code": "16b36",
    "name": "Josse",
    "updated_at": "2014-09-22T21:21:13.935723Z",
    "country": "fr",
    "parent": null,
    "longitude": -1.21667003631592,
    "latitude": 43.63330078125,
    "regions": [
      "106b"
    ]
  },
  {
    "code": "16b35",
    "name": "Josselin",
    "updated_at": "2014-09-22T21:21:13.901931Z",
    "country": "fr",
    "parent": null,
    "longitude": -2.54999995231628,
    "latitude": 47.9500007629395,
    "regions": [
      "106d"
    ]
  },
  {
    "code": "16b34",
    "name": "Jossigny",
    "updated_at": "2014-09-22T21:21:13.875839Z",
    "country": "fr",
    "parent": null,
    "longitude": 2.75,
    "latitude": 48.8333015441895,
    "regions": [
      "116b"
    ]
  },
  {
    "code": "16b33",
    "name": "Jouarre",
    "updated_at": "2014-09-22T21:21:13.857681Z",
    "country": "fr",
    "parent": null,
    "longitude": 3.13333010673523,
    "latitude": 48.9333000183105,
    "regions": [
      "116b"
    ]
  },
  {
    "code": "16b32",
    "name": "Joucas",
    "updated_at": "2014-09-22T21:21:13.839442Z",
    "country": "fr",
    "parent": null,
    "longitude": 5.25,
    "latitude": 43.9166984558105,
    "regions": [
      "1079"
    ]
  },
  {
    "code": "16b31",
    "name": "Joue-les-Tours",
    "updated_at": "2016-02-09T09:32:28.365761Z",
    "country": "fr",
    "parent": null,
    "longitude": 0.666666984558105,
    "latitude": 47.3499984741211,
    "regions": [
      "106f"
    ]
  },
  {
    "code": "16b30",
    "name": "Jouey",
    "updated_at": "2014-09-22T21:21:13.798771Z",
    "country": "fr",
    "parent": null,
    "longitude": 4.44999980926514,
    "latitude": 47.1500015258789,
    "regions": [
      "106e"
    ]
  },
  {
    "code": "16b2f",
    "name": "Jougne",
    "updated_at": "2014-09-22T21:21:13.777319Z",
    "country": "fr",
    "parent": null,
    "longitude": 6.40000009536743,
    "latitude": 46.7667007446289,
    "regions": [
      "1071"
    ]
  },
  {
    "code": "16b2e",
    "name": "Jouques",
    "updated_at": "2014-09-22T21:21:13.754428Z",
    "country": "fr",
    "parent": null,
    "longitude": 5.63332986831665,
    "latitude": 43.63330078125,
    "regions": [
      "1079"
    ]
  },
  {
    "code": "16b2d",
    "name": "Journiac",
    "updated_at": "2014-09-22T21:21:13.728599Z",
    "country": "fr",
    "parent": null,
    "longitude": 0.899999976158142,
    "latitude": 44.9667015075684,
    "regions": [
      "106b"
    ]
  },
  {
    "code": "16b2c",
    "name": "Jouy",
    "updated_at": "2014-09-22T21:21:13.699023Z",
    "country": "fr",
    "parent": null,
    "longitude": 2.36666989326477,
    "latitude": 48.4500007629395,
    "regions": [
      "116b"
    ]
  },
  {
    "code": "16b2b",
    "name": "Jouy-aux-Arches",
    "updated_at": "2014-09-22T21:21:13.663822Z",
    "country": "fr",
    "parent": null,
    "longitude": 6.08333015441895,
    "latitude": 49.0666999816895,
    "regions": [
      "1074"
    ]
  },
  {
    "code": "16b2a",
    "name": "Jouy-en-Josas",
    "updated_at": "2014-09-22T21:21:13.628851Z",
    "country": "fr",
    "parent": null,
    "longitude": 2.16667008399963,
    "latitude": 48.7667007446289,
    "regions": [
      "116b"
    ]
  },
  {
    "code": "16b29",
    "name": "Jouy-le-Potier",
    "updated_at": "2014-09-22T21:21:13.609108Z",
    "country": "fr",
    "parent": null,
    "longitude": 1.81666994094849,
    "latitude": 47.75,
    "regions": [
      "106f"
    ]
  },
  {
    "code": "16b28",
    "name": "Joyeuse",
    "updated_at": "2014-09-22T21:21:13.589278Z",
    "country": "fr",
    "parent": null,
    "longitude": 4.23332977294922,
    "latitude": 44.4832992553711,
    "regions": [
      "107a"
    ]
  },
  {
    "code": "16b27",
    "name": "Juan-les-Pins",
    "updated_at": "2014-09-22T21:21:13.569558Z",
    "country": "fr",
    "parent": null,
    "longitude": 7.11075067520142,
    "latitude": 43.568717956543,
    "regions": [
      "1079"
    ]
  },
  {
    "code": "16b26",
    "name": "Juaye-Mondaye",
    "updated_at": "2014-09-22T21:21:13.550863Z",
    "country": "fr",
    "parent": null,
    "longitude": -0.683332979679108,
    "latitude": 49.2000007629395,
    "regions": [
      "1334"
    ]
  },
  {
    "code": "16b25",
    "name": "Jugeals-Nazareth",
    "updated_at": "2014-09-22T21:21:13.532334Z",
    "country": "fr",
    "parent": null,
    "longitude": 1.54999995231628,
    "latitude": 45.0833015441895,
    "regions": [
      "1073"
    ]
  },
  {
    "code": "16b24",
    "name": "Juignac",
    "updated_at": "2014-09-22T21:21:13.510041Z",
    "country": "fr",
    "parent": null,
    "longitude": 0.166666999459267,
    "latitude": 45.38330078125,
    "regions": [
      "1232"
    ]
  },
  {
    "code": "16b23",
    "name": "Juillac",
    "updated_at": "2014-09-22T21:21:13.456497Z",
    "country": "fr",
    "parent": null,
    "longitude": 1.31666994094849,
    "latitude": 45.3166999816895,
    "regions": [
      "1073"
    ]
  },
  {
    "code": "16b22",
    "name": "Juillan",
    "updated_at": "2014-09-22T21:21:13.423296Z",
    "country": "fr",
    "parent": null,
    "longitude": 0.0166666992008686,
    "latitude": 43.2000007629395,
    "regions": [
      "1075"
    ]
  },
  {
    "code": "16b21",
    "name": "Juilley",
    "updated_at": "2014-09-22T21:21:13.359292Z",
    "country": "fr",
    "parent": null,
    "longitude": -1.35000002384186,
    "latitude": 48.5999984741211,
    "regions": [
      "1334"
    ]
  },
  {
    "code": "16b20",
    "name": "Jujurieux",
    "updated_at": "2014-09-22T21:21:13.340917Z",
    "country": "fr",
    "parent": null,
    "longitude": 5.41666984558105,
    "latitude": 46.0332984924316,
    "regions": [
      "107a"
    ]
  },
  {
    "code": "16b1f",
    "name": "Juliénas",
    "updated_at": "2014-09-22T21:21:13.322731Z",
    "country": "fr",
    "parent": null,
    "longitude": 4.71514987945557,
    "latitude": 46.2336006164551,
    "regions": [
      "107a"
    ]
  },
  {
    "code": "16b1e",
    "name": "Jullié",
    "updated_at": "2014-09-22T21:21:13.303751Z",
    "country": "fr",
    "parent": null,
    "longitude": 4.68333005905151,
    "latitude": 46.2332992553711,
    "regions": [
      "107a"
    ]
  },
  {
    "code": "16b1d",
    "name": "Jullouville-les-Pins",
    "updated_at": "2014-09-22T21:21:13.283690Z",
    "country": "fr",
    "parent": null,
    "longitude": -1.56666994094849,
    "latitude": 48.7667007446289,
    "regions": [
      "1334"
    ]
  },
  {
    "code": "16b1c",
    "name": "Jumeaux",
    "updated_at": "2014-09-22T21:21:13.263867Z",
    "country": "fr",
    "parent": null,
    "longitude": 3.34999990463257,
    "latitude": 45.4333000183105,
    "regions": [
      "106c"
    ]
  },
  {
    "code": "16b1b",
    "name": "Jumelles",
    "updated_at": "2014-09-22T21:21:13.241899Z",
    "country": "fr",
    "parent": null,
    "longitude": -0.100000001490116,
    "latitude": 47.4333000183105,
    "regions": [
      "1077"
    ]
  },
  {
    "code": "16b1a",
    "name": "Jumièges",
    "updated_at": "2014-09-22T21:21:13.216042Z",
    "country": "fr",
    "parent": null,
    "longitude": 0.816667020320892,
    "latitude": 49.4333000183105,
    "regions": [
      "1335"
    ]
  },
  {
    "code": "16b19",
    "name": "Junas",
    "updated_at": "2014-09-22T21:21:13.190106Z",
    "country": "fr",
    "parent": null,
    "longitude": 4.11667013168335,
    "latitude": 43.7667007446289,
    "regions": [
      "1072"
    ]
  },
  {
    "code": "16b18",
    "name": "Jungholtz",
    "updated_at": "2014-09-22T21:21:13.157263Z",
    "country": "fr",
    "parent": null,
    "longitude": 7.18333005905151,
    "latitude": 47.88330078125,
    "regions": [
      "106a"
    ]
  },
  {
    "code": "16b17",
    "name": "Juniville",
    "updated_at": "2014-09-22T21:21:13.121889Z",
    "country": "fr",
    "parent": null,
    "longitude": 4.38332986831665,
    "latitude": 49.4000015258789,
    "regions": [
      "1070"
    ]
  },
  {
    "code": "16b16",
    "name": "Jupilles",
    "updated_at": "2014-09-22T21:21:13.095248Z",
    "country": "fr",
    "parent": null,
    "longitude": 0.416667014360428,
    "latitude": 47.7832984924316,
    "regions": [
      "1077"
    ]
  },
  {
    "code": "16b15",
    "name": "Jurançon",
    "updated_at": "2014-09-22T21:21:13.075603Z",
    "country": "fr",
    "parent": null,
    "longitude": -0.383332997560501,
    "latitude": 43.2999992370605,
    "regions": [
      "106b"
    ]
  },
  {
    "code": "16b14",
    "name": "Jussac",
    "updated_at": "2014-09-22T21:21:13.056139Z",
    "country": "fr",
    "parent": null,
    "longitude": 2.43333005905151,
    "latitude": 44.9832992553711,
    "regions": [
      "106c"
    ]
  },
  {
    "code": "16b13",
    "name": "Jutigny",
    "updated_at": "2014-09-22T21:21:13.037410Z",
    "country": "fr",
    "parent": null,
    "longitude": 3.2333300113678,
    "latitude": 48.5,
    "regions": [
      "116b"
    ]
  },
  {
    "code": "16b12",
    "name": "Juvignac",
    "updated_at": "2014-09-22T21:21:13.018723Z",
    "country": "fr",
    "parent": null,
    "longitude": 3.79999995231628,
    "latitude": 43.61669921875,
    "regions": [
      "1072"
    ]
  },
  {
    "code": "16b11",
    "name": "Juvigny-sous-Andaine",
    "updated_at": "2014-09-22T21:21:13.000274Z",
    "country": "fr",
    "parent": null,
    "longitude": -0.516667008399963,
    "latitude": 48.5499992370605,
    "regions": [
      "1334"
    ]
  },
  {
    "code": "16b10",
    "name": "Juvinas",
    "updated_at": "2014-09-22T21:21:12.971750Z",
    "country": "fr",
    "parent": null,
    "longitude": 4.30000019073486,
    "latitude": 44.7167015075684,
    "regions": [
      "107a"
    ]
  },
  {
    "code": "16b0f",
    "name": "Juvisy-sur-Orge",
    "updated_at": "2014-09-22T21:21:12.944315Z",
    "country": "fr",
    "parent": null,
    "longitude": 2.38333010673523,
    "latitude": 48.6833000183105,
    "regions": [
      "116b"
    ]
  },
  {
    "code": "16b0e",
    "name": "Juzet-de-Luchon",
    "updated_at": "2014-09-22T21:21:12.914573Z",
    "country": "fr",
    "parent": null,
    "longitude": 0.616666972637177,
    "latitude": 42.8166999816895,
    "regions": [
      "1075"
    ]
  },
  {
    "code": "16b0d",
    "name": "Kaltenhouse",
    "updated_at": "2014-09-22T21:21:12.880474Z",
    "country": "fr",
    "parent": null,
    "longitude": 7.83333015441895,
    "latitude": 48.7999992370605,
    "regions": [
      "106a"
    ]
  },
  {
    "code": "16b0c",
    "name": "Katzenthal",
    "updated_at": "2014-09-22T21:21:12.845490Z",
    "country": "fr",
    "parent": null,
    "longitude": 7.28332996368408,
    "latitude": 48.0999984741211,
    "regions": [
      "106a"
    ]
  },
  {
    "code": "16b0b",
    "name": "Kaysersberg",
    "updated_at": "2014-09-22T21:21:12.823390Z",
    "country": "fr",
    "parent": null,
    "longitude": 7.25,
    "latitude": 48.13330078125,
    "regions": [
      "106a"
    ]
  },
  {
    "code": "16b0a",
    "name": "Kédange-sur-Canner",
    "updated_at": "2014-09-22T21:21:12.805356Z",
    "country": "fr",
    "parent": null,
    "longitude": 6.33333015441895,
    "latitude": 49.3166999816895,
    "regions": [
      "1074"
    ]
  },
  {
    "code": "16b09",
    "name": "Kerbors",
    "updated_at": "2014-09-22T21:21:12.786589Z",
    "country": "fr",
    "parent": null,
    "longitude": -3.18333005905151,
    "latitude": 48.8333015441895,
    "regions": [
      "106d"
    ]
  },
  {
    "code": "16b08",
    "name": "Kerdamiet",
    "updated_at": "2014-09-22T21:21:12.766578Z",
    "country": "fr",
    "parent": null,
    "longitude": -4.41666984558105,
    "latitude": 48.61669921875,
    "regions": [
      "106d"
    ]
  },
  {
    "code": "16b07",
    "name": "Kergrist-Moëlou",
    "updated_at": "2014-09-22T21:21:12.746381Z",
    "country": "fr",
    "parent": null,
    "longitude": -3.31666994094849,
    "latitude": 48.3166999816895,
    "regions": [
      "106d"
    ]
  },
  {
    "code": "16b06",
    "name": "Kérien",
    "updated_at": "2014-09-22T21:21:12.699669Z",
    "country": "fr",
    "parent": null,
    "longitude": -3.21667003631592,
    "latitude": 48.38330078125,
    "regions": [
      "106d"
    ]
  },
  {
    "code": "16b05",
    "name": "Kerlouan",
    "updated_at": "2014-09-22T21:21:09.417896Z",
    "country": "fr",
    "parent": null,
    "longitude": -4.36667013168335,
    "latitude": 48.6500015258789,
    "regions": [
      "106d"
    ]
  },
  {
    "code": "16b04",
    "name": "Kermorocʼh",
    "updated_at": "2014-09-22T21:21:09.354135Z",
    "country": "fr",
    "parent": null,
    "longitude": -3.20000004768372,
    "latitude": 48.61669921875,
    "regions": [
      "106d"
    ]
  },
  {
    "code": "16b03",
    "name": "Kernascléden",
    "updated_at": "2014-09-22T21:21:09.336118Z",
    "country": "fr",
    "parent": null,
    "longitude": -3.31666994094849,
    "latitude": 48.0,
    "regions": [
      "106d"
    ]
  },
  {
    "code": "16b02",
    "name": "Keroguiou",
    "updated_at": "2014-09-22T21:21:09.316933Z",
    "country": "fr",
    "parent": null,
    "longitude": -3.45000004768372,
    "latitude": 48.2667007446289,
    "regions": [
      "106d"
    ]
  },
  {
    "code": "16b01",
    "name": "Kertzfeld",
    "updated_at": "2014-09-22T21:21:09.297863Z",
    "country": "fr",
    "parent": null,
    "longitude": 7.56666994094849,
    "latitude": 48.38330078125,
    "regions": [
      "106a"
    ]
  },
  {
    "code": "16b00",
    "name": "Kervignac",
    "updated_at": "2014-09-22T21:21:09.279370Z",
    "country": "fr",
    "parent": null,
    "longitude": -3.2333300113678,
    "latitude": 47.7667007446289,
    "regions": [
      "106d"
    ]
  },
  {
    "code": "16aff",
    "name": "Kervran",
    "updated_at": "2014-09-22T21:21:09.260642Z",
    "country": "fr",
    "parent": null,
    "longitude": -3.2666699886322,
    "latitude": 47.6833000183105,
    "regions": []
  },
  {
    "code": "16afe",
    "name": "Kientzheim",
    "updated_at": "2014-09-22T21:21:09.237441Z",
    "country": "fr",
    "parent": null,
    "longitude": 7.28332996368408,
    "latitude": 48.13330078125,
    "regions": [
      "106a"
    ]
  },
  {
    "code": "16afd",
    "name": "Kilstett",
    "updated_at": "2014-09-22T21:21:09.211580Z",
    "country": "fr",
    "parent": null,
    "longitude": 7.84999990463257,
    "latitude": 48.6833000183105,
    "regions": [
      "106a"
    ]
  },
  {
    "code": "16afc",
    "name": "Kingersheim",
    "updated_at": "2014-09-22T21:21:09.184214Z",
    "country": "fr",
    "parent": null,
    "longitude": 7.33333015441895,
    "latitude": 47.7999992370605,
    "regions": [
      "106a"
    ]
  },
  {
    "code": "16afb",
    "name": "Kintzheim",
    "updated_at": "2014-09-22T21:21:09.149256Z",
    "country": "fr",
    "parent": null,
    "longitude": 7.40000009536743,
    "latitude": 48.25,
    "regions": [
      "106a"
    ]
  },
  {
    "code": "16afa",
    "name": "Kirrwiller",
    "updated_at": "2014-09-22T21:21:09.114461Z",
    "country": "fr",
    "parent": null,
    "longitude": 7.53332996368408,
    "latitude": 48.8166999816895,
    "regions": [
      "106a"
    ]
  },
  {
    "code": "16af9",
    "name": "Knutange",
    "updated_at": "2014-09-22T21:21:09.068713Z",
    "country": "fr",
    "parent": null,
    "longitude": 6.03332996368408,
    "latitude": 49.3333015441895,
    "regions": [
      "1074"
    ]
  },
  {
    "code": "16af8",
    "name": "Koenigsmacker",
    "updated_at": "2014-09-22T21:21:09.050247Z",
    "country": "fr",
    "parent": null,
    "longitude": 6.28332996368408,
    "latitude": 49.4000015258789,
    "regions": [
      "1074"
    ]
  },
  {
    "code": "16af7",
    "name": "Kruth",
    "updated_at": "2014-09-22T21:21:09.031230Z",
    "country": "fr",
    "parent": null,
    "longitude": 6.96667003631592,
    "latitude": 47.9333000183105,
    "regions": [
      "106a"
    ]
  },
  {
    "code": "16af6",
    "name": "Kurtzenhouse",
    "updated_at": "2014-09-22T21:21:09.011108Z",
    "country": "fr",
    "parent": null,
    "longitude": 7.80000019073486,
    "latitude": 48.7332992553711,
    "regions": [
      "106a"
    ]
  },
  {
    "code": "16af5",
    "name": "Laas",
    "updated_at": "2014-09-22T21:21:08.990691Z",
    "country": "fr",
    "parent": null,
    "longitude": -0.850000023841858,
    "latitude": 43.38330078125,
    "regions": [
      "106b"
    ]
  },
  {
    "code": "16af4",
    "name": "La Bachellerie",
    "updated_at": "2014-09-22T21:21:08.961827Z",
    "country": "fr",
    "parent": null,
    "longitude": 1.16666996479034,
    "latitude": 45.1500015258789,
    "regions": [
      "106b"
    ]
  },
  {
    "code": "16af3",
    "name": "La Balme-de-Sillingy",
    "updated_at": "2014-09-22T21:21:08.933048Z",
    "country": "fr",
    "parent": null,
    "longitude": 6.03332996368408,
    "latitude": 45.9667015075684,
    "regions": [
      "107a"
    ]
  },
  {
    "code": "16af2",
    "name": "La Barben",
    "updated_at": "2014-09-22T21:21:08.909434Z",
    "country": "fr",
    "parent": null,
    "longitude": 5.18333005905151,
    "latitude": 43.63330078125,
    "regions": [
      "1079"
    ]
  },
  {
    "code": "16af1",
    "name": "Labaroche",
    "updated_at": "2014-09-22T21:21:08.844753Z",
    "country": "fr",
    "parent": null,
    "longitude": 7.19999980926514,
    "latitude": 48.11669921875,
    "regions": [
      "106a"
    ]
  },
  {
    "code": "16af0",
    "name": "La Barthe",
    "updated_at": "2014-09-22T21:21:08.797153Z",
    "country": "fr",
    "parent": null,
    "longitude": 1.31666994094849,
    "latitude": 44.2000007629395,
    "regions": [
      "1075"
    ]
  },
  {
    "code": "16aef",
    "name": "La Barthe-de-Neste",
    "updated_at": "2014-09-22T21:21:08.779204Z",
    "country": "fr",
    "parent": null,
    "longitude": 0.383332997560501,
    "latitude": 43.0833015441895,
    "regions": [
      "1075"
    ]
  },
  {
    "code": "16aee",
    "name": "Labarthe-Inard",
    "updated_at": "2014-09-22T21:21:08.761201Z",
    "country": "fr",
    "parent": null,
    "longitude": 0.850000023841858,
    "latitude": 43.11669921875,
    "regions": [
      "1075"
    ]
  },
  {
    "code": "16aed",
    "name": "Labastide",
    "updated_at": "2014-09-22T21:21:08.743939Z",
    "country": "fr",
    "parent": null,
    "longitude": 0.349999994039536,
    "latitude": 43.0332984924316,
    "regions": [
      "1075"
    ]
  },
  {
    "code": "16aec",
    "name": "La Bastide",
    "updated_at": "2014-09-22T21:21:08.727531Z",
    "country": "fr",
    "parent": null,
    "longitude": 6.61667013168335,
    "latitude": 43.7332992553711,
    "regions": [
      "1079"
    ]
  },
  {
    "code": "16aeb",
    "name": "Labastide-Beauvoir",
    "updated_at": "2014-09-22T21:21:08.711233Z",
    "country": "fr",
    "parent": null,
    "longitude": 1.66666996479034,
    "latitude": 43.4832992553711,
    "regions": [
      "1075"
    ]
  },
  {
    "code": "16aea",
    "name": "Labastide-Clairence",
    "updated_at": "2014-09-22T21:21:08.694925Z",
    "country": "fr",
    "parent": null,
    "longitude": -1.25,
    "latitude": 43.4333000183105,
    "regions": [
      "106b"
    ]
  },
  {
    "code": "16ae9",
    "name": "Labastide-dʼArmagnac",
    "updated_at": "2014-09-22T21:21:08.659063Z",
    "country": "fr",
    "parent": null,
    "longitude": -0.183332994580269,
    "latitude": 43.9667015075684,
    "regions": [
      "106b"
    ]
  },
  {
    "code": "16ae8",
    "name": "Labastide-de-Lévis",
    "updated_at": "2014-09-22T21:21:08.634085Z",
    "country": "fr",
    "parent": null,
    "longitude": 2.0166699886322,
    "latitude": 43.9333000183105,
    "regions": [
      "1075"
    ]
  },
  {
    "code": "16ae7",
    "name": "La Bastide-de-Sérou",
    "updated_at": "2014-09-22T21:21:08.586076Z",
    "country": "fr",
    "parent": null,
    "longitude": 1.43333005905151,
    "latitude": 43.0167007446289,
    "regions": [
      "1075"
    ]
  },
  {
    "code": "16ae6",
    "name": "Labastide-de-Virac",
    "updated_at": "2014-09-22T21:21:08.555763Z",
    "country": "fr",
    "parent": null,
    "longitude": 4.41666984558105,
    "latitude": 44.3499984741211,
    "regions": [
      "107a"
    ]
  },
  {
    "code": "16ae5",
    "name": "Labastide-du-Vert",
    "updated_at": "2014-09-22T21:21:08.528462Z",
    "country": "fr",
    "parent": null,
    "longitude": 1.28332996368408,
    "latitude": 44.5167007446289,
    "regions": [
      "1075"
    ]
  },
  {
    "code": "16ae4",
    "name": "Labastide-en-Val",
    "updated_at": "2014-09-22T21:21:08.506119Z",
    "country": "fr",
    "parent": null,
    "longitude": 2.4833300113678,
    "latitude": 43.0666999816895,
    "regions": [
      "1072"
    ]
  },
  {
    "code": "16ae3",
    "name": "Labastide-Esparbairenque",
    "updated_at": "2014-09-22T21:21:08.484137Z",
    "country": "fr",
    "parent": null,
    "longitude": 2.41667008399963,
    "latitude": 43.38330078125,
    "regions": []
  },
  {
    "code": "16ae2",
    "name": "Labastide-Murat",
    "updated_at": "2014-09-22T21:21:08.466064Z",
    "country": "fr",
    "parent": null,
    "longitude": 1.56666994094849,
    "latitude": 44.6500015258789,
    "regions": [
      "1075"
    ]
  },
  {
    "code": "16ae1",
    "name": "La Bastide-Puylaurent",
    "updated_at": "2014-09-22T21:21:08.448068Z",
    "country": "fr",
    "parent": null,
    "longitude": 3.90000009536743,
    "latitude": 44.5999984741211,
    "regions": [
      "1072"
    ]
  },
  {
    "code": "16ae0",
    "name": "Labastide-Rouairoux",
    "updated_at": "2014-09-22T21:21:08.429460Z",
    "country": "fr",
    "parent": null,
    "longitude": 2.65000009536743,
    "latitude": 43.4667015075684,
    "regions": [
      "1075"
    ]
  },
  {
    "code": "16adf",
    "name": "La Bastide-Solages",
    "updated_at": "2014-09-22T21:21:08.411195Z",
    "country": "fr",
    "parent": null,
    "longitude": 2.5166699886322,
    "latitude": 43.9500007629395,
    "regions": [
      "1075"
    ]
  },
  {
    "code": "16ade",
    "name": "La Bâtie-Neuve",
    "updated_at": "2014-09-22T21:21:08.373781Z",
    "country": "fr",
    "parent": null,
    "longitude": 6.19999980926514,
    "latitude": 44.5666999816895,
    "regions": [
      "1079"
    ]
  },
  {
    "code": "16add",
    "name": "La Bâtie-Rolland",
    "updated_at": "2014-09-22T21:21:08.350647Z",
    "country": "fr",
    "parent": null,
    "longitude": 4.84999990463257,
    "latitude": 44.5499992370605,
    "regions": [
      "107a"
    ]
  },
  {
    "code": "16adc",
    "name": "La Baume",
    "updated_at": "2014-09-22T21:21:08.327393Z",
    "country": "fr",
    "parent": null,
    "longitude": 6.61667013168335,
    "latitude": 46.2832984924316,
    "regions": [
      "107a"
    ]
  },
  {
    "code": "16adb",
    "name": "La Baume-de-Transit",
    "updated_at": "2014-09-22T21:21:08.279605Z",
    "country": "fr",
    "parent": null,
    "longitude": 4.86667013168335,
    "latitude": 44.3499984741211,
    "regions": [
      "107a"
    ]
  },
  {
    "code": "16ada",
    "name": "Labège",
    "updated_at": "2014-09-22T21:21:08.251971Z",
    "country": "fr",
    "parent": null,
    "longitude": 1.53332996368408,
    "latitude": 43.5332984924316,
    "regions": [
      "1075"
    ]
  },
  {
    "code": "16ad9",
    "name": "La Bégude-de-Mazenc",
    "updated_at": "2014-09-22T21:21:08.227175Z",
    "country": "fr",
    "parent": null,
    "longitude": 4.93333005905151,
    "latitude": 44.5332984924316,
    "regions": [
      "107a"
    ]
  },
  {
    "code": "16ad8",
    "name": "La Belliole",
    "updated_at": "2014-09-22T21:21:08.200647Z",
    "country": "fr",
    "parent": null,
    "longitude": 3.08332991600037,
    "latitude": 48.1500015258789,
    "regions": [
      "106e"
    ]
  },
  {
    "code": "16ad7",
    "name": "La Benâte",
    "updated_at": "2014-09-22T21:21:08.179126Z",
    "country": "fr",
    "parent": null,
    "longitude": -0.566667020320892,
    "latitude": 46.0,
    "regions": []
  },
  {
    "code": "16ad6",
    "name": "Labenne",
    "updated_at": "2014-09-22T21:21:08.161346Z",
    "country": "fr",
    "parent": null,
    "longitude": -1.41666996479034,
    "latitude": 43.5999984741211,
    "regions": [
      "106b"
    ]
  },
  {
    "code": "16ad5",
    "name": "La Bernerie-en-Retz",
    "updated_at": "2014-09-22T21:21:08.143295Z",
    "country": "fr",
    "parent": null,
    "longitude": -2.03332996368408,
    "latitude": 47.0833015441895,
    "regions": [
      "1077"
    ]
  },
  {
    "code": "16ad4",
    "name": "Labesserette",
    "updated_at": "2014-09-22T21:21:08.124132Z",
    "country": "fr",
    "parent": null,
    "longitude": 2.4833300113678,
    "latitude": 44.7332992553711,
    "regions": [
      "106c"
    ]
  },
  {
    "code": "16ad3",
    "name": "La Boisse",
    "updated_at": "2014-09-22T21:21:08.048603Z",
    "country": "fr",
    "parent": null,
    "longitude": 5.03332996368408,
    "latitude": 45.8499984741211,
    "regions": [
      "107a"
    ]
  },
  {
    "code": "16ad2",
    "name": "La Boissière",
    "updated_at": "2014-09-22T21:21:08.022362Z",
    "country": "fr",
    "parent": null,
    "longitude": -0.983332991600037,
    "latitude": 47.7832984924316,
    "regions": [
      "1077"
    ]
  },
  {
    "code": "16ad1",
    "name": "La Boissière-dʼAns",
    "updated_at": "2014-09-22T21:21:08.001270Z",
    "country": "fr",
    "parent": null,
    "longitude": 0.966666996479034,
    "latitude": 45.2332992553711,
    "regions": [
      "106b"
    ]
  },
  {
    "code": "16ad0",
    "name": "La Boissière-École",
    "updated_at": "2014-09-22T21:21:07.944682Z",
    "country": "fr",
    "parent": null,
    "longitude": 1.64999997615814,
    "latitude": 48.6833000183105,
    "regions": [
      "116b"
    ]
  },
  {
    "code": "16acf",
    "name": "La Bollène-Vésubie",
    "updated_at": "2014-09-22T21:21:07.873565Z",
    "country": "fr",
    "parent": null,
    "longitude": 7.33333015441895,
    "latitude": 43.9832992553711,
    "regions": [
      "1079"
    ]
  },
  {
    "code": "16ace",
    "name": "La Borde",
    "updated_at": "2014-09-22T21:21:07.855499Z",
    "country": "fr",
    "parent": null,
    "longitude": 1.58333003520966,
    "latitude": 45.4832992553711,
    "regions": [
      "1073"
    ]
  },
  {
    "code": "16acd",
    "name": "La Bouilladisse",
    "updated_at": "2014-09-22T21:21:07.818734Z",
    "country": "fr",
    "parent": null,
    "longitude": 5.58333015441895,
    "latitude": 43.4000015258789,
    "regions": [
      "1079"
    ]
  },
  {
    "code": "16acc",
    "name": "La Bouille",
    "updated_at": "2014-09-22T21:21:07.800441Z",
    "country": "fr",
    "parent": null,
    "longitude": 0.933332979679108,
    "latitude": 49.3499984741211,
    "regions": [
      "1335"
    ]
  },
  {
    "code": "16acb",
    "name": "La Boulaye",
    "updated_at": "2014-09-22T21:21:07.782205Z",
    "country": "fr",
    "parent": null,
    "longitude": 4.11667013168335,
    "latitude": 46.75,
    "regions": [
      "106e"
    ]
  },
  {
    "code": "16aca",
    "name": "Labouquerie",
    "updated_at": "2014-09-22T21:21:07.760791Z",
    "country": "fr",
    "parent": null,
    "longitude": 0.800000011920929,
    "latitude": 44.7332992553711,
    "regions": [
      "106b"
    ]
  },
  {
    "code": "16ac9",
    "name": "La Bourboule",
    "updated_at": "2014-09-22T21:21:07.735287Z",
    "country": "fr",
    "parent": null,
    "longitude": 2.75,
    "latitude": 45.5833015441895,
    "regions": [
      "106c"
    ]
  },
  {
    "code": "16ac8",
    "name": "La Bourjat",
    "updated_at": "2014-09-22T21:21:07.715264Z",
    "country": "fr",
    "parent": null,
    "longitude": 6.06666994094849,
    "latitude": 45.2832984924316,
    "regions": []
  },
  {
    "code": "16ac7",
    "name": "La Boussac",
    "updated_at": "2014-09-22T21:21:07.692746Z",
    "country": "fr",
    "parent": null,
    "longitude": -1.66666996479034,
    "latitude": 48.5167007446289,
    "regions": [
      "106d"
    ]
  },
  {
    "code": "16ac6",
    "name": "Marcilly le Chatel",
    "updated_at": "2014-09-22T21:21:07.663009Z",
    "country": "fr",
    "parent": null,
    "longitude": 4.03332996368408,
    "latitude": 45.7332992553711,
    "regions": [
      "107a"
    ]
  },
  {
    "code": "16ac5",
    "name": "La Brede",
    "updated_at": "2014-09-22T21:21:07.633299Z",
    "country": "fr",
    "parent": null,
    "longitude": -0.533333003520966,
    "latitude": 44.6833000183105,
    "regions": [
      "106b"
    ]
  },
  {
    "code": "16ac4",
    "name": "La Brée-les-Bains",
    "updated_at": "2014-09-22T21:21:07.602541Z",
    "country": "fr",
    "parent": null,
    "longitude": -1.35000002384186,
    "latitude": 46.0167007446289,
    "regions": [
      "1232",
      "136a"
    ]
  },
  {
    "code": "16ac3",
    "name": "La Breille-les-Pins",
    "updated_at": "2014-09-22T21:21:07.584322Z",
    "country": "fr",
    "parent": null,
    "longitude": 0.0833332985639572,
    "latitude": 47.3333015441895,
    "regions": [
      "1077"
    ]
  },
  {
    "code": "16ac2",
    "name": "La Bresse",
    "updated_at": "2014-09-22T21:21:07.565039Z",
    "country": "fr",
    "parent": null,
    "longitude": 6.88332986831665,
    "latitude": 48.0,
    "regions": [
      "1074"
    ]
  },
  {
    "code": "16ac1",
    "name": "La Brigue",
    "updated_at": "2014-09-22T21:21:07.547118Z",
    "country": "fr",
    "parent": null,
    "longitude": 7.61667013168335,
    "latitude": 44.0666999816895,
    "regions": [
      "1079"
    ]
  },
  {
    "code": "16ac0",
    "name": "Labrit",
    "updated_at": "2014-09-22T21:21:07.528060Z",
    "country": "fr",
    "parent": null,
    "longitude": -0.550000011920929,
    "latitude": 44.0999984741211,
    "regions": [
      "106b"
    ]
  },
  {
    "code": "16abf",
    "name": "Labroquère",
    "updated_at": "2014-09-22T21:21:07.509732Z",
    "country": "fr",
    "parent": null,
    "longitude": 0.600000023841858,
    "latitude": 43.0332984924316,
    "regions": []
  },
  {
    "code": "16abe",
    "name": "Labroye",
    "updated_at": "2014-09-22T21:21:07.491511Z",
    "country": "fr",
    "parent": null,
    "longitude": 1.9833300113678,
    "latitude": 50.2832984924316,
    "regions": []
  },
  {
    "code": "16abd",
    "name": "Labruguière",
    "updated_at": "2014-09-22T21:21:07.473048Z",
    "country": "fr",
    "parent": null,
    "longitude": 2.2666699886322,
    "latitude": 43.5332984924316,
    "regions": [
      "1075"
    ]
  },
  {
    "code": "16abc",
    "name": "LʼAbsie",
    "updated_at": "2014-09-22T21:21:07.449687Z",
    "country": "fr",
    "parent": null,
    "longitude": -0.583333015441895,
    "latitude": 46.63330078125,
    "regions": [
      "1232"
    ]
  },
  {
    "code": "16abb",
    "name": "La Buisse",
    "updated_at": "2014-09-22T21:21:07.426595Z",
    "country": "fr",
    "parent": null,
    "longitude": 5.61667013168335,
    "latitude": 45.3333015441895,
    "regions": [
      "107a"
    ]
  },
  {
    "code": "16aba",
    "name": "Labuissière",
    "updated_at": "2014-09-22T21:21:07.401706Z",
    "country": "fr",
    "parent": null,
    "longitude": 2.56666994094849,
    "latitude": 50.4832992553711,
    "regions": [
      "1076"
    ]
  },
  {
    "code": "16ab9",
    "name": "La Bussière",
    "updated_at": "2014-09-22T21:21:07.350353Z",
    "country": "fr",
    "parent": null,
    "longitude": 2.75,
    "latitude": 47.75,
    "regions": [
      "106f"
    ]
  },
  {
    "code": "16ab8",
    "name": "La Bussière-sur-Ouche",
    "updated_at": "2014-09-22T21:21:07.318895Z",
    "country": "fr",
    "parent": null,
    "longitude": 4.71667003631592,
    "latitude": 47.2167015075684,
    "regions": [
      "106e"
    ]
  },
  {
    "code": "16ab7",
    "name": "La Cabanasse",
    "updated_at": "2014-09-22T21:21:07.289554Z",
    "country": "fr",
    "parent": null,
    "longitude": 2.11666989326477,
    "latitude": 42.5,
    "regions": [
      "1072"
    ]
  },
  {
    "code": "16ab6",
    "name": "Lacabarède",
    "updated_at": "2014-09-22T21:21:07.271380Z",
    "country": "fr",
    "parent": null,
    "longitude": 2.58332991600037,
    "latitude": 43.4500007629395,
    "regions": [
      "1075"
    ]
  },
  {
    "code": "16ab5",
    "name": "La Cadière-dʼAzur",
    "updated_at": "2014-09-22T21:21:07.235292Z",
    "country": "fr",
    "parent": null,
    "longitude": 5.75589752188534,
    "latitude": 43.1960660263844,
    "regions": [
      "1079"
    ]
  },
  {
    "code": "16ab4",
    "name": "La Caillère",
    "updated_at": "2014-09-22T21:21:07.217905Z",
    "country": "fr",
    "parent": null,
    "longitude": -0.899999976158142,
    "latitude": 46.61669921875,
    "regions": []
  },
  {
    "code": "16ab3",
    "name": "Lacalm",
    "updated_at": "2014-09-22T21:21:07.199295Z",
    "country": "fr",
    "parent": null,
    "longitude": 2.88333010673523,
    "latitude": 44.7667007446289,
    "regions": [
      "1075"
    ]
  },
  {
    "code": "16ab2",
    "name": "La Cambe",
    "updated_at": "2014-09-22T21:21:07.180946Z",
    "country": "fr",
    "parent": null,
    "longitude": -1.0,
    "latitude": 49.3499984741211,
    "regions": [
      "1334"
    ]
  },
  {
    "code": "16ab1",
    "name": "Lacam-dʼOurcet",
    "updated_at": "2014-09-22T21:21:07.161096Z",
    "country": "fr",
    "parent": null,
    "longitude": 2.0,
    "latitude": 44.8499984741211,
    "regions": [
      "1075"
    ]
  },
  {
    "code": "16ab0",
    "name": "Lacanau",
    "updated_at": "2014-09-22T21:21:07.137823Z",
    "country": "fr",
    "parent": null,
    "longitude": -1.08333003520966,
    "latitude": 44.9832992553711,
    "regions": [
      "106b"
    ]
  },
  {
    "code": "16aaf",
    "name": "Lacanau-Océan",
    "updated_at": "2014-09-22T21:21:07.112191Z",
    "country": "fr",
    "parent": null,
    "longitude": -1.20000004768372,
    "latitude": 45.0,
    "regions": [
      "106b"
    ]
  },
  {
    "code": "16aae",
    "name": "La Canourgue",
    "updated_at": "2014-09-22T21:21:07.088439Z",
    "country": "fr",
    "parent": null,
    "longitude": 3.21667003631592,
    "latitude": 44.4166984558105,
    "regions": [
      "1072"
    ]
  },
  {
    "code": "16aad",
    "name": "La Capelle-et-Masmolène",
    "updated_at": "2014-09-22T21:21:07.026669Z",
    "country": "fr",
    "parent": null,
    "longitude": 4.55000019073486,
    "latitude": 44.0499992370605,
    "regions": [
      "1072",
      "1079"
    ]
  },
  {
    "code": "16aac",
    "name": "Lacapelle-Marival",
    "updated_at": "2014-09-22T21:21:06.971254Z",
    "country": "fr",
    "parent": null,
    "longitude": 1.93333005905151,
    "latitude": 44.7167015075684,
    "regions": [
      "1075"
    ]
  },
  {
    "code": "16aab",
    "name": "Lacapelle-Ségalar",
    "updated_at": "2014-09-22T21:21:06.953010Z",
    "country": "fr",
    "parent": null,
    "longitude": 2.0,
    "latitude": 44.11669921875,
    "regions": [
      "1075"
    ]
  },
  {
    "code": "16aaa",
    "name": "Lacapelle-Viescamp",
    "updated_at": "2014-09-22T21:21:06.935819Z",
    "country": "fr",
    "parent": null,
    "longitude": 2.2666699886322,
    "latitude": 44.9166984558105,
    "regions": [
      "106c"
    ]
  },
  {
    "code": "16aa9",
    "name": "Lacarry-Arhan-Charritte-de-Haut",
    "updated_at": "2014-09-22T21:21:06.918963Z",
    "country": "fr",
    "parent": null,
    "longitude": -0.916666984558105,
    "latitude": 43.0833015441895,
    "regions": [
      "106b"
    ]
  },
  {
    "code": "16aa8",
    "name": "Lacaune",
    "updated_at": "2014-09-22T21:21:06.900428Z",
    "country": "fr",
    "parent": null,
    "longitude": 2.70000004768372,
    "latitude": 43.7167015075684,
    "regions": [
      "1075"
    ]
  },
  {
    "code": "16aa7",
    "name": "La Cavalerie",
    "updated_at": "2014-09-22T21:21:06.881989Z",
    "country": "fr",
    "parent": null,
    "longitude": 3.16667008399963,
    "latitude": 44.0,
    "regions": [
      "1075"
    ]
  },
  {
    "code": "16aa6",
    "name": "Lacave",
    "updated_at": "2014-09-22T21:21:06.863556Z",
    "country": "fr",
    "parent": null,
    "longitude": 0.996407985687256,
    "latitude": 43.0402984619141,
    "regions": [
      "1075"
    ]
  },
  {
    "code": "16aa5",
    "name": "Lacave",
    "updated_at": "2014-09-22T21:21:06.843368Z",
    "country": "fr",
    "parent": null,
    "longitude": 1.56666994094849,
    "latitude": 44.8499984741211,
    "regions": [
      "1075"
    ]
  },
  {
    "code": "16aa4",
    "name": "Lacaze",
    "updated_at": "2014-09-22T21:21:06.818629Z",
    "country": "fr",
    "parent": null,
    "longitude": 2.5166699886322,
    "latitude": 43.7332992553711,
    "regions": [
      "1075"
    ]
  },
  {
    "code": "16aa3",
    "name": "La Celle",
    "updated_at": "2014-09-22T21:21:06.795345Z",
    "country": "fr",
    "parent": null,
    "longitude": 2.78332996368408,
    "latitude": 46.2332992553711,
    "regions": [
      "106c"
    ]
  },
  {
    "code": "16aa2",
    "name": "La Celle-les-Bordes",
    "updated_at": "2014-09-22T21:21:06.771504Z",
    "country": "fr",
    "parent": null,
    "longitude": 1.95000004768372,
    "latitude": 48.63330078125,
    "regions": [
      "116b"
    ]
  },
  {
    "code": "16aa1",
    "name": "Lacépède",
    "updated_at": "2014-09-22T21:21:06.738340Z",
    "country": "fr",
    "parent": null,
    "longitude": 0.466666996479034,
    "latitude": 44.3333015441895,
    "regions": [
      "106b"
    ]
  },
  {
    "code": "16aa0",
    "name": "La Chabanne",
    "updated_at": "2014-09-22T21:21:06.703979Z",
    "country": "fr",
    "parent": null,
    "longitude": 3.75,
    "latitude": 46.0167007446289,
    "regions": [
      "106c"
    ]
  },
  {
    "code": "16a9f",
    "name": "Lachaise",
    "updated_at": "2014-09-22T21:21:06.676474Z",
    "country": "fr",
    "parent": null,
    "longitude": -0.233333006501198,
    "latitude": 45.5332984924316,
    "regions": [
      "1232"
    ]
  },
  {
    "code": "16a9e",
    "name": "La Chaise-Dieu",
    "updated_at": "2014-09-22T21:21:06.656596Z",
    "country": "fr",
    "parent": null,
    "longitude": 3.70000004768372,
    "latitude": 45.3166999816895,
    "regions": [
      "106c"
    ]
  },
  {
    "code": "16a9d",
    "name": "Lachamp-Raphaël",
    "updated_at": "2014-09-22T21:21:06.619377Z",
    "country": "fr",
    "parent": null,
    "longitude": 4.30000019073486,
    "latitude": 44.8166999816895,
    "regions": [
      "107a"
    ]
  },
  {
    "code": "16a9c",
    "name": "La Chapelle",
    "updated_at": "2014-09-22T21:21:06.580322Z",
    "country": "fr",
    "parent": null,
    "longitude": -2.41667008399963,
    "latitude": 47.86669921875,
    "regions": [
      "106d"
    ]
  },
  {
    "code": "16a9b",
    "name": "La Chapelle",
    "updated_at": "2014-09-22T21:21:06.555097Z",
    "country": "fr",
    "parent": null,
    "longitude": 6.78332996368408,
    "latitude": 48.1833000183105,
    "regions": [
      "1074"
    ]
  },
  {
    "code": "16a9a",
    "name": "La Chapelle-Aubareil",
    "updated_at": "2014-09-22T21:21:06.529041Z",
    "country": "fr",
    "parent": null,
    "longitude": 1.18333005905151,
    "latitude": 45.0167007446289,
    "regions": [
      "106b"
    ]
  },
  {
    "code": "16a99",
    "name": "La Chapelle-aux-Brocs",
    "updated_at": "2014-09-22T21:21:06.497865Z",
    "country": "fr",
    "parent": null,
    "longitude": 1.61667001247406,
    "latitude": 45.1500015258789,
    "regions": [
      "1073"
    ]
  },
  {
    "code": "16a98",
    "name": "La Chapelle-aux-Choux",
    "updated_at": "2014-09-22T21:21:06.462690Z",
    "country": "fr",
    "parent": null,
    "longitude": 0.233333006501198,
    "latitude": 47.63330078125,
    "regions": [
      "1077"
    ]
  },
  {
    "code": "16a97",
    "name": "La Chapelle-aux-Filzméens",
    "updated_at": "2014-09-22T21:21:06.427367Z",
    "country": "fr",
    "parent": null,
    "longitude": -1.83333003520966,
    "latitude": 48.38330078125,
    "regions": [
      "106d"
    ]
  },
  {
    "code": "16a96",
    "name": "La Chapelle-aux-Naux",
    "updated_at": "2014-09-22T21:21:06.407511Z",
    "country": "fr",
    "parent": null,
    "longitude": 0.416667014360428,
    "latitude": 47.3166999816895,
    "regions": [
      "106f"
    ]
  },
  {
    "code": "16a95",
    "name": "La Chapelle-aux-Saints",
    "updated_at": "2014-09-22T21:21:06.387769Z",
    "country": "fr",
    "parent": null,
    "longitude": 1.71667003631592,
    "latitude": 44.9832992553711,
    "regions": [
      "1073"
    ]
  },
  {
    "code": "16a94",
    "name": "Lachapelle-Auzac",
    "updated_at": "2014-09-22T21:21:06.368456Z",
    "country": "fr",
    "parent": null,
    "longitude": 1.4833300113678,
    "latitude": 44.9333000183105,
    "regions": [
      "1075"
    ]
  },
  {
    "code": "16a93",
    "name": "La Chapelle-Basse-Mer",
    "updated_at": "2014-09-22T21:21:06.348715Z",
    "country": "fr",
    "parent": null,
    "longitude": -1.33333003520966,
    "latitude": 47.2667007446289,
    "regions": [
      "1077"
    ]
  },
  {
    "code": "16a92",
    "name": "La Chapelle-Blanche-Saint-Martin",
    "updated_at": "2014-09-22T21:21:06.331050Z",
    "country": "fr",
    "parent": null,
    "longitude": 0.783333003520966,
    "latitude": 47.0833015441895,
    "regions": [
      "106f"
    ]
  },
  {
    "code": "16a91",
    "name": "La Chapelle-Cécelin",
    "updated_at": "2014-09-22T21:21:06.309134Z",
    "country": "fr",
    "parent": null,
    "longitude": -1.16666996479034,
    "latitude": 48.8166999816895,
    "regions": [
      "1334"
    ]
  },
  {
    "code": "16a90",
    "name": "La Chapelle-Chaussée",
    "updated_at": "2014-09-22T21:21:06.284508Z",
    "country": "fr",
    "parent": null,
    "longitude": -1.85000002384186,
    "latitude": 48.2667007446289,
    "regions": [
      "106d"
    ]
  },
  {
    "code": "16a8f",
    "name": "La Chapelle-dʼAbondance",
    "updated_at": "2014-09-22T21:21:06.258102Z",
    "country": "fr",
    "parent": null,
    "longitude": 6.78332996368408,
    "latitude": 46.2999992370605,
    "regions": [
      "107a"
    ]
  },
  {
    "code": "16a8e",
    "name": "La Chapelle-dʼAngillon",
    "updated_at": "2014-09-22T21:21:06.223926Z",
    "country": "fr",
    "parent": null,
    "longitude": 2.43333005905151,
    "latitude": 47.36669921875,
    "regions": [
      "106f"
    ]
  },
  {
    "code": "16a8d",
    "name": "La Chapelle-des-Fougeretz",
    "updated_at": "2014-09-22T21:21:06.190621Z",
    "country": "fr",
    "parent": null,
    "longitude": -1.7333300113678,
    "latitude": 48.1833000183105,
    "regions": [
      "106d"
    ]
  },
  {
    "code": "16a8c",
    "name": "La Chapelle-des-Marais",
    "updated_at": "2014-09-22T21:21:06.154060Z",
    "country": "fr",
    "parent": null,
    "longitude": -2.25,
    "latitude": 47.4500007629395,
    "regions": [
      "1077"
    ]
  },
  {
    "code": "16a8b",
    "name": "La Chapelle-du-Bard",
    "updated_at": "2014-09-22T21:21:06.134559Z",
    "country": "fr",
    "parent": null,
    "longitude": 6.09999990463257,
    "latitude": 45.4166984558105,
    "regions": [
      "107a"
    ]
  },
  {
    "code": "16a8a",
    "name": "La Chapelle-en-Serval",
    "updated_at": "2014-09-22T21:21:06.116673Z",
    "country": "fr",
    "parent": null,
    "longitude": 2.53332996368408,
    "latitude": 49.13330078125,
    "regions": [
      "1078"
    ]
  },
  {
    "code": "16a89",
    "name": "La Chapelle-en-Vercors",
    "updated_at": "2014-09-22T21:21:06.097450Z",
    "country": "fr",
    "parent": null,
    "longitude": 5.41666984558105,
    "latitude": 44.9667015075684,
    "regions": [
      "107a"
    ]
  },
  {
    "code": "16a88",
    "name": "La Chapelle-Faucher",
    "updated_at": "2014-09-22T21:21:06.078598Z",
    "country": "fr",
    "parent": null,
    "longitude": 0.75,
    "latitude": 45.36669921875,
    "regions": [
      "106b"
    ]
  },
  {
    "code": "16a87",
    "name": "La Chapelle-Gaudin",
    "updated_at": "2014-09-22T21:21:06.058565Z",
    "country": "fr",
    "parent": null,
    "longitude": -0.383332997560501,
    "latitude": 46.9333000183105,
    "regions": [
      "1232"
    ]
  },
  {
    "code": "16a86",
    "name": "La Chapelle-Gauthier",
    "updated_at": "2014-09-22T21:21:06.032218Z",
    "country": "fr",
    "parent": null,
    "longitude": 2.90000009536743,
    "latitude": 48.5499992370605,
    "regions": [
      "116b"
    ]
  },
  {
    "code": "16a85",
    "name": "Lachapelle-Graillouse",
    "updated_at": "2014-09-22T21:21:05.979932Z",
    "country": "fr",
    "parent": null,
    "longitude": 4.0,
    "latitude": 44.8166999816895,
    "regions": [
      "107a"
    ]
  },
  {
    "code": "16a84",
    "name": "La Chapelle-Hermier",
    "updated_at": "2014-09-22T21:21:05.946059Z",
    "country": "fr",
    "parent": null,
    "longitude": -1.71667003631592,
    "latitude": 46.6833000183105,
    "regions": [
      "1077"
    ]
  },
  {
    "code": "16a83",
    "name": "La Chapelle-Montligeon",
    "updated_at": "2014-09-22T21:21:05.912319Z",
    "country": "fr",
    "parent": null,
    "longitude": 0.649999976158142,
    "latitude": 48.4832992553711,
    "regions": [
      "1334"
    ]
  },
  {
    "code": "16a82",
    "name": "La Chapelle-Neuve",
    "updated_at": "2014-09-22T21:21:05.859965Z",
    "country": "fr",
    "parent": null,
    "longitude": -3.41667008399963,
    "latitude": 48.4667015075684,
    "regions": [
      "106d"
    ]
  },
  {
    "code": "16a81",
    "name": "La Chapelle-Rambaud",
    "updated_at": "2014-09-22T21:21:05.841337Z",
    "country": "fr",
    "parent": null,
    "longitude": 6.25,
    "latitude": 46.0666999816895,
    "regions": []
  },
  {
    "code": "16a80",
    "name": "La Chapelle-Saint-Aubert",
    "updated_at": "2014-09-22T21:21:05.822089Z",
    "country": "fr",
    "parent": null,
    "longitude": -1.29999995231628,
    "latitude": 48.3166999816895,
    "regions": [
      "106d"
    ]
  },
  {
    "code": "16a7f",
    "name": "La Chapelle-Saint-Géraud",
    "updated_at": "2014-09-22T21:21:05.803051Z",
    "country": "fr",
    "parent": null,
    "longitude": 1.96667003631592,
    "latitude": 45.0332984924316,
    "regions": [
      "1073"
    ]
  },
  {
    "code": "16a7e",
    "name": "La Chapelle-Saint-Luc",
    "updated_at": "2014-09-22T21:21:05.763267Z",
    "country": "fr",
    "parent": null,
    "longitude": 4.05000019073486,
    "latitude": 48.3333015441895,
    "regions": [
      "1070"
    ]
  },
  {
    "code": "16a7d",
    "name": "La Chapelle-de-Brain",
    "updated_at": "2014-09-22T21:21:05.737308Z",
    "country": "fr",
    "parent": null,
    "longitude": -1.93333005905151,
    "latitude": 47.7000007629395,
    "regions": [
      "106d"
    ]
  },
  {
    "code": "16a7c",
    "name": "La Chapelle-Saint-Mesmin",
    "updated_at": "2014-09-22T21:21:05.710399Z",
    "country": "fr",
    "parent": null,
    "longitude": 1.83333003520966,
    "latitude": 47.88330078125,
    "regions": [
      "106f"
    ]
  },
  {
    "code": "16a7b",
    "name": "Lachapelle-Saint-Pierre",
    "updated_at": "2014-09-22T21:21:05.674495Z",
    "country": "fr",
    "parent": null,
    "longitude": 2.2333300113678,
    "latitude": 49.2667007446289,
    "regions": [
      "1078"
    ]
  },
  {
    "code": "16a7a",
    "name": "La Chapelle-sous-Brancion",
    "updated_at": "2014-09-22T21:21:05.640080Z",
    "country": "fr",
    "parent": null,
    "longitude": 4.78332996368408,
    "latitude": 46.5499992370605,
    "regions": [
      "106e"
    ]
  },
  {
    "code": "16a79",
    "name": "Lachapelle-sous-Chaux",
    "updated_at": "2014-09-22T21:21:05.611603Z",
    "country": "fr",
    "parent": null,
    "longitude": 6.81666994094849,
    "latitude": 47.7000007629395,
    "regions": [
      "1071"
    ]
  },
  {
    "code": "16a78",
    "name": "La Chapelle-sur-Dun",
    "updated_at": "2014-09-22T21:21:05.593495Z",
    "country": "fr",
    "parent": null,
    "longitude": 0.850000023841858,
    "latitude": 49.86669921875,
    "regions": [
      "1335"
    ]
  },
  {
    "code": "16a77",
    "name": "La Chapelle-sur-Erdre",
    "updated_at": "2014-09-22T21:21:05.572926Z",
    "country": "fr",
    "parent": null,
    "longitude": -1.54999995231628,
    "latitude": 47.2999992370605,
    "regions": [
      "1077"
    ]
  },
  {
    "code": "16a76",
    "name": "La Chapelle-sur-Loire",
    "updated_at": "2014-09-22T21:21:05.553744Z",
    "country": "fr",
    "parent": null,
    "longitude": 0.233333006501198,
    "latitude": 47.25,
    "regions": [
      "106f"
    ]
  },
  {
    "code": "16a75",
    "name": "La Chapelle-sur-Oudon",
    "updated_at": "2014-09-22T21:21:05.534874Z",
    "country": "fr",
    "parent": null,
    "longitude": -0.816667020320892,
    "latitude": 47.6833000183105,
    "regions": [
      "1077"
    ]
  },
  {
    "code": "16a74",
    "name": "La Chapelle-Thireuil",
    "updated_at": "2014-09-22T21:21:05.494335Z",
    "country": "fr",
    "parent": null,
    "longitude": -0.550000011920929,
    "latitude": 46.5666999816895,
    "regions": [
      "1232"
    ]
  },
  {
    "code": "16a73",
    "name": "La Charité",
    "updated_at": "2014-09-22T21:21:05.468301Z",
    "country": "fr",
    "parent": null,
    "longitude": 3.0166699886322,
    "latitude": 47.1833000183105,
    "regions": [
      "106e"
    ]
  },
  {
    "code": "16a72",
    "name": "La Chartre-sur-le-Loir",
    "updated_at": "2014-09-22T21:21:05.444175Z",
    "country": "fr",
    "parent": null,
    "longitude": 0.583333015441895,
    "latitude": 47.7332992553711,
    "regions": [
      "1077"
    ]
  },
  {
    "code": "16a71",
    "name": "La Châtaigneraie",
    "updated_at": "2014-09-22T21:21:05.409269Z",
    "country": "fr",
    "parent": null,
    "longitude": -0.733332991600037,
    "latitude": 46.6500015258789,
    "regions": [
      "1077"
    ]
  },
  {
    "code": "16a70",
    "name": "La Châtre",
    "updated_at": "2014-09-22T21:21:05.373967Z",
    "country": "fr",
    "parent": null,
    "longitude": 1.9833300113678,
    "latitude": 46.5833015441895,
    "regions": [
      "106f"
    ]
  },
  {
    "code": "16a6f",
    "name": "Lachau",
    "updated_at": "2014-09-22T21:21:05.341503Z",
    "country": "fr",
    "parent": null,
    "longitude": 5.65000009536743,
    "latitude": 44.2332992553711,
    "regions": [
      "107a"
    ]
  },
  {
    "code": "16a6e",
    "name": "La Chaudière",
    "updated_at": "2014-09-22T21:21:05.320339Z",
    "country": "fr",
    "parent": null,
    "longitude": 5.21667003631592,
    "latitude": 44.63330078125,
    "regions": [
      "107a"
    ]
  },
  {
    "code": "16a6d",
    "name": "La Chaussée",
    "updated_at": "2014-09-22T21:21:05.300647Z",
    "country": "fr",
    "parent": null,
    "longitude": 0.116667002439499,
    "latitude": 47.1833000183105,
    "regions": []
  },
  {
    "code": "16a6c",
    "name": "La Chaussée-dʼIvry",
    "updated_at": "2014-09-22T21:21:05.280995Z",
    "country": "fr",
    "parent": null,
    "longitude": 1.4833300113678,
    "latitude": 48.88330078125,
    "regions": [
      "106f"
    ]
  },
  {
    "code": "16a6b",
    "name": "La Chaussée-Saint-Victor",
    "updated_at": "2014-09-22T21:21:05.262287Z",
    "country": "fr",
    "parent": null,
    "longitude": 1.36667001247406,
    "latitude": 47.61669921875,
    "regions": [
      "106f"
    ]
  },
  {
    "code": "16a6a",
    "name": "La Chaussée-sur-Marne",
    "updated_at": "2014-09-22T21:21:05.244824Z",
    "country": "fr",
    "parent": null,
    "longitude": 4.51667022705078,
    "latitude": 48.8333015441895,
    "regions": [
      "1070"
    ]
  },
  {
    "code": "16a69",
    "name": "La Chauvais",
    "updated_at": "2014-09-22T21:21:05.216823Z",
    "country": "fr",
    "parent": null,
    "longitude": -1.56666994094849,
    "latitude": 47.3333015441895,
    "regions": [
      "1077"
    ]
  },
  {
    "code": "16a68",
    "name": "Lachaux",
    "updated_at": "2014-09-22T21:21:05.188468Z",
    "country": "fr",
    "parent": null,
    "longitude": 3.59999990463257,
    "latitude": 45.9832992553711,
    "regions": [
      "106c"
    ]
  },
  {
    "code": "16a67",
    "name": "La Chaux-du-Dombief",
    "updated_at": "2014-09-22T21:21:05.129874Z",
    "country": "fr",
    "parent": null,
    "longitude": 5.90000009536743,
    "latitude": 46.5999984741211,
    "regions": [
      "1071"
    ]
  },
  {
    "code": "16a66",
    "name": "La Chaux Neuve",
    "updated_at": "2014-09-22T21:21:05.093395Z",
    "country": "fr",
    "parent": null,
    "longitude": 6.13332986831665,
    "latitude": 46.6833000183105,
    "regions": [
      "1071"
    ]
  },
  {
    "code": "16a65",
    "name": "Lachelle",
    "updated_at": "2014-09-22T21:21:05.063842Z",
    "country": "fr",
    "parent": null,
    "longitude": 2.7333300113678,
    "latitude": 49.4500007629395,
    "regions": [
      "1078"
    ]
  },
  {
    "code": "16a64",
    "name": "La Chevrolière",
    "updated_at": "2014-09-22T21:21:05.045183Z",
    "country": "fr",
    "parent": null,
    "longitude": -1.61667001247406,
    "latitude": 47.0999984741211,
    "regions": [
      "1077"
    ]
  },
  {
    "code": "16a63",
    "name": "La Chèze",
    "updated_at": "2014-09-22T21:21:05.026663Z",
    "country": "fr",
    "parent": null,
    "longitude": -2.65000009536743,
    "latitude": 48.13330078125,
    "regions": [
      "106d"
    ]
  },
  {
    "code": "16a62",
    "name": "La Chomette",
    "updated_at": "2014-09-22T21:21:05.006341Z",
    "country": "fr",
    "parent": null,
    "longitude": 3.4833300113678,
    "latitude": 45.2332992553711,
    "regions": [
      "106c"
    ]
  },
  {
    "code": "16a61",
    "name": "La Ciotat",
    "updated_at": "2014-09-22T21:21:04.986297Z",
    "country": "fr",
    "parent": null,
    "longitude": 5.60541,
    "latitude": 43.17368,
    "regions": [
      "1079"
    ]
  },
  {
    "code": "16a60",
    "name": "La Clusaz",
    "updated_at": "2014-09-22T21:21:04.941547Z",
    "country": "fr",
    "parent": null,
    "longitude": 6.41666984558105,
    "latitude": 45.9000015258789,
    "regions": [
      "107a"
    ]
  },
  {
    "code": "16a5f",
    "name": "La Colle-sur-Loup",
    "updated_at": "2014-09-22T21:21:04.890755Z",
    "country": "fr",
    "parent": null,
    "longitude": 7.10365104670927,
    "latitude": 43.6861655683327,
    "regions": [
      "1079"
    ]
  },
  {
    "code": "16a5e",
    "name": "La Coquille",
    "updated_at": "2014-09-22T21:21:04.855222Z",
    "country": "fr",
    "parent": null,
    "longitude": 0.983332991600037,
    "latitude": 45.5499992370605,
    "regions": [
      "106b"
    ]
  },
  {
    "code": "16a5d",
    "name": "La Côte-dʼAime",
    "updated_at": "2014-09-22T21:21:04.771458Z",
    "country": "fr",
    "parent": null,
    "longitude": 6.66666984558105,
    "latitude": 45.5666999816895,
    "regions": [
      "107a"
    ]
  },
  {
    "code": "16a5c",
    "name": "La Cotinière",
    "updated_at": "2014-09-22T21:21:04.751527Z",
    "country": "fr",
    "parent": null,
    "longitude": -1.32968997955322,
    "latitude": 45.9188995361328,
    "regions": [
      "1232",
      "136a"
    ]
  },
  {
    "code": "16a5b",
    "name": "La Couarde-sur-Mer",
    "updated_at": "2014-09-22T21:21:04.731384Z",
    "country": "fr",
    "parent": null,
    "longitude": -1.39999997615814,
    "latitude": 46.2000007629395,
    "regions": [
      "117d",
      "1232"
    ]
  },
  {
    "code": "16a5a",
    "name": "La Coucourde",
    "updated_at": "2014-09-22T21:21:04.712375Z",
    "country": "fr",
    "parent": null,
    "longitude": 4.78332996368408,
    "latitude": 44.6500015258789,
    "regions": [
      "107a"
    ]
  },
  {
    "code": "16a59",
    "name": "La Coupette",
    "updated_at": "2014-09-22T21:21:04.693238Z",
    "country": "fr",
    "parent": null,
    "longitude": 3.86666989326477,
    "latitude": 44.1666984558105,
    "regions": [
      "1072"
    ]
  },
  {
    "code": "16a58",
    "name": "La Courneuve",
    "updated_at": "2014-09-22T21:21:04.668349Z",
    "country": "fr",
    "parent": null,
    "longitude": 2.38542008399963,
    "latitude": 48.9289016723633,
    "regions": [
      "116b"
    ]
  },
  {
    "code": "16a57",
    "name": "La Couronne",
    "updated_at": "2014-09-22T21:21:04.614027Z",
    "country": "fr",
    "parent": null,
    "longitude": 0.100000001490116,
    "latitude": 45.61669921875,
    "regions": [
      "1232"
    ]
  },
  {
    "code": "16a56",
    "name": "La Couyère",
    "updated_at": "2014-09-22T21:21:04.554050Z",
    "country": "fr",
    "parent": null,
    "longitude": -1.5,
    "latitude": 47.88330078125,
    "regions": [
      "106d"
    ]
  },
  {
    "code": "16a55",
    "name": "La Crau",
    "updated_at": "2014-09-22T21:21:04.520254Z",
    "country": "fr",
    "parent": null,
    "longitude": 6.06666994094849,
    "latitude": 43.1500015258789,
    "regions": [
      "1079"
    ]
  },
  {
    "code": "16a54",
    "name": "Lacres",
    "updated_at": "2014-09-22T21:21:04.499513Z",
    "country": "fr",
    "parent": null,
    "longitude": 1.75,
    "latitude": 50.5999984741211,
    "regions": [
      "1076"
    ]
  },
  {
    "code": "16a53",
    "name": "La Cresse",
    "updated_at": "2014-09-22T21:21:04.481310Z",
    "country": "fr",
    "parent": null,
    "longitude": 3.13333010673523,
    "latitude": 44.1833000183105,
    "regions": [
      "1075"
    ]
  },
  {
    "code": "16a52",
    "name": "La Cride",
    "updated_at": "2014-09-22T21:21:04.462293Z",
    "country": "fr",
    "parent": null,
    "longitude": 5.41666984558105,
    "latitude": 43.6500015258789,
    "regions": []
  },
  {
    "code": "16a51",
    "name": "La Croix-Blanche",
    "updated_at": "2014-09-22T21:21:04.442172Z",
    "country": "fr",
    "parent": null,
    "longitude": 0.683332979679108,
    "latitude": 44.2999992370605,
    "regions": [
      "106b"
    ]
  },
  {
    "code": "16a50",
    "name": "La Croix-en-Touraine",
    "updated_at": "2014-09-22T21:21:04.424511Z",
    "country": "fr",
    "parent": null,
    "longitude": 0.983332991600037,
    "latitude": 47.3333015441895,
    "regions": [
      "106f"
    ]
  },
  {
    "code": "16a4f",
    "name": "La Croix-Saint-Leufroy",
    "updated_at": "2014-09-22T21:21:04.398388Z",
    "country": "fr",
    "parent": null,
    "longitude": 1.25,
    "latitude": 49.11669921875,
    "regions": [
      "1335"
    ]
  },
  {
    "code": "16a4e",
    "name": "Lacroix-sur-Meuse",
    "updated_at": "2014-09-22T21:21:04.371313Z",
    "country": "fr",
    "parent": null,
    "longitude": 5.51667022705078,
    "latitude": 48.9667015075684,
    "regions": [
      "1074"
    ]
  },
  {
    "code": "16a4d",
    "name": "La Croix-Valmer",
    "updated_at": "2014-09-22T21:21:04.342078Z",
    "country": "fr",
    "parent": null,
    "longitude": 6.56666994094849,
    "latitude": 43.2000007629395,
    "regions": [
      "1079"
    ]
  },
  {
    "code": "16a4c",
    "name": "La Cropte",
    "updated_at": "2014-09-22T21:21:04.307085Z",
    "country": "fr",
    "parent": null,
    "longitude": -0.5,
    "latitude": 47.9667015075684,
    "regions": [
      "1077"
    ]
  },
  {
    "code": "16a4b",
    "name": "La Croupte",
    "updated_at": "2014-09-22T21:21:04.241492Z",
    "country": "fr",
    "parent": null,
    "longitude": 0.283333003520966,
    "latitude": 49.0167007446289,
    "regions": [
      "1334"
    ]
  },
  {
    "code": "16a4a",
    "name": "Lacrouzette",
    "updated_at": "2014-09-22T21:21:04.221770Z",
    "country": "fr",
    "parent": null,
    "longitude": 2.34999990463257,
    "latitude": 43.6666984558105,
    "regions": [
      "1075"
    ]
  },
  {
    "code": "16a49",
    "name": "La Crouzille",
    "updated_at": "2014-09-22T21:21:04.202090Z",
    "country": "fr",
    "parent": null,
    "longitude": 2.75,
    "latitude": 46.1833000183105,
    "regions": [
      "106c"
    ]
  },
  {
    "code": "16a48",
    "name": "La Daguenière",
    "updated_at": "2014-09-22T21:21:04.182337Z",
    "country": "fr",
    "parent": null,
    "longitude": -0.43333300948143,
    "latitude": 47.4166984558105,
    "regions": [
      "1077"
    ]
  },
  {
    "code": "16a47",
    "name": "Ladern-sur-Lauquet",
    "updated_at": "2014-09-22T21:21:04.163239Z",
    "country": "fr",
    "parent": null,
    "longitude": 2.34999990463257,
    "latitude": 43.11669921875,
    "regions": [
      "1072"
    ]
  },
  {
    "code": "16a46",
    "name": "La Destrousse",
    "updated_at": "2014-09-22T21:21:04.144607Z",
    "country": "fr",
    "parent": null,
    "longitude": 5.60646629193798,
    "latitude": 43.3769428128952,
    "regions": [
      "1079"
    ]
  },
  {
    "code": "16a45",
    "name": "Ladevèze-Rivière",
    "updated_at": "2014-09-22T21:21:04.119059Z",
    "country": "fr",
    "parent": null,
    "longitude": 0.0833332985639572,
    "latitude": 43.5499992370605,
    "regions": [
      "1075"
    ]
  },
  {
    "code": "16a44",
    "name": "Ladignac-le-Long",
    "updated_at": "2014-09-22T21:21:04.092934Z",
    "country": "fr",
    "parent": null,
    "longitude": 1.11667001247406,
    "latitude": 45.5833015441895,
    "regions": [
      "1073"
    ]
  },
  {
    "code": "16a43",
    "name": "Ladinhac",
    "updated_at": "2014-09-22T21:21:04.064906Z",
    "country": "fr",
    "parent": null,
    "longitude": 2.5166699886322,
    "latitude": 44.75,
    "regions": [
      "106c"
    ]
  },
  {
    "code": "16a42",
    "name": "La Dornac",
    "updated_at": "2014-09-22T21:21:04.029385Z",
    "country": "fr",
    "parent": null,
    "longitude": 1.35000002384186,
    "latitude": 45.0833015441895,
    "regions": [
      "106b"
    ]
  },
  {
    "code": "16a41",
    "name": "La Douze",
    "updated_at": "2014-09-22T21:21:03.993904Z",
    "country": "fr",
    "parent": null,
    "longitude": 0.866666972637177,
    "latitude": 45.0666999816895,
    "regions": [
      "106b"
    ]
  },
  {
    "code": "16a40",
    "name": "Lafare",
    "updated_at": "2014-09-22T21:21:03.951229Z",
    "country": "fr",
    "parent": null,
    "longitude": 5.05000019073486,
    "latitude": 44.1500015258789,
    "regions": [
      "1079"
    ]
  },
  {
    "code": "16a3f",
    "name": "La Fare-les-Oliviers",
    "updated_at": "2014-09-22T21:21:03.933135Z",
    "country": "fr",
    "parent": null,
    "longitude": 5.18333005905151,
    "latitude": 43.5499992370605,
    "regions": [
      "1079"
    ]
  },
  {
    "code": "16a3e",
    "name": "La Farlède",
    "updated_at": "2014-09-22T21:21:03.913887Z",
    "country": "fr",
    "parent": null,
    "longitude": 6.03332996368408,
    "latitude": 43.1666984558105,
    "regions": [
      "1079"
    ]
  },
  {
    "code": "16a3d",
    "name": "La Faurie",
    "updated_at": "2014-09-22T21:21:03.895148Z",
    "country": "fr",
    "parent": null,
    "longitude": 5.73332977294922,
    "latitude": 44.5666999816895,
    "regions": [
      "1079"
    ]
  },
  {
    "code": "16a3c",
    "name": "La Faute-sur-Mer",
    "updated_at": "2014-09-22T21:21:03.876654Z",
    "country": "fr",
    "parent": null,
    "longitude": -1.31666994094849,
    "latitude": 46.3166999816895,
    "regions": [
      "1077"
    ]
  },
  {
    "code": "16a3b",
    "name": "La Favière",
    "updated_at": "2014-09-22T21:21:03.850350Z",
    "country": "fr",
    "parent": null,
    "longitude": 6.35555076529272,
    "latitude": 43.1248990842496,
    "regions": [
      "1079"
    ]
  },
  {
    "code": "16a3a",
    "name": "La Ferrière",
    "updated_at": "2014-09-22T21:21:03.824228Z",
    "country": "fr",
    "parent": null,
    "longitude": 6.08333015441895,
    "latitude": 45.3166999816895,
    "regions": [
      "107a"
    ]
  },
  {
    "code": "16a39",
    "name": "La Ferté-Bernard",
    "updated_at": "2014-09-22T21:21:03.761458Z",
    "country": "fr",
    "parent": null,
    "longitude": 0.666666984558105,
    "latitude": 48.1833000183105,
    "regions": [
      "1077"
    ]
  },
  {
    "code": "16a38",
    "name": "La Ferté-Frênel",
    "updated_at": "2014-09-22T21:21:03.725975Z",
    "country": "fr",
    "parent": null,
    "longitude": 0.5,
    "latitude": 48.8333015441895,
    "regions": [
      "1334"
    ]
  },
  {
    "code": "16a37",
    "name": "La Ferté-Gaucher",
    "updated_at": "2014-09-22T21:21:03.702765Z",
    "country": "fr",
    "parent": null,
    "longitude": 3.29999995231628,
    "latitude": 48.7832984924316,
    "regions": [
      "116b"
    ]
  },
  {
    "code": "16a36",
    "name": "La Ferté-Hauterive",
    "updated_at": "2014-09-22T21:21:03.684671Z",
    "country": "fr",
    "parent": null,
    "longitude": 3.33332991600037,
    "latitude": 46.4000015258789,
    "regions": [
      "106c"
    ]
  },
  {
    "code": "16a35",
    "name": "La Ferté-Imbault",
    "updated_at": "2014-09-22T21:21:03.666404Z",
    "country": "fr",
    "parent": null,
    "longitude": 1.96667003631592,
    "latitude": 47.38330078125,
    "regions": [
      "106f"
    ]
  },
  {
    "code": "16a34",
    "name": "La Ferté-Saint-Aubin",
    "updated_at": "2014-09-22T21:21:03.628279Z",
    "country": "fr",
    "parent": null,
    "longitude": 1.93333005905151,
    "latitude": 47.7167015075684,
    "regions": [
      "106f"
    ]
  },
  {
    "code": "16a33",
    "name": "La Ferté-Saint-Cyr",
    "updated_at": "2014-09-22T21:21:03.606305Z",
    "country": "fr",
    "parent": null,
    "longitude": 1.66666996479034,
    "latitude": 47.6500015258789,
    "regions": [
      "106f"
    ]
  },
  {
    "code": "16a32",
    "name": "La Ferté-sous-Jouarre",
    "updated_at": "2014-09-22T21:21:03.578351Z",
    "country": "fr",
    "parent": null,
    "longitude": 3.13333010673523,
    "latitude": 48.9500007629395,
    "regions": [
      "116b"
    ]
  },
  {
    "code": "16a31",
    "name": "Laferté-sur-Aube",
    "updated_at": "2014-09-22T21:21:03.549098Z",
    "country": "fr",
    "parent": null,
    "longitude": 4.78332996368408,
    "latitude": 48.0999984741211,
    "regions": [
      "1070"
    ]
  },
  {
    "code": "16a30",
    "name": "La Feuillie",
    "updated_at": "2014-09-22T21:21:03.516708Z",
    "country": "fr",
    "parent": null,
    "longitude": -1.4833300113678,
    "latitude": 49.1833000183105,
    "regions": [
      "1334"
    ]
  },
  {
    "code": "16a2f",
    "name": "La Flèche",
    "updated_at": "2014-09-22T21:21:03.481457Z",
    "country": "fr",
    "parent": null,
    "longitude": -0.0833332985639572,
    "latitude": 47.7000007629395,
    "regions": [
      "1077"
    ]
  },
  {
    "code": "16a2e",
    "name": "La Flocellière",
    "updated_at": "2014-09-22T21:21:03.447157Z",
    "country": "fr",
    "parent": null,
    "longitude": -0.866666972637177,
    "latitude": 46.8333015441895,
    "regions": [
      "1077"
    ]
  },
  {
    "code": "16a2d",
    "name": "La Flotte",
    "updated_at": "2014-09-22T21:21:03.426655Z",
    "country": "fr",
    "parent": null,
    "longitude": -1.33333003520966,
    "latitude": 46.1833000183105,
    "regions": [
      "117d",
      "1232"
    ]
  },
  {
    "code": "16a2c",
    "name": "La Force",
    "updated_at": "2014-09-22T21:21:03.408363Z",
    "country": "fr",
    "parent": null,
    "longitude": 2.09999990463257,
    "latitude": 43.2000007629395,
    "regions": [
      "1072"
    ]
  },
  {
    "code": "16a2b",
    "name": "La Forclaz",
    "updated_at": "2014-09-22T21:21:03.389250Z",
    "country": "fr",
    "parent": null,
    "longitude": 6.61667013168335,
    "latitude": 46.3166999816895,
    "regions": [
      "107a"
    ]
  },
  {
    "code": "16a2a",
    "name": "La Forêt-Fouesnant",
    "updated_at": "2014-09-22T21:21:03.369268Z",
    "country": "fr",
    "parent": null,
    "longitude": -3.9833300113678,
    "latitude": 47.9166984558105,
    "regions": [
      "106d"
    ]
  },
  {
    "code": "16a29",
    "name": "La Fosse-de-Tigné",
    "updated_at": "2014-09-22T21:21:03.349045Z",
    "country": "fr",
    "parent": null,
    "longitude": -0.43333300948143,
    "latitude": 47.1833000183105,
    "regions": [
      "1077"
    ]
  },
  {
    "code": "16a28",
    "name": "La Fouillade",
    "updated_at": "2014-09-22T21:21:03.322940Z",
    "country": "fr",
    "parent": null,
    "longitude": 2.04999995231628,
    "latitude": 44.2332992553711,
    "regions": [
      "1075"
    ]
  },
  {
    "code": "16a27",
    "name": "La Fouillouse",
    "updated_at": "2014-09-22T21:21:03.296818Z",
    "country": "fr",
    "parent": null,
    "longitude": 4.31666994094849,
    "latitude": 45.5,
    "regions": [
      "107a"
    ]
  },
  {
    "code": "16a26",
    "name": "La Foux",
    "updated_at": "2014-09-22T21:21:03.244065Z",
    "country": "fr",
    "parent": null,
    "longitude": 6.56666994094849,
    "latitude": 44.2832984924316,
    "regions": [
      "1079"
    ]
  },
  {
    "code": "16a25",
    "name": "Lafox",
    "updated_at": "2014-09-22T21:21:03.208475Z",
    "country": "fr",
    "parent": null,
    "longitude": 0.699999988079071,
    "latitude": 44.1666984558105,
    "regions": [
      "106b"
    ]
  },
  {
    "code": "16a24",
    "name": "Lafrançaise",
    "updated_at": "2014-09-22T21:21:03.170738Z",
    "country": "fr",
    "parent": null,
    "longitude": 1.25,
    "latitude": 44.13330078125,
    "regions": [
      "1075"
    ]
  },
  {
    "code": "16a23",
    "name": "La Franqui-Plage",
    "updated_at": "2014-09-22T21:21:03.151138Z",
    "country": "fr",
    "parent": null,
    "longitude": 3.03332996368408,
    "latitude": 42.9333000183105,
    "regions": [
      "1072"
    ]
  },
  {
    "code": "16a22",
    "name": "La Freissinouse",
    "updated_at": "2014-09-22T21:21:03.131407Z",
    "country": "fr",
    "parent": null,
    "longitude": 6.01667022705078,
    "latitude": 44.5332984924316,
    "regions": [
      "1079"
    ]
  },
  {
    "code": "16a21",
    "name": "La Fresnais",
    "updated_at": "2014-09-22T21:21:03.112632Z",
    "country": "fr",
    "parent": null,
    "longitude": -1.85000002384186,
    "latitude": 48.5999984741211,
    "regions": [
      "106d"
    ]
  },
  {
    "code": "16a20",
    "name": "Fercé",
    "updated_at": "2014-09-22T21:21:03.092509Z",
    "country": "fr",
    "parent": null,
    "longitude": -1.35000002384186,
    "latitude": 47.7832984924316,
    "regions": [
      "1077"
    ]
  },
  {
    "code": "16a1f",
    "name": "La Gacilly",
    "updated_at": "2014-09-22T21:21:03.072523Z",
    "country": "fr",
    "parent": null,
    "longitude": -2.15000009536743,
    "latitude": 47.7667007446289,
    "regions": [
      "106d"
    ]
  },
  {
    "code": "16a1e",
    "name": "La Garde",
    "updated_at": "2014-09-22T21:21:03.052069Z",
    "country": "fr",
    "parent": null,
    "longitude": 6.01569986343384,
    "latitude": 43.1254997253418,
    "regions": [
      "1079"
    ]
  },
  {
    "code": "16a1d",
    "name": "La Garde",
    "updated_at": "2014-09-22T21:21:03.025959Z",
    "country": "fr",
    "parent": null,
    "longitude": 3.2467200756073,
    "latitude": 44.8819999694824,
    "regions": [
      "1072"
    ]
  },
  {
    "code": "16a1c",
    "name": "La Garde",
    "updated_at": "2014-09-22T21:21:02.999312Z",
    "country": "fr",
    "parent": null,
    "longitude": 6.03332996368408,
    "latitude": 45.0666999816895,
    "regions": [
      "107a"
    ]
  },
  {
    "code": "16a1b",
    "name": "Le Garde",
    "updated_at": "2014-09-22T21:21:02.963227Z",
    "country": "fr",
    "parent": null,
    "longitude": -0.266667008399963,
    "latitude": 45.25,
    "regions": []
  },
  {
    "code": "16a1a",
    "name": "La Garde-Adhémar",
    "updated_at": "2014-09-22T21:21:02.926063Z",
    "country": "fr",
    "parent": null,
    "longitude": 4.75,
    "latitude": 44.4000015258789,
    "regions": [
      "107a"
    ]
  },
  {
    "code": "16a19",
    "name": "La Garde-Freinet",
    "updated_at": "2014-09-22T21:21:02.892749Z",
    "country": "fr",
    "parent": null,
    "longitude": 6.46667003631592,
    "latitude": 43.3166999816895,
    "regions": [
      "1079"
    ]
  },
  {
    "code": "16a18",
    "name": "Lagardelle-sur-Lèze",
    "updated_at": "2014-09-22T21:21:02.870967Z",
    "country": "fr",
    "parent": null,
    "longitude": 1.38332998752594,
    "latitude": 43.4166984558105,
    "regions": [
      "1075"
    ]
  },
  {
    "code": "16a17",
    "name": "Lagarde-Paréol",
    "updated_at": "2014-09-22T21:21:02.849223Z",
    "country": "fr",
    "parent": null,
    "longitude": 4.84999990463257,
    "latitude": 44.2167015075684,
    "regions": []
  },
  {
    "code": "16a16",
    "name": "La Garenne-Colombes",
    "updated_at": "2014-09-22T21:21:02.827406Z",
    "country": "fr",
    "parent": null,
    "longitude": 2.25,
    "latitude": 48.9000015258789,
    "regions": [
      "116b"
    ]
  },
  {
    "code": "16a15",
    "name": "La Garonnette-Plage",
    "updated_at": "2014-09-22T21:21:02.784881Z",
    "country": "fr",
    "parent": null,
    "longitude": 6.67704963649157,
    "latitude": 43.3399334309857,
    "regions": [
      "1079"
    ]
  },
  {
    "code": "16a14",
    "name": "Lagarrigue",
    "updated_at": "2014-09-22T21:21:02.753279Z",
    "country": "fr",
    "parent": null,
    "longitude": 2.28332996368408,
    "latitude": 43.5666999816895,
    "regions": [
      "1075"
    ]
  },
  {
    "code": "16a13",
    "name": "La Gaude",
    "updated_at": "2014-09-22T21:21:02.696665Z",
    "country": "fr",
    "parent": null,
    "longitude": 7.15124416346953,
    "latitude": 43.7224017938344,
    "regions": [
      "1079"
    ]
  },
  {
    "code": "16a12",
    "name": "La Genétouze",
    "updated_at": "2014-09-22T21:21:02.659048Z",
    "country": "fr",
    "parent": null,
    "longitude": -0.0166666992008686,
    "latitude": 45.2167015075684,
    "regions": [
      "1232"
    ]
  },
  {
    "code": "16a11",
    "name": "La Génevraie",
    "updated_at": "2014-09-22T21:21:02.621476Z",
    "country": "fr",
    "parent": null,
    "longitude": 0.31666699051857,
    "latitude": 48.6833000183105,
    "regions": []
  },
  {
    "code": "16a10",
    "name": "La Giettaz",
    "updated_at": "2014-09-22T21:21:02.597462Z",
    "country": "fr",
    "parent": null,
    "longitude": 6.5,
    "latitude": 45.86669921875,
    "regions": [
      "107a"
    ]
  },
  {
    "code": "16a0f",
    "name": "La Glacerie",
    "updated_at": "2014-09-22T21:21:02.575934Z",
    "country": "fr",
    "parent": null,
    "longitude": -1.56666994094849,
    "latitude": 49.5999984741211,
    "regions": [
      "1334"
    ]
  },
  {
    "code": "16a0e",
    "name": "Lagnes",
    "updated_at": "2014-09-22T21:21:02.533132Z",
    "country": "fr",
    "parent": null,
    "longitude": 5.11667013168335,
    "latitude": 43.9000015258789,
    "regions": [
      "1079"
    ]
  },
  {
    "code": "16a0d",
    "name": "Lagnieu",
    "updated_at": "2014-09-22T21:21:02.510929Z",
    "country": "fr",
    "parent": null,
    "longitude": 5.34999990463257,
    "latitude": 45.9000015258789,
    "regions": [
      "107a"
    ]
  },
  {
    "code": "16a0c",
    "name": "Lagny",
    "updated_at": "2014-09-22T21:21:02.488560Z",
    "country": "fr",
    "parent": null,
    "longitude": 2.71667003631592,
    "latitude": 48.86669921875,
    "regions": [
      "116b"
    ]
  },
  {
    "code": "16a0b",
    "name": "La Godivelle",
    "updated_at": "2014-09-22T21:21:02.458718Z",
    "country": "fr",
    "parent": null,
    "longitude": 2.93333005905151,
    "latitude": 45.38330078125,
    "regions": [
      "106c"
    ]
  },
  {
    "code": "16a0a",
    "name": "Lagorce",
    "updated_at": "2014-09-22T21:21:02.428673Z",
    "country": "fr",
    "parent": null,
    "longitude": 4.41666984558105,
    "latitude": 44.4500007629395,
    "regions": [
      "107a"
    ]
  },
  {
    "code": "16a09",
    "name": "Lagord",
    "updated_at": "2014-09-22T21:21:02.361995Z",
    "country": "fr",
    "parent": null,
    "longitude": -1.13332998752594,
    "latitude": 46.1833000183105,
    "regions": [
      "1232"
    ]
  },
  {
    "code": "16a08",
    "name": "La Goubette",
    "updated_at": "2014-09-22T21:21:02.323750Z",
    "country": "fr",
    "parent": null,
    "longitude": 5.0,
    "latitude": 45.0499992370605,
    "regions": [
      "107a"
    ]
  },
  {
    "code": "16a07",
    "name": "La Gouesnière",
    "updated_at": "2014-09-22T21:21:02.297169Z",
    "country": "fr",
    "parent": null,
    "longitude": -1.89999997615814,
    "latitude": 48.61669921875,
    "regions": [
      "106d"
    ]
  },
  {
    "code": "16a06",
    "name": "La GrandʼCombe",
    "updated_at": "2014-09-22T21:21:02.255334Z",
    "country": "fr",
    "parent": null,
    "longitude": 4.03332996368408,
    "latitude": 44.2167015075684,
    "regions": [
      "1072"
    ]
  },
  {
    "code": "16a05",
    "name": "La Grande-Motte",
    "updated_at": "2016-02-09T09:32:30.884365Z",
    "country": "fr",
    "parent": null,
    "longitude": 4.08333015441895,
    "latitude": 43.5666999816895,
    "regions": [
      "1072"
    ]
  },
  {
    "code": "16a04",
    "name": "La Grande-Verrière",
    "updated_at": "2014-09-22T21:21:02.214226Z",
    "country": "fr",
    "parent": null,
    "longitude": 4.13332986831665,
    "latitude": 46.9667015075684,
    "regions": [
      "106e"
    ]
  },
  {
    "code": "16a03",
    "name": "Lagrasse",
    "updated_at": "2014-09-22T21:21:02.193515Z",
    "country": "fr",
    "parent": null,
    "longitude": 2.61666989326477,
    "latitude": 43.0999984741211,
    "regions": [
      "1072"
    ]
  },
  {
    "code": "16a02",
    "name": "Lagraulière",
    "updated_at": "2014-09-22T21:21:02.166591Z",
    "country": "fr",
    "parent": null,
    "longitude": 1.63332998752594,
    "latitude": 45.3499984741211,
    "regions": [
      "1073"
    ]
  },
  {
    "code": "16a01",
    "name": "Lagrave",
    "updated_at": "2014-09-22T21:21:02.139900Z",
    "country": "fr",
    "parent": null,
    "longitude": 2.0,
    "latitude": 43.9000015258789,
    "regions": [
      "1075"
    ]
  },
  {
    "code": "16a00",
    "name": "La Grave",
    "updated_at": "2014-09-22T21:21:02.108663Z",
    "country": "fr",
    "parent": null,
    "longitude": 6.30000019073486,
    "latitude": 45.0499992370605,
    "regions": [
      "1079"
    ]
  },