[
  {
    "code": "1e4a5",
    "name": "Clarksdale",
    "updated_at": "2014-09-22T21:40:00.038612Z",
    "country": "us",
    "parent": null,
    "longitude": -90.57080078125,
    "latitude": 34.2000007629395,
    "regions": [
      "12ea"
    ]
  },
  {
    "code": "1e4a4",
    "name": "Canton",
    "updated_at": "2014-09-22T21:40:00.011330Z",
    "country": "us",
    "parent": null,
    "longitude": -90.0366973876953,
    "latitude": 32.6124992370605,
    "regions": [
      "12ea"
    ]
  },
  {
    "code": "1e4a3",
    "name": "Byram",
    "updated_at": "2014-09-22T21:39:59.984040Z",
    "country": "us",
    "parent": null,
    "longitude": -90.2453002929688,
    "latitude": 32.17919921875,
    "regions": [
      "12ea"
    ]
  },
  {
    "code": "1e4a2",
    "name": "Byhalia",
    "updated_at": "2014-09-22T21:39:59.954726Z",
    "country": "us",
    "parent": null,
    "longitude": -89.6905975341797,
    "latitude": 34.872200012207,
    "regions": [
      "12ea"
    ]
  },
  {
    "code": "1e4a1",
    "name": "Brookhaven",
    "updated_at": "2014-09-22T21:39:59.917734Z",
    "country": "us",
    "parent": null,
    "longitude": -90.4405975341797,
    "latitude": 31.5788993835449,
    "regions": [
      "12ea"
    ]
  },
  {
    "code": "1e4a0",
    "name": "Brandon",
    "updated_at": "2014-09-22T21:39:59.886815Z",
    "country": "us",
    "parent": null,
    "longitude": -89.9858016967773,
    "latitude": 32.2731018066406,
    "regions": [
      "12ea"
    ]
  },
  {
    "code": "1e49f",
    "name": "Biloxi",
    "updated_at": "2014-09-22T21:39:59.850821Z",
    "country": "us",
    "parent": null,
    "longitude": -88.8852996826172,
    "latitude": 30.3957996368408,
    "regions": [
      "12ea"
    ]
  },
  {
    "code": "1e49e",
    "name": "Bay Saint Louis",
    "updated_at": "2014-09-22T21:39:59.770229Z",
    "country": "us",
    "parent": null,
    "longitude": -89.3300018310547,
    "latitude": 30.3085994720459,
    "regions": [
      "12ea"
    ]
  },
  {
    "code": "1e49d",
    "name": "Batesville",
    "updated_at": "2014-09-22T21:39:59.737475Z",
    "country": "us",
    "parent": null,
    "longitude": -89.9441986083984,
    "latitude": 34.3114013671875,
    "regions": [
      "12ea"
    ]
  },
  {
    "code": "1e49c",
    "name": "Aberdeen",
    "updated_at": "2014-09-22T21:39:59.684722Z",
    "country": "us",
    "parent": null,
    "longitude": -88.5436019897461,
    "latitude": 33.8250007629395,
    "regions": [
      "12ea"
    ]
  },
  {
    "code": "1e49b",
    "name": "Worthington",
    "updated_at": "2014-09-22T21:39:59.657378Z",
    "country": "us",
    "parent": null,
    "longitude": -95.5960998535156,
    "latitude": 43.6199989318848,
    "regions": [
      "12e9"
    ]
  },
  {
    "code": "1e49a",
    "name": "Woodbury",
    "updated_at": "2014-09-22T21:39:59.630050Z",
    "country": "us",
    "parent": null,
    "longitude": -92.9591979980469,
    "latitude": 44.923900604248,
    "regions": [
      "12e9"
    ]
  },
  {
    "code": "1e499",
    "name": "Winona",
    "updated_at": "2014-09-22T21:39:59.602285Z",
    "country": "us",
    "parent": null,
    "longitude": -91.6391983032227,
    "latitude": 44.0499992370605,
    "regions": [
      "12e9"
    ]
  },
  {
    "code": "1e498",
    "name": "Windom",
    "updated_at": "2014-09-22T21:39:59.566721Z",
    "country": "us",
    "parent": null,
    "longitude": -95.11669921875,
    "latitude": 43.8664016723633,
    "regions": []
  },
  {
    "code": "1e497",
    "name": "Willmar",
    "updated_at": "2014-09-22T21:39:59.530169Z",
    "country": "us",
    "parent": null,
    "longitude": -95.043098449707,
    "latitude": 45.121898651123,
    "regions": [
      "12e9"
    ]
  },
  {
    "code": "1e496",
    "name": "Wilkinson",
    "updated_at": "2014-09-22T21:39:59.492390Z",
    "country": "us",
    "parent": null,
    "longitude": -94.6275024414062,
    "latitude": 47.2508010864258,
    "regions": [
      "12e9"
    ]
  },
  {
    "code": "1e495",
    "name": "White Bear Lake",
    "updated_at": "2014-09-22T21:39:59.446660Z",
    "country": "us",
    "parent": null,
    "longitude": -93.0096969604492,
    "latitude": 45.0847015380859,
    "regions": [
      "12e9"
    ]
  },
  {
    "code": "1e494",
    "name": "Whipholt",
    "updated_at": "2014-09-22T21:39:59.400224Z",
    "country": "us",
    "parent": null,
    "longitude": -94.3649978637695,
    "latitude": 47.048900604248,
    "regions": [
      "12e9"
    ]
  },
  {
    "code": "1e493",
    "name": "West Fargo",
    "updated_at": "2014-09-22T21:39:59.367015Z",
    "country": "us",
    "parent": null,
    "longitude": -96.872200012207,
    "latitude": 46.8767013549805,
    "regions": [
      "12ee"
    ]
  },
  {
    "code": "1e492",
    "name": "Waseca",
    "updated_at": "2014-09-22T21:39:59.311469Z",
    "country": "us",
    "parent": null,
    "longitude": -93.5072021484375,
    "latitude": 44.0778007507324,
    "regions": [
      "12e9"
    ]
  },
  {
    "code": "1e491",
    "name": "Warroad",
    "updated_at": "2014-09-22T21:39:59.282793Z",
    "country": "us",
    "parent": null,
    "longitude": -95.3142013549805,
    "latitude": 48.9053001403809,
    "regions": []
  },
  {
    "code": "1e490",
    "name": "Walker",
    "updated_at": "2014-09-22T21:39:59.253728Z",
    "country": "us",
    "parent": null,
    "longitude": -94.5868988037109,
    "latitude": 47.1013984680176,
    "regions": [
      "12e9"
    ]
  },
  {
    "code": "1e48f",
    "name": "Waite Park",
    "updated_at": "2014-09-22T21:39:59.190941Z",
    "country": "us",
    "parent": null,
    "longitude": -94.2238998413086,
    "latitude": 45.557201385498,
    "regions": [
      "12e9"
    ]
  },
  {
    "code": "1e48e",
    "name": "Waconia",
    "updated_at": "2014-09-22T21:39:59.148253Z",
    "country": "us",
    "parent": null,
    "longitude": -93.7866973876953,
    "latitude": 44.8507995605469,
    "regions": [
      "12e9"
    ]
  },
  {
    "code": "1e48d",
    "name": "Virginia",
    "updated_at": "2014-09-22T21:39:59.104646Z",
    "country": "us",
    "parent": null,
    "longitude": -92.5363998413086,
    "latitude": 47.5233001708984,
    "regions": [
      "12e9"
    ]
  },
  {
    "code": "1e48c",
    "name": "Two Harbors",
    "updated_at": "2014-09-22T21:39:59.024219Z",
    "country": "us",
    "parent": null,
    "longitude": -91.6706008911133,
    "latitude": 47.0228004455566,
    "regions": [
      "12e9"
    ]
  },
  {
    "code": "1e48b",
    "name": "Tofte",
    "updated_at": "2014-09-22T21:39:58.984290Z",
    "country": "us",
    "parent": null,
    "longitude": -90.8360977172852,
    "latitude": 47.5738983154297,
    "regions": [
      "12e9"
    ]
  },
  {
    "code": "1e48a",
    "name": "Thief River Falls",
    "updated_at": "2014-09-22T21:39:58.956649Z",
    "country": "us",
    "parent": null,
    "longitude": -96.1808013916016,
    "latitude": 48.1192016601562,
    "regions": [
      "12e9"
    ]
  },
  {
    "code": "1e489",
    "name": "Stillwater",
    "updated_at": "2014-09-22T21:39:58.927034Z",
    "country": "us",
    "parent": null,
    "longitude": -92.8058013916016,
    "latitude": 45.0564002990723,
    "regions": [
      "12e9"
    ]
  },
  {
    "code": "1e488",
    "name": "Stewartville",
    "updated_at": "2014-09-22T21:39:58.894759Z",
    "country": "us",
    "parent": null,
    "longitude": -92.4882965087891,
    "latitude": 43.855598449707,
    "regions": [
      "12e9"
    ]
  },
  {
    "code": "1e487",
    "name": "Springfield",
    "updated_at": "2014-09-22T21:39:58.832800Z",
    "country": "us",
    "parent": null,
    "longitude": -94.9756011962891,
    "latitude": 44.238899230957,
    "regions": [
      "12e9"
    ]
  },
  {
    "code": "1e486",
    "name": "Spring Valley",
    "updated_at": "2014-09-22T21:39:58.788124Z",
    "country": "us",
    "parent": null,
    "longitude": -92.3889007568359,
    "latitude": 43.6869010925293,
    "regions": [
      "12e9"
    ]
  },
  {
    "code": "1e485",
    "name": "South Saint Paul",
    "updated_at": "2014-09-22T21:39:58.744409Z",
    "country": "us",
    "parent": null,
    "longitude": -93.0346984863281,
    "latitude": 44.8927993774414,
    "regions": [
      "12e9"
    ]
  },
  {
    "code": "1e484",
    "name": "Shoreview",
    "updated_at": "2014-09-22T21:39:58.702938Z",
    "country": "us",
    "parent": null,
    "longitude": -93.1468963623047,
    "latitude": 45.0792007446289,
    "regions": [
      "12e9"
    ]
  },
  {
    "code": "1e483",
    "name": "Shakopee",
    "updated_at": "2014-09-22T21:39:58.662100Z",
    "country": "us",
    "parent": null,
    "longitude": -93.5267028808594,
    "latitude": 44.7980995178223,
    "regions": [
      "12e9"
    ]
  },
  {
    "code": "1e482",
    "name": "Sauk Centre",
    "updated_at": "2014-09-22T21:39:58.572836Z",
    "country": "us",
    "parent": null,
    "longitude": -94.9522018432617,
    "latitude": 45.7374992370605,
    "regions": [
      "12e9"
    ]
  },
  {
    "code": "1e481",
    "name": "Saint Peter",
    "updated_at": "2014-09-22T21:39:58.540764Z",
    "country": "us",
    "parent": null,
    "longitude": -93.9578018188477,
    "latitude": 44.323600769043,
    "regions": [
      "12e9"
    ]
  },
  {
    "code": "1e480",
    "name": "Saint Paul",
    "updated_at": "2014-09-22T21:39:58.510942Z",
    "country": "us",
    "parent": null,
    "longitude": -93.0931015014648,
    "latitude": 44.9444007873535,
    "regions": [
      "12e9"
    ]
  },
  {
    "code": "1e47f",
    "name": "Saint Louis Park",
    "updated_at": "2014-09-22T21:39:58.477840Z",
    "country": "us",
    "parent": null,
    "longitude": -93.3478012084961,
    "latitude": 44.948299407959,
    "regions": [
      "12e9"
    ]
  },
  {
    "code": "1e47e",
    "name": "Saint Joseph",
    "updated_at": "2014-09-22T21:39:58.403893Z",
    "country": "us",
    "parent": null,
    "longitude": -94.3180999755859,
    "latitude": 45.564998626709,
    "regions": [
      "12e9"
    ]
  },
  {
    "code": "1e47d",
    "name": "Saint James",
    "updated_at": "2014-09-22T21:39:58.326590Z",
    "country": "us",
    "parent": null,
    "longitude": -94.6267013549805,
    "latitude": 43.9824981689453,
    "regions": [
      "12e9"
    ]
  },
  {
    "code": "1e47c",
    "name": "Saint Cloud",
    "updated_at": "2014-09-22T21:39:58.256207Z",
    "country": "us",
    "parent": null,
    "longitude": -94.1622009277344,
    "latitude": 45.5607986450195,
    "regions": [
      "12e9"
    ]
  },
  {
    "code": "1e47b",
    "name": "Roseville",
    "updated_at": "2014-09-22T21:39:58.209942Z",
    "country": "us",
    "parent": null,
    "longitude": -93.1564025878906,
    "latitude": 45.0060997009277,
    "regions": [
      "12e9"
    ]
  },
  {
    "code": "1e47a",
    "name": "Roseau",
    "updated_at": "2014-09-22T21:39:58.176324Z",
    "country": "us",
    "parent": null,
    "longitude": -95.7624969482422,
    "latitude": 48.8460998535156,
    "regions": [
      "12e9"
    ]
  },
  {
    "code": "1e479",
    "name": "Rogers",
    "updated_at": "2014-09-22T21:39:58.144969Z",
    "country": "us",
    "parent": null,
    "longitude": -93.5528030395508,
    "latitude": 45.1888999938965,
    "regions": [
      "12e9"
    ]
  },
  {
    "code": "1e478",
    "name": "Rochester",
    "updated_at": "2014-09-22T21:39:58.115763Z",
    "country": "us",
    "parent": null,
    "longitude": -92.4697036743164,
    "latitude": 44.0217018127441,
    "regions": [
      "12e9"
    ]
  },
  {
    "code": "1e477",
    "name": "Richfield",
    "updated_at": "2014-09-22T21:39:58.059067Z",
    "country": "us",
    "parent": null,
    "longitude": -93.2827987670898,
    "latitude": 44.88330078125,
    "regions": [
      "12e9"
    ]
  },
  {
    "code": "1e476",
    "name": "Red Wing",
    "updated_at": "2014-09-22T21:39:57.992177Z",
    "country": "us",
    "parent": null,
    "longitude": -92.5335998535156,
    "latitude": 44.5625,
    "regions": [
      "12e9"
    ]
  },
  {
    "code": "1e475",
    "name": "Ramsey",
    "updated_at": "2014-09-22T21:39:57.958003Z",
    "country": "us",
    "parent": null,
    "longitude": -93.4518966674805,
    "latitude": 45.2461013793945,
    "regions": [
      "12e9"
    ]
  },
  {
    "code": "1e474",
    "name": "Plymouth",
    "updated_at": "2014-09-22T21:39:57.866836Z",
    "country": "us",
    "parent": null,
    "longitude": -93.4552993774414,
    "latitude": 45.0106010437012,
    "regions": [
      "12e9"
    ]
  },
  {
    "code": "1e473",
    "name": "Pinetop",
    "updated_at": "2014-09-22T21:39:57.825052Z",
    "country": "us",
    "parent": null,
    "longitude": -109.931999206543,
    "latitude": 34.1304016113281,
    "regions": [
      "122a"
    ]
  },
  {
    "code": "1e472",
    "name": "Pine River",
    "updated_at": "2014-09-22T21:39:57.787571Z",
    "country": "us",
    "parent": null,
    "longitude": -94.4039001464844,
    "latitude": 46.7181015014648,
    "regions": [
      "12e9"
    ]
  },
  {
    "code": "1e471",
    "name": "Paynesville",
    "updated_at": "2014-09-22T21:39:57.757526Z",
    "country": "us",
    "parent": null,
    "longitude": -94.7117004394531,
    "latitude": 45.3805999755859,
    "regions": [
      "12e9"
    ]
  },
  {
    "code": "1e470",
    "name": "Park Rapids",
    "updated_at": "2014-09-22T21:39:57.267760Z",
    "country": "us",
    "parent": null,
    "longitude": -95.0582962036133,
    "latitude": 46.9221992492676,
    "regions": [
      "12e9"
    ]
  },
  {
    "code": "1e46f",
    "name": "Owatonna",
    "updated_at": "2014-09-22T21:39:57.110680Z",
    "country": "us",
    "parent": null,
    "longitude": -93.2257995605469,
    "latitude": 44.0839004516602,
    "regions": [
      "12e9"
    ]
  },
  {
    "code": "1e46e",
    "name": "Ottertail",
    "updated_at": "2014-09-22T21:39:57.071103Z",
    "country": "us",
    "parent": null,
    "longitude": -95.5569000244141,
    "latitude": 46.4255981445312,
    "regions": [
      "12e9"
    ]
  },
  {
    "code": "1e46d",
    "name": "Otsego",
    "updated_at": "2014-09-22T21:39:57.032578Z",
    "country": "us",
    "parent": null,
    "longitude": -93.5911026000977,
    "latitude": 45.2742004394531,
    "regions": [
      "12e9"
    ]
  },
  {
    "code": "1e46c",
    "name": "Oakdale",
    "updated_at": "2014-09-22T21:39:56.992966Z",
    "country": "us",
    "parent": null,
    "longitude": -92.9646987915039,
    "latitude": 44.9631004333496,
    "regions": [
      "12e9"
    ]
  },
  {
    "code": "1e46b",
    "name": "Northfield",
    "updated_at": "2014-09-22T21:39:56.949195Z",
    "country": "us",
    "parent": null,
    "longitude": -93.1613998413086,
    "latitude": 44.4583015441895,
    "regions": [
      "12e9"
    ]
  },
  {
    "code": "1e46a",
    "name": "North Branch",
    "updated_at": "2014-09-22T21:39:56.905530Z",
    "country": "us",
    "parent": null,
    "longitude": -92.9800033569336,
    "latitude": 45.5113983154297,
    "regions": [
      "12e9"
    ]
  },
  {
    "code": "1e469",
    "name": "Nisswa",
    "updated_at": "2014-09-22T21:39:56.875949Z",
    "country": "us",
    "parent": null,
    "longitude": -94.2882995605469,
    "latitude": 46.5205993652344,
    "regions": [
      "12e9"
    ]
  },
  {
    "code": "1e468",
    "name": "New Ulm",
    "updated_at": "2014-09-22T21:39:56.848482Z",
    "country": "us",
    "parent": null,
    "longitude": -94.4602966308594,
    "latitude": 44.3125,
    "regions": [
      "12e9"
    ]
  },
  {
    "code": "1e467",
    "name": "New Prague",
    "updated_at": "2014-09-22T21:39:56.819444Z",
    "country": "us",
    "parent": null,
    "longitude": -93.575798034668,
    "latitude": 44.5433006286621,
    "regions": [
      "12e9"
    ]
  },
  {
    "code": "1e466",
    "name": "Mountain Iron",
    "updated_at": "2014-09-22T21:39:56.763032Z",
    "country": "us",
    "parent": null,
    "longitude": -92.6232986450195,
    "latitude": 47.5325012207031,
    "regions": [
      "12e9"
    ]
  },
  {
    "code": "1e465",
    "name": "Mounds View",
    "updated_at": "2014-09-22T21:39:56.734152Z",
    "country": "us",
    "parent": null,
    "longitude": -93.2082977294922,
    "latitude": 45.1049995422363,
    "regions": [
      "12e9"
    ]
  },
  {
    "code": "1e464",
    "name": "Moorhead",
    "updated_at": "2014-09-22T21:39:56.636104Z",
    "country": "us",
    "parent": null,
    "longitude": -96.7671966552734,
    "latitude": 46.8739013671875,
    "regions": [
      "12e9"
    ]
  },
  {
    "code": "1e463",
    "name": "Monticello",
    "updated_at": "2014-09-22T21:39:56.594715Z",
    "country": "us",
    "parent": null,
    "longitude": -93.7938995361328,
    "latitude": 45.3055992126465,
    "regions": [
      "12e9"
    ]
  },
  {
    "code": "1e462",
    "name": "Minnetonka",
    "updated_at": "2014-09-22T21:39:56.556497Z",
    "country": "us",
    "parent": null,
    "longitude": -93.4685077667236,
    "latitude": 44.9216262599024,
    "regions": [
      "12e9"
    ]
  },
  {
    "code": "1e461",
    "name": "Minneapolis",
    "updated_at": "2014-09-22T21:39:56.512676Z",
    "country": "us",
    "parent": null,
    "longitude": -93.2636032104492,
    "latitude": 44.9799995422363,
    "regions": [
      "12e9"
    ]
  },
  {
    "code": "1e460",
    "name": "Mendota Heights",
    "updated_at": "2014-09-22T21:39:56.485897Z",
    "country": "us",
    "parent": null,
    "longitude": -93.1380996704102,
    "latitude": 44.8835983276367,
    "regions": [
      "12e9"
    ]
  },
  {
    "code": "1e45f",
    "name": "Medina",
    "updated_at": "2014-09-22T21:39:56.285947Z",
    "country": "us",
    "parent": null,
    "longitude": -93.5821990966797,
    "latitude": 45.0353012084961,
    "regions": [
      "12e9"
    ]
  },
  {
    "code": "1e45e",
    "name": "Marshall",
    "updated_at": "2014-09-22T21:39:56.259029Z",
    "country": "us",
    "parent": null,
    "longitude": -95.7881011962891,
    "latitude": 44.4468994140625,
    "regions": [
      "12e9"
    ]
  },
  {
    "code": "1e45d",
    "name": "Maplewood",
    "updated_at": "2014-09-22T21:39:56.231529Z",
    "country": "us",
    "parent": null,
    "longitude": -92.995002746582,
    "latitude": 44.9530982971191,
    "regions": [
      "12e9"
    ]
  },
  {
    "code": "1e45c",
    "name": "Maple Grove",
    "updated_at": "2014-09-22T21:39:56.199579Z",
    "country": "us",
    "parent": null,
    "longitude": -93.4555969238281,
    "latitude": 45.0724983215332,
    "regions": [
      "12e9"
    ]
  },
  {
    "code": "1e45b",
    "name": "Mankato",
    "updated_at": "2014-09-22T21:39:56.169491Z",
    "country": "us",
    "parent": null,
    "longitude": -93.9991989135742,
    "latitude": 44.1636009216309,
    "regions": [
      "12e9"
    ]
  },
  {
    "code": "1e45a",
    "name": "Long Prairie",
    "updated_at": "2014-09-22T21:39:56.063820Z",
    "country": "us",
    "parent": null,
    "longitude": -94.8653030395508,
    "latitude": 45.9747009277344,
    "regions": [
      "12e9"
    ]
  },
  {
    "code": "1e459",
    "name": "Long Lake",
    "updated_at": "2014-09-22T21:39:56.021910Z",
    "country": "us",
    "parent": null,
    "longitude": -93.571403503418,
    "latitude": 44.9866981506348,
    "regions": [
      "12e9"
    ]
  },
  {
    "code": "1e458",
    "name": "Litchfield",
    "updated_at": "2014-09-22T21:39:55.955014Z",
    "country": "us",
    "parent": null,
    "longitude": -94.5278015136719,
    "latitude": 45.1272010803223,
    "regions": [
      "12e9"
    ]
  },
  {
    "code": "1e457",
    "name": "Lino Lakes",
    "updated_at": "2014-09-22T21:39:55.926966Z",
    "country": "us",
    "parent": null,
    "longitude": -93.0886001586914,
    "latitude": 45.1603012084961,
    "regions": [
      "12e9"
    ]
  },
  {
    "code": "1e456",
    "name": "Lakeville",
    "updated_at": "2014-09-22T21:39:55.900032Z",
    "country": "us",
    "parent": null,
    "longitude": -93.2425003051758,
    "latitude": 44.6497001647949,
    "regions": [
      "12e9"
    ]
  },
  {
    "code": "1e455",
    "name": "Lake Elmo",
    "updated_at": "2014-09-22T21:39:55.873121Z",
    "country": "us",
    "parent": null,
    "longitude": -92.8792037963867,
    "latitude": 44.9958000183105,
    "regions": [
      "12e9"
    ]
  },
  {
    "code": "1e454",
    "name": "Lake City",
    "updated_at": "2014-09-22T21:39:55.845873Z",
    "country": "us",
    "parent": null,
    "longitude": -92.2667007446289,
    "latitude": 44.4494018554688,
    "regions": [
      "12e9"
    ]
  },
  {
    "code": "1e453",
    "name": "Kasson",
    "updated_at": "2014-09-22T21:39:55.815218Z",
    "country": "us",
    "parent": null,
    "longitude": -92.750602722168,
    "latitude": 44.0299987792969,
    "regions": [
      "12e9"
    ]
  },
  {
    "code": "1e452",
    "name": "Jackson",
    "updated_at": "2014-09-22T21:39:55.778049Z",
    "country": "us",
    "parent": null,
    "longitude": -94.9882965087891,
    "latitude": 43.6208000183105,
    "regions": [
      "12e9"
    ]
  },
  {
    "code": "1e451",
    "name": "Inver Grove Heights",
    "updated_at": "2014-09-22T21:39:55.740816Z",
    "country": "us",
    "parent": null,
    "longitude": -93.0425033569336,
    "latitude": 44.8480987548828,
    "regions": [
      "12e9"
    ]
  },
  {
    "code": "1e450",
    "name": "International Falls",
    "updated_at": "2014-09-22T21:39:55.700045Z",
    "country": "us",
    "parent": null,
    "longitude": -93.4107971191406,
    "latitude": 48.6011009216309,
    "regions": [
      "12e9"
    ]
  },
  {
    "code": "1e44f",
    "name": "Hutchinson",
    "updated_at": "2014-09-22T21:39:55.656312Z",
    "country": "us",
    "parent": null,
    "longitude": -94.3694000244141,
    "latitude": 44.8877983093262,
    "regions": [
      "12e9"
    ]
  },
  {
    "code": "1e44e",
    "name": "Hopkins",
    "updated_at": "2014-09-22T21:39:55.614942Z",
    "country": "us",
    "parent": null,
    "longitude": -93.4037933349609,
    "latitude": 44.9265792575762,
    "regions": [
      "12e9"
    ]
  },
  {
    "code": "1e44d",
    "name": "Hoffmans Corner",
    "updated_at": "2014-09-22T21:39:55.470661Z",
    "country": "us",
    "parent": null,
    "longitude": -93.0317001342773,
    "latitude": 45.0503005981445,
    "regions": [
      "12e9"
    ]
  },
  {
    "code": "1e44c",
    "name": "Hinckley",
    "updated_at": "2014-09-22T21:39:55.413088Z",
    "country": "us",
    "parent": null,
    "longitude": -92.9441986083984,
    "latitude": 46.0113983154297,
    "regions": [
      "12e9"
    ]
  },
  {
    "code": "1e44b",
    "name": "Hastings",
    "updated_at": "2014-09-22T21:39:55.384691Z",
    "country": "us",
    "parent": null,
    "longitude": -92.8522033691406,
    "latitude": 44.7433013916016,
    "regions": [
      "12e9"
    ]
  },
  {
    "code": "1e44a",
    "name": "Ham Lake",
    "updated_at": "2014-09-22T21:39:55.357674Z",
    "country": "us",
    "parent": null,
    "longitude": -93.2497024536133,
    "latitude": 45.250301361084,
    "regions": [
      "12e9"
    ]
  },
  {
    "code": "1e449",
    "name": "Granite Falls",
    "updated_at": "2014-09-22T21:39:55.301302Z",
    "country": "us",
    "parent": null,
    "longitude": -95.5453033447266,
    "latitude": 44.810001373291,
    "regions": [
      "12e9"
    ]
  },
  {
    "code": "1e448",
    "name": "Grand Marais",
    "updated_at": "2014-09-22T21:39:55.236706Z",
    "country": "us",
    "parent": null,
    "longitude": -90.3341979980469,
    "latitude": 47.7505989074707,
    "regions": [
      "12e9"
    ]
  },
  {
    "code": "1e447",
    "name": "Gaylord",
    "updated_at": "2014-09-22T21:39:55.164020Z",
    "country": "us",
    "parent": null,
    "longitude": -94.2202987670898,
    "latitude": 44.5531005859375,
    "regions": [
      "12e9"
    ]
  },
  {
    "code": "1e446",
    "name": "Fridley",
    "updated_at": "2014-09-22T21:39:55.122524Z",
    "country": "us",
    "parent": null,
    "longitude": -93.2630996704102,
    "latitude": 45.0861015319824,
    "regions": [
      "12e9"
    ]
  },
  {
    "code": "1e445",
    "name": "Forest Lake",
    "updated_at": "2014-09-22T21:39:55.078457Z",
    "country": "us",
    "parent": null,
    "longitude": -92.9850006103516,
    "latitude": 45.2789001464844,
    "regions": [
      "12e9"
    ]
  },
  {
    "code": "1e444",
    "name": "Finlayson",
    "updated_at": "2014-09-22T21:39:55.049744Z",
    "country": "us",
    "parent": null,
    "longitude": -92.9158020019531,
    "latitude": 46.2016983032227,
    "regions": [
      "12e9"
    ]
  },
  {
    "code": "1e443",
    "name": "Fergus Falls",
    "updated_at": "2014-09-22T21:39:55.020588Z",
    "country": "us",
    "parent": null,
    "longitude": -96.0772018432617,
    "latitude": 46.2831001281738,
    "regions": [
      "12e9"
    ]
  },
  {
    "code": "1e442",
    "name": "Faribault",
    "updated_at": "2014-09-22T21:39:54.991997Z",
    "country": "us",
    "parent": null,
    "longitude": -93.2686004638672,
    "latitude": 44.2949981689453,
    "regions": [
      "12e9"
    ]
  },
  {
    "code": "1e441",
    "name": "Fairmont",
    "updated_at": "2014-09-22T21:39:54.964594Z",
    "country": "us",
    "parent": null,
    "longitude": -94.4608001708984,
    "latitude": 43.6521987915039,
    "regions": [
      "12e9"
    ]
  },
  {
    "code": "1e440",
    "name": "Edina",
    "updated_at": "2014-09-22T21:39:54.841336Z",
    "country": "us",
    "parent": null,
    "longitude": -93.3497009277344,
    "latitude": 44.8897018432617,
    "regions": [
      "12e9"
    ]
  },
  {
    "code": "1e43f",
    "name": "Eden Prairie",
    "updated_at": "2014-09-22T21:39:54.806013Z",
    "country": "us",
    "parent": null,
    "longitude": -93.4705963134766,
    "latitude": 44.8546981811523,
    "regions": [
      "12e9"
    ]
  },
  {
    "code": "1e43e",
    "name": "East Gull Lake",
    "updated_at": "2014-09-22T21:39:54.766285Z",
    "country": "us",
    "parent": null,
    "longitude": -94.355598449707,
    "latitude": 46.4081001281738,
    "regions": [
      "12e9"
    ]
  },
  {
    "code": "1e43d",
    "name": "East Grand Forks",
    "updated_at": "2014-09-22T21:39:54.722693Z",
    "country": "us",
    "parent": null,
    "longitude": -97.0242004394531,
    "latitude": 47.9300003051758,
    "regions": [
      "12e9"
    ]
  },
  {
    "code": "1e43c",
    "name": "Eagan",
    "updated_at": "2014-09-22T21:39:54.689616Z",
    "country": "us",
    "parent": null,
    "longitude": -93.1667022705078,
    "latitude": 44.80419921875,
    "regions": [
      "12e9"
    ]
  },
  {
    "code": "1e43b",
    "name": "Duluth",
    "updated_at": "2014-09-22T21:39:54.663269Z",
    "country": "us",
    "parent": null,
    "longitude": -92.1063995361328,
    "latitude": 46.7832984924316,
    "regions": [
      "12e9"
    ]
  },
  {
    "code": "1e43a",
    "name": "Dexter",
    "updated_at": "2014-09-22T21:39:54.636626Z",
    "country": "us",
    "parent": null,
    "longitude": -92.7043991088867,
    "latitude": 43.7188987731934,
    "regions": []
  },
  {
    "code": "1e439",
    "name": "Detroit Lakes",
    "updated_at": "2014-09-22T21:39:54.609270Z",
    "country": "us",
    "parent": null,
    "longitude": -95.8450012207031,
    "latitude": 46.8171997070312,
    "regions": [
      "12e9"
    ]
  },
  {
    "code": "1e438",
    "name": "Deer River",
    "updated_at": "2014-09-22T21:39:54.555650Z",
    "country": "us",
    "parent": null,
    "longitude": -93.7925033569336,
    "latitude": 47.3330993652344,
    "regions": [
      "12e9"
    ]
  },
  {
    "code": "1e437",
    "name": "Crookston",
    "updated_at": "2014-09-22T21:39:54.520965Z",
    "country": "us",
    "parent": null,
    "longitude": -96.6078033447266,
    "latitude": 47.7742004394531,
    "regions": [
      "12e9"
    ]
  },
  {
    "code": "1e436",
    "name": "Cottage Grove",
    "updated_at": "2014-09-22T21:39:54.486107Z",
    "country": "us",
    "parent": null,
    "longitude": -92.943603515625,
    "latitude": 44.8278007507324,
    "regions": [
      "12e9"
    ]
  },
  {
    "code": "1e435",
    "name": "Coon Rapids",
    "updated_at": "2014-09-22T21:39:54.448471Z",
    "country": "us",
    "parent": null,
    "longitude": -93.3143997192383,
    "latitude": 45.1777000427246,
    "regions": [
      "12e9"
    ]
  },
  {
    "code": "1e434",
    "name": "Cold Spring",
    "updated_at": "2014-09-22T21:39:54.405344Z",
    "country": "us",
    "parent": null,
    "longitude": -94.428596496582,
    "latitude": 45.4557991027832,
    "regions": [
      "12e9"
    ]
  },
  {
    "code": "1e433",
    "name": "Clearwater",
    "updated_at": "2014-09-22T21:39:54.361111Z",
    "country": "us",
    "parent": null,
    "longitude": -94.0485992431641,
    "latitude": 45.4193992614746,
    "regions": [
      "12e9"
    ]
  },
  {
    "code": "1e432",
    "name": "Chisago City",
    "updated_at": "2014-09-22T21:39:54.325994Z",
    "country": "us",
    "parent": null,
    "longitude": -92.8897018432617,
    "latitude": 45.3736000061035,
    "regions": [
      "12e9"
    ]
  },
  {
    "code": "1e431",
    "name": "Chaska",
    "updated_at": "2014-09-22T21:39:54.299092Z",
    "country": "us",
    "parent": null,
    "longitude": -93.6018981933594,
    "latitude": 44.7893981933594,
    "regions": [
      "12e9"
    ]
  },
  {
    "code": "1e430",
    "name": "Chanhassen",
    "updated_at": "2014-09-22T21:39:54.271414Z",
    "country": "us",
    "parent": null,
    "longitude": -93.5306015014648,
    "latitude": 44.8622016906738,
    "regions": [
      "12e9"
    ]
  },
  {
    "code": "1e42f",
    "name": "Carlton",
    "updated_at": "2014-09-22T21:39:54.218144Z",
    "country": "us",
    "parent": null,
    "longitude": -92.4246978759766,
    "latitude": 46.6638984680176,
    "regions": [
      "12e9"
    ]
  },
  {
    "code": "1e42e",
    "name": "Cambridge",
    "updated_at": "2014-09-22T21:39:54.190571Z",
    "country": "us",
    "parent": null,
    "longitude": -93.2241973876953,
    "latitude": 45.5727996826172,
    "regions": [
      "12e9"
    ]
  },
  {
    "code": "1e42d",
    "name": "Caledonia",
    "updated_at": "2014-09-22T21:39:54.162443Z",
    "country": "us",
    "parent": null,
    "longitude": -91.496696472168,
    "latitude": 43.6347007751465,
    "regions": [
      "12e9"
    ]
  },
  {
    "code": "1e42c",
    "name": "Burnsville",
    "updated_at": "2014-09-22T21:39:54.120794Z",
    "country": "us",
    "parent": null,
    "longitude": -93.2774963378906,
    "latitude": 44.7677993774414,
    "regions": [
      "12e9"
    ]
  },
  {
    "code": "1e42b",
    "name": "Brooklyn Park",
    "updated_at": "2014-09-22T21:39:54.046059Z",
    "country": "us",
    "parent": null,
    "longitude": -93.3561019897461,
    "latitude": 45.0942001342773,
    "regions": [
      "12e9"
    ]
  },
  {
    "code": "1e42a",
    "name": "Brooklyn Center",
    "updated_at": "2014-09-22T21:39:54.004969Z",
    "country": "us",
    "parent": null,
    "longitude": -93.3324966430664,
    "latitude": 45.076099395752,
    "regions": [
      "12e9"
    ]
  },
  {
    "code": "1e429",
    "name": "Breckenridge",
    "updated_at": "2014-09-22T21:39:53.962893Z",
    "country": "us",
    "parent": null,
    "longitude": -96.5877990722656,
    "latitude": 46.263599395752,
    "regions": [
      "12e9"
    ]
  },
  {
    "code": "1e428",
    "name": "Brainerd",
    "updated_at": "2014-09-22T21:39:53.934207Z",
    "country": "us",
    "parent": null,
    "longitude": -94.2005996704102,
    "latitude": 46.3581008911133,
    "regions": [
      "12e9"
    ]
  },
  {
    "code": "1e427",
    "name": "Blue Earth",
    "updated_at": "2014-09-22T21:39:53.905436Z",
    "country": "us",
    "parent": null,
    "longitude": -94.1018981933594,
    "latitude": 43.6375007629395,
    "regions": []
  },
  {
    "code": "1e426",
    "name": "Bloomington",
    "updated_at": "2014-09-22T21:39:53.877669Z",
    "country": "us",
    "parent": null,
    "longitude": -93.2981033325195,
    "latitude": 44.8408012390137,
    "regions": [
      "12e9"
    ]
  },
  {
    "code": "1e425",
    "name": "Blaine",
    "updated_at": "2014-09-22T21:39:53.848585Z",
    "country": "us",
    "parent": null,
    "longitude": -93.2347030639648,
    "latitude": 45.1608009338379,
    "regions": [
      "12e9"
    ]
  },
  {
    "code": "1e424",
    "name": "Big Lake",
    "updated_at": "2014-09-22T21:39:53.755038Z",
    "country": "us",
    "parent": null,
    "longitude": -93.7457962036133,
    "latitude": 45.3325004577637,
    "regions": [
      "12e9"
    ]
  },
  {
    "code": "1e423",
    "name": "Bemidji",
    "updated_at": "2014-09-22T21:39:53.720852Z",
    "country": "us",
    "parent": null,
    "longitude": -94.879997253418,
    "latitude": 47.4735984802246,
    "regions": [
      "12e9"
    ]
  },
  {
    "code": "1e422",
    "name": "Belle Plaine",
    "updated_at": "2014-09-22T21:39:53.676173Z",
    "country": "us",
    "parent": null,
    "longitude": -93.7683029174805,
    "latitude": 44.6227989196777,
    "regions": [
      "12e9"
    ]
  },
  {
    "code": "1e421",
    "name": "Becker",
    "updated_at": "2014-09-22T21:39:53.641362Z",
    "country": "us",
    "parent": null,
    "longitude": -93.8767013549805,
    "latitude": 45.3932991027832,
    "regions": [
      "12e9"
    ]
  },
  {
    "code": "1e420",
    "name": "Beaver Bay",
    "updated_at": "2014-09-22T21:39:53.598217Z",
    "country": "us",
    "parent": null,
    "longitude": -91.3003005981445,
    "latitude": 47.2578010559082,
    "regions": []
  },
  {
    "code": "1e41f",
    "name": "Baxter",
    "updated_at": "2014-09-22T21:39:53.569596Z",
    "country": "us",
    "parent": null,
    "longitude": -94.2863998413086,
    "latitude": 46.3432998657227,
    "regions": [
      "12e9"
    ]
  },
  {
    "code": "1e41e",
    "name": "Baudette",
    "updated_at": "2014-09-22T21:39:53.541305Z",
    "country": "us",
    "parent": null,
    "longitude": -94.5997009277344,
    "latitude": 48.7125015258789,
    "regions": [
      "12e9"
    ]
  },
  {
    "code": "1e41d",
    "name": "Avon",
    "updated_at": "2014-09-22T21:39:53.512401Z",
    "country": "us",
    "parent": null,
    "longitude": -94.4514007568359,
    "latitude": 45.6091995239258,
    "regions": [
      "12e9"
    ]
  },
  {
    "code": "1e41c",
    "name": "Austin",
    "updated_at": "2014-09-22T21:39:53.483135Z",
    "country": "us",
    "parent": null,
    "longitude": -92.9744033813477,
    "latitude": 43.6666984558105,
    "regions": [
      "12e9"
    ]
  },
  {
    "code": "1e41b",
    "name": "Arden Hills",
    "updated_at": "2014-09-22T21:39:53.454276Z",
    "country": "us",
    "parent": null,
    "longitude": -93.1564025878906,
    "latitude": 45.0503005981445,
    "regions": [
      "12e9"
    ]
  },
  {
    "code": "1e41a",
    "name": "Apple Valley",
    "updated_at": "2014-09-22T21:39:53.415413Z",
    "country": "us",
    "parent": null,
    "longitude": -93.2174987792969,
    "latitude": 44.7318992614746,
    "regions": [
      "12e9"
    ]
  },
  {
    "code": "1e419",
    "name": "Anoka",
    "updated_at": "2014-09-22T21:39:53.374274Z",
    "country": "us",
    "parent": null,
    "longitude": -93.3869018554688,
    "latitude": 45.1977996826172,
    "regions": [
      "12e9"
    ]
  },
  {
    "code": "1e418",
    "name": "Annandale",
    "updated_at": "2014-09-22T21:39:53.336007Z",
    "country": "us",
    "parent": null,
    "longitude": -94.1241989135742,
    "latitude": 45.2627983093262,
    "regions": []
  },
  {
    "code": "1e417",
    "name": "Alexandria",
    "updated_at": "2014-09-22T21:39:53.297628Z",
    "country": "us",
    "parent": null,
    "longitude": -95.377197265625,
    "latitude": 45.8852996826172,
    "regions": [
      "12e9"
    ]
  },
  {
    "code": "1e416",
    "name": "Albertville",
    "updated_at": "2014-09-22T21:39:53.269277Z",
    "country": "us",
    "parent": null,
    "longitude": -93.6541976928711,
    "latitude": 45.2378005981445,
    "regions": [
      "12e9"
    ]
  },
  {
    "code": "1e415",
    "name": "Albert Lea",
    "updated_at": "2014-09-22T21:39:53.240762Z",
    "country": "us",
    "parent": null,
    "longitude": -93.3681030273438,
    "latitude": 43.6481018066406,
    "regions": [
      "12e9"
    ]
  },
  {
    "code": "1e414",
    "name": "Albany",
    "updated_at": "2014-09-22T21:39:53.214062Z",
    "country": "us",
    "parent": null,
    "longitude": -94.5697021484375,
    "latitude": 45.6300010681152,
    "regions": [
      "12e9"
    ]
  },
  {
    "code": "1e413",
    "name": "Afton",
    "updated_at": "2014-09-22T21:39:53.183661Z",
    "country": "us",
    "parent": null,
    "longitude": -92.7833023071289,
    "latitude": 44.9028015136719,
    "regions": [
      "12e9"
    ]
  },
  {
    "code": "1e412",
    "name": "Ypsilanti",
    "updated_at": "2014-09-22T21:39:53.043756Z",
    "country": "us",
    "parent": null,
    "longitude": -83.6130981445312,
    "latitude": 42.2411003112793,
    "regions": [
      "12e8"
    ]
  },
  {
    "code": "1e411",
    "name": "Wyoming",
    "updated_at": "2014-09-22T21:39:53.001634Z",
    "country": "us",
    "parent": null,
    "longitude": -85.7052993774414,
    "latitude": 42.9132995605469,
    "regions": [
      "12e8"
    ]
  },
  {
    "code": "1e410",
    "name": "Woodhaven",
    "updated_at": "2014-09-22T21:39:52.974775Z",
    "country": "us",
    "parent": null,
    "longitude": -83.24169921875,
    "latitude": 42.1389007568359,
    "regions": [
      "12e8"
    ]
  },
  {
    "code": "1e40f",
    "name": "Wixom",
    "updated_at": "2014-09-22T21:39:52.947394Z",
    "country": "us",
    "parent": null,
    "longitude": -83.5363998413086,
    "latitude": 42.5247001647949,
    "regions": [
      "12e8"
    ]
  },
  {
    "code": "1e40e",
    "name": "Whitehall",
    "updated_at": "2014-09-22T21:39:52.889645Z",
    "country": "us",
    "parent": null,
    "longitude": -86.3486022949219,
    "latitude": 43.4099998474121,
    "regions": [
      "12e8"
    ]
  },
  {
    "code": "1e40d",
    "name": "Wetmore",
    "updated_at": "2014-09-22T21:39:52.817378Z",
    "country": "us",
    "parent": null,
    "longitude": -86.6203002929688,
    "latitude": 46.3796997070312,
    "regions": [
      "12e8"
    ]
  },
  {
    "code": "1e40c",
    "name": "Watervliet",
    "updated_at": "2014-09-22T21:39:52.778913Z",
    "country": "us",
    "parent": null,
    "longitude": -86.2605972290039,
    "latitude": 42.1866989135742,
    "regions": [
      "12e8"
    ]
  },
  {
    "code": "1e40b",
    "name": "Waterford",
    "updated_at": "2014-09-22T21:39:52.737768Z",
    "country": "us",
    "parent": null,
    "longitude": -83.4028015136719,
    "latitude": 42.7022018432617,
    "regions": [
      "12e8"
    ]
  },
  {
    "code": "1e40a",
    "name": "Warren",
    "updated_at": "2014-09-22T21:39:52.695619Z",
    "country": "us",
    "parent": null,
    "longitude": -83.0278015136719,
    "latitude": 42.4775009155273,
    "regions": [
      "12e8"
    ]
  },
  {
    "code": "1e409",
    "name": "Walled Lake",
    "updated_at": "2014-09-22T21:39:52.672336Z",
    "country": "us",
    "parent": null,
    "longitude": -83.4811019897461,
    "latitude": 42.5377998352051,
    "regions": [
      "12e8"
    ]
  },
  {
    "code": "1e408",
    "name": "Utica",
    "updated_at": "2014-09-22T21:39:52.649144Z",
    "country": "us",
    "parent": null,
    "longitude": -83.0335998535156,
    "latitude": 42.6260986328125,
    "regions": [
      "12e8"
    ]
  },
  {
    "code": "1e407",
    "name": "Union Pier",
    "updated_at": "2014-09-22T21:39:52.625421Z",
    "country": "us",
    "parent": null,
    "longitude": -86.692497253418,
    "latitude": 41.8280982971191,
    "regions": [
      "12e8"
    ]
  },
  {
    "code": "1e406",
    "name": "Troy",
    "updated_at": "2014-09-22T21:39:52.600158Z",
    "country": "us",
    "parent": null,
    "longitude": -83.1500015258789,
    "latitude": 42.605598449707,
    "regions": [
      "12e8"
    ]
  },
  {
    "code": "1e405",
    "name": "Traverse City",
    "updated_at": "2014-09-22T21:39:52.574926Z",
    "country": "us",
    "parent": null,
    "longitude": -85.6205978393555,
    "latitude": 44.7630996704102,
    "regions": [
      "12e8"
    ]
  },
  {
    "code": "1e404",
    "name": "Three Rivers",
    "updated_at": "2014-09-22T21:39:52.547405Z",
    "country": "us",
    "parent": null,
    "longitude": -85.6324996948242,
    "latitude": 41.9439010620117,
    "regions": [
      "12e8"
    ]
  },
  {
    "code": "1e403",
    "name": "Tecumseh",
    "updated_at": "2014-09-22T21:39:52.517477Z",
    "country": "us",
    "parent": null,
    "longitude": -83.9449996948242,
    "latitude": 42.0038986206055,
    "regions": [
      "12e8"
    ]
  },
  {
    "code": "1e402",
    "name": "Taylor",
    "updated_at": "2014-09-22T21:39:52.486597Z",
    "country": "us",
    "parent": null,
    "longitude": -83.2696990966797,
    "latitude": 42.2407989501953,
    "regions": [
      "12e8"
    ]
  },
  {
    "code": "1e401",
    "name": "Sturgis",
    "updated_at": "2014-09-22T21:39:52.410550Z",
    "country": "us",
    "parent": null,
    "longitude": -85.4191970825195,
    "latitude": 41.7991981506348,
    "regions": [
      "12e8"
    ]
  },
  {
    "code": "1e400",
    "name": "Stevensville",
    "updated_at": "2014-09-22T21:39:52.370816Z",
    "country": "us",
    "parent": null,
    "longitude": -86.519401550293,
    "latitude": 42.0144004821777,
    "regions": [
      "12e8"
    ]
  },
  {
    "code": "1e3ff",
    "name": "Sterling Heights",
    "updated_at": "2014-09-22T21:39:52.347305Z",
    "country": "us",
    "parent": null,
    "longitude": -83.0302963256836,
    "latitude": 42.5802993774414,
    "regions": [
      "12e8"
    ]
  },
  {
    "code": "1e3fe",
    "name": "Spring Lake",
    "updated_at": "2014-09-22T21:39:52.024295Z",
    "country": "us",
    "parent": null,
    "longitude": -86.1968994140625,
    "latitude": 43.0769004821777,
    "regions": [
      "12e8"
    ]
  },
  {
    "code": "1e3fd",
    "name": "Southgate",
    "updated_at": "2014-09-22T21:39:51.982537Z",
    "country": "us",
    "parent": null,
    "longitude": -83.1939010620117,
    "latitude": 42.2139015197754,
    "regions": [
      "12e8"
    ]
  },
  {
    "code": "1e3fc",
    "name": "Southfield",
    "updated_at": "2014-09-22T21:39:51.941065Z",
    "country": "us",
    "parent": null,
    "longitude": -83.2219009399414,
    "latitude": 42.4733009338379,
    "regions": [
      "12e8"
    ]
  },
  {
    "code": "1e3fb",
    "name": "South Haven",
    "updated_at": "2014-09-22T21:39:51.916853Z",
    "country": "us",
    "parent": null,
    "longitude": -86.2735977172852,
    "latitude": 42.4030990600586,
    "regions": [
      "12e8"
    ]
  },
  {
    "code": "1e3fa",
    "name": "Shelbyville",
    "updated_at": "2014-09-22T21:39:51.846306Z",
    "country": "us",
    "parent": null,
    "longitude": -85.6371994018555,
    "latitude": 42.5942001342773,
    "regions": [
      "12e8"
    ]
  },
  {
    "code": "1e3f9",
    "name": "Shelby",
    "updated_at": "2014-09-22T21:39:51.822429Z",
    "country": "us",
    "parent": null,
    "longitude": -83.0330963134766,
    "latitude": 42.6707992553711,
    "regions": [
      "12e8"
    ]
  },
  {
    "code": "1e3f8",
    "name": "Sawyer",
    "updated_at": "2014-09-22T21:39:51.793892Z",
    "country": "us",
    "parent": null,
    "longitude": -86.5894012451172,
    "latitude": 41.8852996826172,
    "regions": [
      "12e8"
    ]
  },
  {
    "code": "1e3f7",
    "name": "Sault Ste. Marie",
    "updated_at": "2014-09-22T21:39:51.760541Z",
    "country": "us",
    "parent": null,
    "longitude": -84.3452987670898,
    "latitude": 46.4953002929688,
    "regions": [
      "12e8"
    ]
  },
  {
    "code": "1e3f6",
    "name": "Saugatuck",
    "updated_at": "2014-09-22T21:39:51.726323Z",
    "country": "us",
    "parent": null,
    "longitude": -86.2018966674805,
    "latitude": 42.6549987792969,
    "regions": [
      "12e8"
    ]
  },
  {
    "code": "1e3f5",
    "name": "Saint Joseph",
    "updated_at": "2014-09-22T21:39:51.685277Z",
    "country": "us",
    "parent": null,
    "longitude": -86.4800033569336,
    "latitude": 42.1096992492676,
    "regions": [
      "12e8"
    ]
  },
  {
    "code": "1e3f4",
    "name": "Saint Ignace",
    "updated_at": "2014-09-22T21:39:51.644271Z",
    "country": "us",
    "parent": null,
    "longitude": -84.7277984619141,
    "latitude": 45.8685989379883,
    "regions": [
      "12e8"
    ]
  },
  {
    "code": "1e3f3",
    "name": "Saginaw",
    "updated_at": "2014-09-22T21:39:51.606320Z",
    "country": "us",
    "parent": null,
    "longitude": -83.950798034668,
    "latitude": 43.4193992614746,
    "regions": [
      "12e8"
    ]
  },
  {
    "code": "1e3f2",
    "name": "Roseville",
    "updated_at": "2014-09-22T21:39:51.582991Z",
    "country": "us",
    "parent": null,
    "longitude": -82.9372024536133,
    "latitude": 42.497200012207,
    "regions": [
      "12e8"
    ]
  },
  {
    "code": "1e3f1",
    "name": "Romulus",
    "updated_at": "2014-09-22T21:39:51.559513Z",
    "country": "us",
    "parent": null,
    "longitude": -83.3966979980469,
    "latitude": 42.2221984863281,
    "regions": [
      "12e8"
    ]
  },
  {
    "code": "1e3f0",
    "name": "Rochester Hills",
    "updated_at": "2014-09-22T21:39:51.535989Z",
    "country": "us",
    "parent": null,
    "longitude": -83.1500015258789,
    "latitude": 42.6582984924316,
    "regions": [
      "12e8"
    ]
  },
  {
    "code": "1e3ef",
    "name": "Rochester",
    "updated_at": "2014-09-22T21:39:51.512128Z",
    "country": "us",
    "parent": null,
    "longitude": -83.133903503418,
    "latitude": 42.6805992126465,
    "regions": [
      "12e8"
    ]
  },
  {
    "code": "1e3ee",
    "name": "Portland",
    "updated_at": "2014-09-22T21:39:51.422848Z",
    "country": "us",
    "parent": null,
    "longitude": -84.9030990600586,
    "latitude": 42.8692016601562,
    "regions": [
      "12e8"
    ]
  },
  {
    "code": "1e3ed",
    "name": "Portage",
    "updated_at": "2014-09-22T21:39:51.388443Z",
    "country": "us",
    "parent": null,
    "longitude": -85.5800018310547,
    "latitude": 42.201099395752,
    "regions": [
      "12e8"
    ]
  },
  {
    "code": "1e3ec",
    "name": "Port Huron",
    "updated_at": "2014-09-22T21:39:51.346682Z",
    "country": "us",
    "parent": null,
    "longitude": -82.4250030517578,
    "latitude": 42.9707984924316,
    "regions": [
      "12e8"
    ]
  },
  {
    "code": "1e3eb",
    "name": "Pontiac",
    "updated_at": "2014-09-22T21:39:51.307502Z",
    "country": "us",
    "parent": null,
    "longitude": -83.2910995483398,
    "latitude": 42.6389007568359,
    "regions": [
      "12e8"
    ]
  },
  {
    "code": "1e3ea",
    "name": "Plymouth",
    "updated_at": "2014-09-22T21:39:51.271281Z",
    "country": "us",
    "parent": null,
    "longitude": -83.4702987670898,
    "latitude": 42.3713989257812,
    "regions": [
      "12e8"
    ]
  },
  {
    "code": "1e3e9",
    "name": "Pinconning",
    "updated_at": "2014-09-22T21:39:51.195093Z",
    "country": "us",
    "parent": null,
    "longitude": -83.9649963378906,
    "latitude": 43.8535995483398,
    "regions": [
      "12e8"
    ]
  },
  {
    "code": "1e3e8",
    "name": "Petoskey",
    "updated_at": "2014-09-22T21:39:51.169954Z",
    "country": "us",
    "parent": null,
    "longitude": -84.9552993774414,
    "latitude": 45.3732986450195,
    "regions": [
      "12e8"
    ]
  },
  {
    "code": "1e3e7",
    "name": "Pellston",
    "updated_at": "2014-09-22T21:39:51.114293Z",
    "country": "us",
    "parent": null,
    "longitude": -84.7838973999023,
    "latitude": 45.5527992248535,
    "regions": [
      "12e8"
    ]
  },
  {
    "code": "1e3e6",
    "name": "Paw Paw",
    "updated_at": "2014-09-22T21:39:51.080698Z",
    "country": "us",
    "parent": null,
    "longitude": -85.8910980224609,
    "latitude": 42.2178001403809,
    "regions": [
      "12e8"
    ]
  },
  {
    "code": "1e3e5",
    "name": "Oshtemo",
    "updated_at": "2014-09-22T21:39:51.045445Z",
    "country": "us",
    "parent": null,
    "longitude": -85.6774978637695,
    "latitude": 42.2588996887207,
    "regions": [
      "12e8"
    ]
  },
  {
    "code": "1e3e4",
    "name": "Oscoda",
    "updated_at": "2014-09-22T21:39:51.004221Z",
    "country": "us",
    "parent": null,
    "longitude": -83.3308029174805,
    "latitude": 44.4202995300293,
    "regions": [
      "12e8"
    ]
  },
  {
    "code": "1e3e3",
    "name": "Okemos",
    "updated_at": "2014-09-22T21:39:50.921528Z",
    "country": "us",
    "parent": null,
    "longitude": -84.4274978637695,
    "latitude": 42.7221984863281,
    "regions": [
      "12e8"
    ]
  },
  {
    "code": "1e3e2",
    "name": "Novi",
    "updated_at": "2014-09-22T21:39:50.880271Z",
    "country": "us",
    "parent": null,
    "longitude": -83.4913024902344,
    "latitude": 42.481201171875,
    "regions": [
      "12e8"
    ]
  },
  {
    "code": "1e3e1",
    "name": "Norton Shores",
    "updated_at": "2014-09-22T21:39:50.806565Z",
    "country": "us",
    "parent": null,
    "longitude": -86.2639007568359,
    "latitude": 43.1688995361328,
    "regions": [
      "12e8"
    ]
  },
  {
    "code": "1e3e0",
    "name": "Northville",
    "updated_at": "2014-09-22T21:39:50.770373Z",
    "country": "us",
    "parent": null,
    "longitude": -83.4832992553711,
    "latitude": 42.4310989379883,
    "regions": [
      "12e8"
    ]
  },
  {
    "code": "1e3df",
    "name": "Niles",
    "updated_at": "2014-09-22T21:39:50.419051Z",
    "country": "us",
    "parent": null,
    "longitude": -86.2542037963867,
    "latitude": 41.8297004699707,
    "regions": [
      "12e8"
    ]
  },
  {
    "code": "1e3de",
    "name": "Newberry",
    "updated_at": "2014-09-22T21:39:50.394216Z",
    "country": "us",
    "parent": null,
    "longitude": -85.5093994140625,
    "latitude": 46.3549995422363,
    "regions": [
      "12e8"
    ]
  },
  {
    "code": "1e3dd",
    "name": "New Buffalo",
    "updated_at": "2014-09-22T21:39:50.367785Z",
    "country": "us",
    "parent": null,
    "longitude": -86.743896484375,
    "latitude": 41.7938995361328,
    "regions": [
      "12e8"
    ]
  },
  {
    "code": "1e3dc",
    "name": "Muskegon Heights",
    "updated_at": "2014-09-22T21:39:50.344630Z",
    "country": "us",
    "parent": null,
    "longitude": -86.238899230957,
    "latitude": 43.201099395752,
    "regions": [
      "12e8"
    ]
  },
  {
    "code": "1e3db",
    "name": "Muskegon",
    "updated_at": "2014-09-22T21:39:50.311218Z",
    "country": "us",
    "parent": null,
    "longitude": -86.2482986450195,
    "latitude": 43.2341995239258,
    "regions": [
      "12e8"
    ]
  },
  {
    "code": "1e3da",
    "name": "Munising",
    "updated_at": "2014-09-22T21:39:50.277935Z",
    "country": "us",
    "parent": null,
    "longitude": -86.6477966308594,
    "latitude": 46.4110984802246,
    "regions": [
      "12e8"
    ]
  },
  {
    "code": "1e3d9",
    "name": "Mount Pleasant",
    "updated_at": "2014-09-22T21:39:50.241921Z",
    "country": "us",
    "parent": null,
    "longitude": -84.7675018310547,
    "latitude": 43.5978012084961,
    "regions": [
      "12e8"
    ]
  },
  {
    "code": "1e3d8",
    "name": "Montague",
    "updated_at": "2014-09-22T21:39:50.200830Z",
    "country": "us",
    "parent": null,
    "longitude": -86.3569030761719,
    "latitude": 43.4166984558105,
    "regions": [
      "12e8"
    ]
  },
  {
    "code": "1e3d7",
    "name": "Monroe",
    "updated_at": "2014-09-22T21:39:50.161274Z",
    "country": "us",
    "parent": null,
    "longitude": -83.3977966308594,
    "latitude": 41.9164009094238,
    "regions": [
      "12e8"
    ]
  },
  {
    "code": "1e3d6",
    "name": "Milan",
    "updated_at": "2014-09-22T21:39:50.135402Z",
    "country": "us",
    "parent": null,
    "longitude": -83.682502746582,
    "latitude": 42.0853004455566,
    "regions": [
      "12e8"
    ]
  },
  {
    "code": "1e3d5",
    "name": "Midland",
    "updated_at": "2014-09-22T21:39:50.112534Z",
    "country": "us",
    "parent": null,
    "longitude": -84.247200012207,
    "latitude": 43.6156005859375,
    "regions": [
      "12e8"
    ]
  },
  {
    "code": "1e3d4",
    "name": "Menominee",
    "updated_at": "2014-09-22T21:39:50.088654Z",
    "country": "us",
    "parent": null,
    "longitude": -87.6141967773438,
    "latitude": 45.1077995300293,
    "regions": [
      "12e8"
    ]
  },
  {
    "code": "1e3d3",
    "name": "Melvindale",
    "updated_at": "2014-09-22T21:39:50.065207Z",
    "country": "us",
    "parent": null,
    "longitude": -83.1753005981445,
    "latitude": 42.2825012207031,
    "regions": [
      "12e8"
    ]
  },
  {
    "code": "1e3d2",
    "name": "Marysville",
    "updated_at": "2014-09-22T21:39:50.013559Z",
    "country": "us",
    "parent": null,
    "longitude": -82.4869003295898,
    "latitude": 42.9124984741211,
    "regions": [
      "12e8"
    ]
  },
  {
    "code": "1e3d1",
    "name": "Marshall",
    "updated_at": "2014-09-22T21:39:49.981942Z",
    "country": "us",
    "parent": null,
    "longitude": -84.9633026123047,
    "latitude": 42.2722015380859,
    "regions": [
      "12e8"
    ]
  },
  {
    "code": "1e3d0",
    "name": "Marquette",
    "updated_at": "2014-09-22T21:39:49.954462Z",
    "country": "us",
    "parent": null,
    "longitude": -87.3953018188477,
    "latitude": 46.5435981750488,
    "regions": [
      "12e8"
    ]
  },
  {
    "code": "1e3cf",
    "name": "Manistee",
    "updated_at": "2014-09-22T21:39:49.885474Z",
    "country": "us",
    "parent": null,
    "longitude": -86.3242034912109,
    "latitude": 44.2444000244141,
    "regions": [
      "12e8"
    ]
  },
  {
    "code": "1e3ce",
    "name": "Madison Heights",
    "updated_at": "2014-09-22T21:39:49.846165Z",
    "country": "us",
    "parent": null,
    "longitude": -83.1053009033203,
    "latitude": 42.4858016967773,
    "regions": [
      "12e8"
    ]
  },
  {
    "code": "1e3cd",
    "name": "Mackinaw City",
    "updated_at": "2014-09-22T21:39:49.820634Z",
    "country": "us",
    "parent": null,
    "longitude": -84.7277984619141,
    "latitude": 45.7839012145996,
    "regions": [
      "12e8"
    ]
  },
  {
    "code": "1e3cc",
    "name": "Mackinac Island",
    "updated_at": "2014-09-22T21:39:49.796115Z",
    "country": "us",
    "parent": null,
    "longitude": -84.618896484375,
    "latitude": 45.8492012023926,
    "regions": [
      "12e8"
    ]
  },
  {
    "code": "1e3cb",
    "name": "Ludington",
    "updated_at": "2014-09-22T21:39:49.723708Z",
    "country": "us",
    "parent": null,
    "longitude": -86.4524993896484,
    "latitude": 43.9552993774414,
    "regions": [
      "12e8"
    ]
  },
  {
    "code": "1e3ca",
    "name": "Lowell",
    "updated_at": "2014-09-22T21:39:49.695562Z",
    "country": "us",
    "parent": null,
    "longitude": -85.3419036865234,
    "latitude": 42.9336013793945,
    "regions": [
      "12e8"
    ]
  },
  {
    "code": "1e3c9",
    "name": "Livonia",
    "updated_at": "2014-09-22T21:39:49.662558Z",
    "country": "us",
    "parent": null,
    "longitude": -83.3527984619141,
    "latitude": 42.3683013916016,
    "regions": [
      "12e8"
    ]
  },
  {
    "code": "1e3c8",
    "name": "Lincoln Park",
    "updated_at": "2014-09-22T21:39:49.629216Z",
    "country": "us",
    "parent": null,
    "longitude": -83.178596496582,
    "latitude": 42.2505989074707,
    "regions": [
      "12e8"
    ]
  },
  {
    "code": "1e3c7",
    "name": "Lapeer",
    "updated_at": "2014-09-22T21:39:49.591200Z",
    "country": "us",
    "parent": null,
    "longitude": -83.3189010620117,
    "latitude": 43.051399230957,
    "regions": [
      "12e8"
    ]
  },
  {
    "code": "1e3c6",
    "name": "Lansing",
    "updated_at": "2014-09-22T21:39:49.552598Z",
    "country": "us",
    "parent": null,
    "longitude": -84.5561065673828,
    "latitude": 42.7323226928711,
    "regions": [
      "12e8"
    ]
  },
  {
    "code": "1e3c5",
    "name": "Lake Orion",
    "updated_at": "2014-09-22T21:39:49.515951Z",
    "country": "us",
    "parent": null,
    "longitude": -83.2397003173828,
    "latitude": 42.7844009399414,
    "regions": [
      "12e8"
    ]
  },
  {
    "code": "1e3c4",
    "name": "Lacota",
    "updated_at": "2014-09-22T21:39:49.492953Z",
    "country": "us",
    "parent": null,
    "longitude": -86.1296997070312,
    "latitude": 42.4136009216309,
    "regions": [
      "12e8"
    ]
  },
  {
    "code": "1e3c3",
    "name": "Kentwood",
    "updated_at": "2014-09-22T21:39:49.467449Z",
    "country": "us",
    "parent": null,
    "longitude": -85.5964965820312,
    "latitude": 42.8835983276367,
    "regions": [
      "12e8"
    ]
  },
  {
    "code": "1e3c2",
    "name": "Kawkawlin",
    "updated_at": "2014-09-22T21:39:49.438828Z",
    "country": "us",
    "parent": null,
    "longitude": -83.9430999755859,
    "latitude": 43.6519012451172,
    "regions": [
      "12e8"
    ]
  },
  {
    "code": "1e3c1",
    "name": "Kalkaska",
    "updated_at": "2014-09-22T21:39:49.410260Z",
    "country": "us",
    "parent": null,
    "longitude": -85.1757965087891,
    "latitude": 44.7341995239258,
    "regions": [
      "12e8"
    ]
  },
  {
    "code": "1e3c0",
    "name": "Kalamazoo",
    "updated_at": "2014-09-22T21:39:49.381566Z",
    "country": "us",
    "parent": null,
    "longitude": -85.5871963500977,
    "latitude": 42.2916984558105,
    "regions": [
      "12e8"
    ]
  },
  {
    "code": "1e3bf",
    "name": "Jonesville",
    "updated_at": "2014-09-22T21:39:49.350541Z",
    "country": "us",
    "parent": null,
    "longitude": -84.6619033813477,
    "latitude": 41.9841995239258,
    "regions": [
      "12e8"
    ]
  },
  {
    "code": "1e3be",
    "name": "Jackson",
    "updated_at": "2014-09-22T21:39:49.317051Z",
    "country": "us",
    "parent": null,
    "longitude": -84.4013977050781,
    "latitude": 42.2458000183105,
    "regions": [
      "12e8"
    ]
  },
  {
    "code": "1e3bd",
    "name": "Ishpeming",
    "updated_at": "2014-09-22T21:39:49.284121Z",
    "country": "us",
    "parent": null,
    "longitude": -87.6675033569336,
    "latitude": 46.4886016845703,
    "regions": [
      "12e8"
    ]
  },
  {
    "code": "1e3bc",
    "name": "Ironwood",
    "updated_at": "2014-09-22T21:39:49.244487Z",
    "country": "us",
    "parent": null,
    "longitude": -90.1707992553711,
    "latitude": 46.4547004699707,
    "regions": [
      "12e8"
    ]
  },
  {
    "code": "1e3bb",
    "name": "Iron River",
    "updated_at": "2014-09-22T21:39:49.207087Z",
    "country": "us",
    "parent": null,
    "longitude": -88.6421966552734,
    "latitude": 46.0928001403809,
    "regions": [
      "12e8"
    ]
  },
  {
    "code": "1e3ba",
    "name": "Iron Mountain",
    "updated_at": "2014-09-22T21:39:48.918425Z",
    "country": "us",
    "parent": null,
    "longitude": -88.065803527832,
    "latitude": 45.8203010559082,
    "regions": [
      "12e8"
    ]
  },
  {
    "code": "1e3b9",
    "name": "Ionia",
    "updated_at": "2014-09-22T21:39:48.846869Z",
    "country": "us",
    "parent": null,
    "longitude": -85.0710983276367,
    "latitude": 42.9872016906738,
    "regions": [
      "12e8"
    ]
  },
  {
    "code": "1e3b8",
    "name": "Inkster",
    "updated_at": "2014-09-22T21:39:48.818852Z",
    "country": "us",
    "parent": null,
    "longitude": -83.3099975585938,
    "latitude": 42.2942008972168,
    "regions": [
      "12e8"
    ]
  },
  {
    "code": "1e3b7",
    "name": "Indian River",
    "updated_at": "2014-09-22T21:39:48.790616Z",
    "country": "us",
    "parent": null,
    "longitude": -84.6125030517578,
    "latitude": 45.4124984741211,
    "regions": [
      "12e8"
    ]
  },
  {
    "code": "1e3b6",
    "name": "Imlay City",
    "updated_at": "2014-09-22T21:39:48.763888Z",
    "country": "us",
    "parent": null,
    "longitude": -83.0777969360352,
    "latitude": 43.0247001647949,
    "regions": [
      "12e8"
    ]
  },
  {
    "code": "1e3b5",
    "name": "Howell",
    "updated_at": "2014-09-22T21:39:48.736594Z",
    "country": "us",
    "parent": null,
    "longitude": -83.9293975830078,
    "latitude": 42.6072006225586,
    "regions": [
      "12e8"
    ]
  },
  {
    "code": "1e3b4",
    "name": "Houghton Lake",
    "updated_at": "2014-09-22T21:39:48.709261Z",
    "country": "us",
    "parent": null,
    "longitude": -84.7647018432617,
    "latitude": 44.3147010803223,
    "regions": [
      "12e8"
    ]
  },
  {
    "code": "1e3b3",
    "name": "Houghton",
    "updated_at": "2014-09-22T21:39:48.673055Z",
    "country": "us",
    "parent": null,
    "longitude": -88.5689010620117,
    "latitude": 47.121898651123,
    "regions": [
      "12e8"
    ]
  },
  {
    "code": "1e3b2",
    "name": "Holt",
    "updated_at": "2014-09-22T21:39:48.636302Z",
    "country": "us",
    "parent": null,
    "longitude": -84.5152969360352,
    "latitude": 42.6405982971191,
    "regions": [
      "12e8"
    ]
  },
  {
    "code": "1e3b1",
    "name": "Holland",
    "updated_at": "2014-09-22T21:39:48.595949Z",
    "country": "us",
    "parent": null,
    "longitude": -86.1089019775391,
    "latitude": 42.7874984741211,
    "regions": [
      "12e8"
    ]
  },
  {
    "code": "1e3b0",
    "name": "Hillsdale",
    "updated_at": "2014-09-22T21:39:48.552276Z",
    "country": "us",
    "parent": null,
    "longitude": -84.6305999755859,
    "latitude": 41.9199981689453,
    "regions": [
      "12e8"
    ]
  },
  {
    "code": "1e3af",
    "name": "Hastings",
    "updated_at": "2014-09-22T21:39:48.510367Z",
    "country": "us",
    "parent": null,
    "longitude": -85.2908020019531,
    "latitude": 42.6458015441895,
    "regions": [
      "12e8"
    ]
  },
  {
    "code": "1e3ae",
    "name": "Harvey",
    "updated_at": "2014-09-22T21:39:48.478136Z",
    "country": "us",
    "parent": null,
    "longitude": -87.3542022705078,
    "latitude": 46.494701385498,
    "regions": [
      "12e8"
    ]
  },
  {
    "code": "1e3ad",
    "name": "Hartland",
    "updated_at": "2014-09-22T21:39:48.451307Z",
    "country": "us",
    "parent": null,
    "longitude": -83.7530975341797,
    "latitude": 42.6567001342773,
    "regions": [
      "12e8"
    ]
  },
  {
    "code": "1e3ac",
    "name": "Harbor Springs",
    "updated_at": "2014-09-22T21:39:48.395449Z",
    "country": "us",
    "parent": null,
    "longitude": -84.9918975830078,
    "latitude": 45.4317016601562,
    "regions": [
      "12e8"
    ]
  },
  {
    "code": "1e3ab",
    "name": "Hancock",
    "updated_at": "2014-09-22T21:39:48.363955Z",
    "country": "us",
    "parent": null,
    "longitude": -88.5808029174805,
    "latitude": 47.1268997192383,
    "regions": [
      "12e8"
    ]
  },
  {
    "code": "1e3aa",
    "name": "Gwinn",
    "updated_at": "2014-09-22T21:39:48.330115Z",
    "country": "us",
    "parent": null,
    "longitude": -87.440803527832,
    "latitude": 46.2811012268066,
    "regions": []
  },
  {
    "code": "1e3a9",
    "name": "Grayling",
    "updated_at": "2014-09-22T21:39:48.296305Z",
    "country": "us",
    "parent": null,
    "longitude": -84.7146987915039,
    "latitude": 44.6613998413086,
    "regions": [
      "12e8"
    ]
  },
  {
    "code": "1e3a8",
    "name": "Grandville",
    "updated_at": "2014-09-22T21:39:48.256263Z",
    "country": "us",
    "parent": null,
    "longitude": -85.7630996704102,
    "latitude": 42.9096984863281,
    "regions": [
      "12e8"
    ]
  },
  {
    "code": "1e3a7",
    "name": "Grand View Acres",
    "updated_at": "2014-09-22T21:39:48.215614Z",
    "country": "us",
    "parent": null,
    "longitude": -83.4467010498047,
    "latitude": 42.4261016845703,
    "regions": []
  },
  {
    "code": "1e3a6",
    "name": "Grand Rapids",
    "updated_at": "2014-09-22T21:39:48.171319Z",
    "country": "us",
    "parent": null,
    "longitude": -85.668098449707,
    "latitude": 42.9632987976074,
    "regions": [
      "12e8"
    ]
  },
  {
    "code": "1e3a5",
    "name": "Grand Haven",
    "updated_at": "2014-09-22T21:39:48.143701Z",
    "country": "us",
    "parent": null,
    "longitude": -86.2283020019531,
    "latitude": 43.0630989074707,
    "regions": [
      "12e8"
    ]
  },
  {
    "code": "1e3a4",
    "name": "Grand Blanc",
    "updated_at": "2014-09-22T21:39:48.115552Z",
    "country": "us",
    "parent": null,
    "longitude": -83.629997253418,
    "latitude": 42.9275016784668,
    "regions": [
      "12e8"
    ]
  },
  {
    "code": "1e3a3",
    "name": "Gaylord",
    "updated_at": "2014-09-22T21:39:48.087483Z",
    "country": "us",
    "parent": null,
    "longitude": -84.6746978759766,
    "latitude": 45.0275001525879,
    "regions": [
      "12e8"
    ]
  },
  {
    "code": "1e3a2",
    "name": "Fremont",
    "updated_at": "2014-09-22T21:39:48.059247Z",
    "country": "us",
    "parent": null,
    "longitude": -85.9419021606445,
    "latitude": 43.4674987792969,
    "regions": [
      "12e8"
    ]
  },
  {
    "code": "1e3a1",
    "name": "Frankenmuth",
    "updated_at": "2014-09-22T21:39:48.001045Z",
    "country": "us",
    "parent": null,
    "longitude": -83.7380981445312,
    "latitude": 43.3316993713379,
    "regions": [
      "12e8"
    ]
  },
  {
    "code": "1e3a0",
    "name": "Fowlerville",
    "updated_at": "2014-09-22T21:39:47.967016Z",
    "country": "us",
    "parent": null,
    "longitude": -84.0730972290039,
    "latitude": 42.6605987548828,
    "regions": [
      "12e8"
    ]
  },
  {
    "code": "1e39f",
    "name": "Fosters",
    "updated_at": "2014-09-22T21:39:47.932194Z",
    "country": "us",
    "parent": null,
    "longitude": -83.9163970947266,
    "latitude": 43.2980995178223,
    "regions": []
  },
  {
    "code": "1e39e",
    "name": "Flint",
    "updated_at": "2014-09-22T21:39:47.890080Z",
    "country": "us",
    "parent": null,
    "longitude": -83.6875,
    "latitude": 43.0125007629395,
    "regions": [
      "12e8"
    ]
  },
  {
    "code": "1e39d",
    "name": "Fenton",
    "updated_at": "2014-09-22T21:39:47.782888Z",
    "country": "us",
    "parent": null,
    "longitude": -83.7050018310547,
    "latitude": 42.7977981567383,
    "regions": [
      "12e8"
    ]
  },
  {
    "code": "1e39c",
    "name": "Farmington Hills",
    "updated_at": "2014-09-22T21:39:47.754106Z",
    "country": "us",
    "parent": null,
    "longitude": -83.377197265625,
    "latitude": 42.4852981567383,
    "regions": [
      "12e8"
    ]
  },
  {
    "code": "1e39b",
    "name": "Escanaba",
    "updated_at": "2014-09-22T21:39:47.725290Z",
    "country": "us",
    "parent": null,
    "longitude": -87.0643997192383,
    "latitude": 45.7453002929688,
    "regions": [
      "12e8"
    ]
  },
  {
    "code": "1e39a",
    "name": "East Lansing",
    "updated_at": "2014-09-22T21:39:47.696332Z",
    "country": "us",
    "parent": null,
    "longitude": -84.4839019775391,
    "latitude": 42.7369003295898,
    "regions": [
      "12e8"
    ]
  },
  {
    "code": "1e399",
    "name": "East Grand Rapids",
    "updated_at": "2014-09-22T21:39:47.667147Z",
    "country": "us",
    "parent": null,
    "longitude": -85.6100006103516,
    "latitude": 42.9411010742188,
    "regions": [
      "12e8"
    ]
  },
  {
    "code": "1e398",
    "name": "Durand",
    "updated_at": "2014-09-22T21:39:47.633462Z",
    "country": "us",
    "parent": null,
    "longitude": -83.9847030639648,
    "latitude": 42.9118995666504,
    "regions": [
      "12e8"
    ]
  },
  {
    "code": "1e397",
    "name": "Dundee",
    "updated_at": "2014-09-22T21:39:47.599987Z",
    "country": "us",
    "parent": null,
    "longitude": -83.6596984863281,
    "latitude": 41.9571990966797,
    "regions": [
      "12e8"
    ]
  },
  {
    "code": "1e396",
    "name": "Dowagiac",
    "updated_at": "2014-09-22T21:39:47.563561Z",
    "country": "us",
    "parent": null,
    "longitude": -86.1085968017578,
    "latitude": 41.9841995239258,
    "regions": [
      "12e8"
    ]
  },
  {
    "code": "1e395",
    "name": "Dimondale",
    "updated_at": "2014-09-22T21:39:47.521204Z",
    "country": "us",
    "parent": null,
    "longitude": -84.6489028930664,
    "latitude": 42.6455993652344,
    "regions": [
      "12e8"
    ]
  },
  {
    "code": "1e394",
    "name": "Detroit",
    "updated_at": "2014-09-22T21:39:47.387007Z",
    "country": "us",
    "parent": null,
    "longitude": -83.0583572387695,
    "latitude": 42.3684387207031,
    "regions": [
      "12e8"
    ]
  },
  {
    "code": "1e393",
    "name": "Delta Center Township",
    "updated_at": "2014-09-22T21:39:47.288801Z",
    "country": "us",
    "parent": null,
    "longitude": -84.6622009277344,
    "latitude": 42.7263984680176,
    "regions": [
      "12e8"
    ]
  },
  {
    "code": "1e392",
    "name": "Dearborn",
    "updated_at": "2014-09-22T21:39:47.259472Z",
    "country": "us",
    "parent": null,
    "longitude": -83.176399230957,
    "latitude": 42.3222007751465,
    "regions": [
      "12e8"
    ]
  },
  {
    "code": "1e391",
    "name": "DeWitt",
    "updated_at": "2014-09-22T21:39:47.231112Z",
    "country": "us",
    "parent": null,
    "longitude": -84.5691986083984,
    "latitude": 42.8422012329102,
    "regions": [
      "12e8"
    ]
  },
  {
    "code": "1e390",
    "name": "Cutlerville",
    "updated_at": "2014-09-22T21:39:47.162251Z",
    "country": "us",
    "parent": null,
    "longitude": -85.6635971069336,
    "latitude": 42.8408012390137,
    "regions": [
      "12e8"
    ]
  },
  {
    "code": "1e38f",
    "name": "Creswell",
    "updated_at": "2014-09-22T21:39:47.121712Z",
    "country": "us",
    "parent": null,
    "longitude": -85.3525009155273,
    "latitude": 45.019401550293,
    "regions": [
      "12e8"
    ]
  },
  {
    "code": "1e38e",
    "name": "Coopersville",
    "updated_at": "2014-09-22T21:39:47.077047Z",
    "country": "us",
    "parent": null,
    "longitude": -85.934700012207,
    "latitude": 43.0638999938965,
    "regions": [
      "12e8"
    ]
  },
  {
    "code": "1e38d",
    "name": "Comstock Park",
    "updated_at": "2014-09-22T21:39:47.033365Z",
    "country": "us",
    "parent": null,
    "longitude": -85.6699981689453,
    "latitude": 43.0386009216309,
    "regions": [
      "12e8"
    ]
  },
  {
    "code": "1e38c",
    "name": "Coldwater",
    "updated_at": "2014-09-22T21:39:47.000351Z",
    "country": "us",
    "parent": null,
    "longitude": -85.000602722168,
    "latitude": 41.940299987793,
    "regions": [
      "12e8"
    ]
  },
  {
    "code": "1e38b",
    "name": "Clinton",
    "updated_at": "2014-09-22T21:39:46.973383Z",
    "country": "us",
    "parent": null,
    "longitude": -82.9199981689453,
    "latitude": 42.5868988037109,
    "regions": [
      "12e8"
    ]
  },
  {
    "code": "1e38a",
    "name": "Clawson",
    "updated_at": "2014-09-22T21:39:46.946641Z",
    "country": "us",
    "parent": null,
    "longitude": -83.1464004516602,
    "latitude": 42.5332984924316,
    "regions": [
      "12e8"
    ]
  },
  {
    "code": "1e389",
    "name": "Clare",
    "updated_at": "2014-09-22T21:39:46.919506Z",
    "country": "us",
    "parent": null,
    "longitude": -84.7686004638672,
    "latitude": 43.8194007873535,
    "regions": [
      "12e8"
    ]
  },
  {
    "code": "1e388",
    "name": "Chesterfield",
    "updated_at": "2014-09-22T21:39:46.892142Z",
    "country": "us",
    "parent": null,
    "longitude": -82.8424987792969,
    "latitude": 42.6627998352051,
    "regions": [
      "12e8"
    ]
  },
  {
    "code": "1e387",
    "name": "Chesaning",
    "updated_at": "2014-09-22T21:39:46.864654Z",
    "country": "us",
    "parent": null,
    "longitude": -84.1149978637695,
    "latitude": 43.184700012207,
    "regions": [
      "12e8"
    ]
  },
  {
    "code": "1e386",
    "name": "Chelsea",
    "updated_at": "2014-09-22T21:39:46.831272Z",
    "country": "us",
    "parent": null,
    "longitude": -84.0205993652344,
    "latitude": 42.3180999755859,
    "regions": [
      "12e8"
    ]
  },
  {
    "code": "1e385",
    "name": "Cheboygan",
    "updated_at": "2014-09-22T21:39:46.797943Z",
    "country": "us",
    "parent": null,
    "longitude": -84.4744033813477,
    "latitude": 45.646900177002,
    "regions": [
      "12e8"
    ]
  },
  {
    "code": "1e384",
    "name": "Charlotte",
    "updated_at": "2014-09-22T21:39:46.717134Z",
    "country": "us",
    "parent": null,
    "longitude": -84.8358001708984,
    "latitude": 42.5635986328125,
    "regions": [
      "12e8"
    ]
  },
  {
    "code": "1e383",
    "name": "Charlevoix",
    "updated_at": "2014-09-22T21:39:46.672133Z",
    "country": "us",
    "parent": null,
    "longitude": -85.25830078125,
    "latitude": 45.3180999755859,
    "regions": [
      "12e8"
    ]
  },
  {
    "code": "1e382",
    "name": "Cascade",
    "updated_at": "2014-09-22T21:39:46.638756Z",
    "country": "us",
    "parent": null,
    "longitude": -85.4981002807617,
    "latitude": 42.9122009277344,
    "regions": [
      "12e8"
    ]
  },
  {
    "code": "1e381",
    "name": "Canton",
    "updated_at": "2014-09-22T21:39:46.611619Z",
    "country": "us",
    "parent": null,
    "longitude": -83.4822006225586,
    "latitude": 42.3086013793945,
    "regions": [
      "12e8"
    ]
  },
  {
    "code": "1e380",
    "name": "Calumet",
    "updated_at": "2014-09-22T21:39:46.583903Z",
    "country": "us",
    "parent": null,
    "longitude": -88.4539031982422,
    "latitude": 47.2467002868652,
    "regions": []
  },
  {
    "code": "1e37f",
    "name": "Cadillac",
    "updated_at": "2014-09-22T21:39:46.559198Z",
    "country": "us",
    "parent": null,
    "longitude": -85.4011001586914,
    "latitude": 44.2518997192383,
    "regions": [
      "12e8"
    ]
  },
  {
    "code": "1e37e",
    "name": "Burton",
    "updated_at": "2014-09-22T21:39:46.533529Z",
    "country": "us",
    "parent": null,
    "longitude": -83.6164016723633,
    "latitude": 42.9994010925293,
    "regions": [
      "12e8"
    ]
  },
  {
    "code": "1e37d",
    "name": "Brighton",
    "updated_at": "2014-09-22T21:39:46.505386Z",
    "country": "us",
    "parent": null,
    "longitude": -83.7802963256836,
    "latitude": 42.5293998718262,
    "regions": [
      "12e8"
    ]
  },
  {
    "code": "1e37c",
    "name": "Bridgeport",
    "updated_at": "2014-09-22T21:39:46.474831Z",
    "country": "us",
    "parent": null,
    "longitude": -83.8816986083984,
    "latitude": 43.3594017028809,
    "regions": [
      "12e8"
    ]
  },
  {
    "code": "1e37b",
    "name": "Brevort",
    "updated_at": "2014-09-22T21:39:46.444567Z",
    "country": "us",
    "parent": null,
    "longitude": -85.0417022705078,
    "latitude": 46.0189018249512,
    "regions": [
      "12e8"
    ]
  },
  {
    "code": "1e37a",
    "name": "Brassar",
    "updated_at": "2014-09-22T21:39:46.408172Z",
    "country": "us",
    "parent": null,
    "longitude": -84.2172012329102,
    "latitude": 46.5060997009277,
    "regions": []
  },
  {
    "code": "1e379",
    "name": "Boyne Falls",
    "updated_at": "2014-09-22T21:39:46.367094Z",
    "country": "us",
    "parent": null,
    "longitude": -84.9160995483398,
    "latitude": 45.168098449707,
    "regions": [
      "12e8"
    ]
  },
  {
    "code": "1e378",
    "name": "Bloomfield Hills",
    "updated_at": "2014-09-22T21:39:46.325944Z",
    "country": "us",
    "parent": null,
    "longitude": -83.2455978393555,
    "latitude": 42.5835990905762,
    "regions": [
      "12e8"
    ]
  },
  {
    "code": "1e377",
    "name": "Birmingham",
    "updated_at": "2014-09-22T21:39:46.299418Z",
    "country": "us",
    "parent": null,
    "longitude": -83.2114028930664,
    "latitude": 42.5466995239258,
    "regions": [
      "12e8"
    ]
  },
  {
    "code": "1e376",
    "name": "Birch Run",
    "updated_at": "2014-09-22T21:39:46.276233Z",
    "country": "us",
    "parent": null,
    "longitude": -83.7941970825195,
    "latitude": 43.2508010864258,
    "regions": [
      "12e8"
    ]
  },
  {
    "code": "1e375",
    "name": "Big Rapids",
    "updated_at": "2014-09-22T21:39:46.253137Z",
    "country": "us",
    "parent": null,
    "longitude": -85.4835968017578,
    "latitude": 43.6981010437012,
    "regions": [
      "12e8"
    ]
  },
  {
    "code": "1e374",
    "name": "Beulah",
    "updated_at": "2014-09-22T21:39:46.229487Z",
    "country": "us",
    "parent": null,
    "longitude": -86.0907974243164,
    "latitude": 44.6319007873535,
    "regions": [
      "12e8"
    ]
  },
  {
    "code": "1e373",
    "name": "Berrien Springs",
    "updated_at": "2014-09-22T21:39:46.205834Z",
    "country": "us",
    "parent": null,
    "longitude": -86.3388977050781,
    "latitude": 41.9463996887207,
    "regions": [
      "12e8"
    ]
  },
  {
    "code": "1e372",
    "name": "Benton Harbor",
    "updated_at": "2014-09-22T21:39:46.177388Z",
    "country": "us",
    "parent": null,
    "longitude": -86.4542007446289,
    "latitude": 42.11669921875,
    "regions": [
      "12e8"
    ]
  },
  {
    "code": "1e371",
    "name": "Belleville",
    "updated_at": "2014-09-22T21:39:46.140967Z",
    "country": "us",
    "parent": null,
    "longitude": -83.4852981567383,
    "latitude": 42.2047004699707,
    "regions": [
      "12e8"
    ]
  },
  {
    "code": "1e370",
    "name": "Bellaire",
    "updated_at": "2014-09-22T21:39:46.107766Z",
    "country": "us",
    "parent": null,
    "longitude": -85.2110977172852,
    "latitude": 44.9803009033203,
    "regions": [
      "12e8"
    ]
  },
  {
    "code": "1e36f",
    "name": "Bay City",
    "updated_at": "2014-09-22T21:39:46.068324Z",
    "country": "us",
    "parent": null,
    "longitude": -83.8889007568359,
    "latitude": 43.5943984985352,
    "regions": [
      "12e8"
    ]
  },
  {
    "code": "1e36e",
    "name": "Battle Creek",
    "updated_at": "2014-09-22T21:39:46.027806Z",
    "country": "us",
    "parent": null,
    "longitude": -85.1797027587891,
    "latitude": 42.3210983276367,
    "regions": [
      "12e8"
    ]
  },
  {
    "code": "1e36d",
    "name": "Baraga",
    "updated_at": "2014-09-22T21:39:45.987117Z",
    "country": "us",
    "parent": null,
    "longitude": -88.488899230957,
    "latitude": 46.7785987854004,
    "regions": [
      "12e8"
    ]
  },
  {
    "code": "1e36c",
    "name": "Auburn Hills",
    "updated_at": "2014-09-22T21:39:45.939241Z",
    "country": "us",
    "parent": null,
    "longitude": -83.2341995239258,
    "latitude": 42.6875,
    "regions": [
      "12e8"
    ]
  },
  {
    "code": "1e36b",
    "name": "Auburn",
    "updated_at": "2014-09-22T21:39:45.914618Z",
    "country": "us",
    "parent": null,
    "longitude": -84.0697021484375,
    "latitude": 43.6032981872559,
    "regions": [
      "12e8"
    ]
  },
  {
    "code": "1e36a",
    "name": "Au Sable",
    "updated_at": "2014-09-22T21:39:45.889590Z",
    "country": "us",
    "parent": null,
    "longitude": -83.3321990966797,
    "latitude": 44.4108009338379,
    "regions": []
  },
  {
    "code": "1e369",
    "name": "Ann Arbor",
    "updated_at": "2014-09-22T21:39:45.865616Z",
    "country": "us",
    "parent": null,
    "longitude": -83.7264022827148,
    "latitude": 42.2708015441895,
    "regions": [
      "12e8"
    ]
  },
  {
    "code": "1e368",
    "name": "Alpena",
    "updated_at": "2014-09-22T21:39:45.408528Z",
    "country": "us",
    "parent": null,
    "longitude": -83.4328002929688,
    "latitude": 45.0616989135742,
    "regions": [
      "12e8"
    ]
  },
  {
    "code": "1e367",
    "name": "Alma",
    "updated_at": "2014-09-22T21:39:45.383872Z",
    "country": "us",
    "parent": null,
    "longitude": -84.6596984863281,
    "latitude": 43.3788986206055,
    "regions": [
      "12e8"
    ]
  },
  {
    "code": "1e366",
    "name": "Allendale",
    "updated_at": "2014-09-22T21:39:45.356665Z",
    "country": "us",
    "parent": null,
    "longitude": -85.9535980224609,
    "latitude": 42.9721984863281,
    "regions": [
      "12e8"
    ]
  },
  {
    "code": "1e365",
    "name": "Allen Park",
    "updated_at": "2014-09-22T21:39:45.327088Z",
    "country": "us",
    "parent": null,
    "longitude": -83.2110977172852,
    "latitude": 42.2574996948242,
    "regions": [
      "12e8"
    ]
  },
  {
    "code": "1e364",
    "name": "Alden",
    "updated_at": "2014-09-22T21:39:45.259745Z",
    "country": "us",
    "parent": null,
    "longitude": -85.2755966186523,
    "latitude": 44.8810997009277,
    "regions": []
  },
  {
    "code": "1e363",
    "name": "Albion",
    "updated_at": "2014-09-22T21:39:45.224372Z",
    "country": "us",
    "parent": null,
    "longitude": -84.7530975341797,
    "latitude": 42.2430992126465,
    "regions": []
  },
  {
    "code": "1e362",
    "name": "Adrian",
    "updated_at": "2014-09-22T21:39:45.187324Z",
    "country": "us",
    "parent": null,
    "longitude": -84.0372009277344,
    "latitude": 41.8974990844727,
    "regions": []
  },
  {
    "code": "1e361",
    "name": "Acme",
    "updated_at": "2014-09-22T21:39:45.163586Z",
    "country": "us",
    "parent": null,
    "longitude": -85.5014038085938,
    "latitude": 44.771900177002,
    "regions": []
  },
  {
    "code": "1e360",
    "name": "Yarmouth Port",
    "updated_at": "2014-09-22T21:39:45.139195Z",
    "country": "us",
    "parent": null,
    "longitude": -70.25,
    "latitude": 41.7019004821777,
    "regions": []
  },
  {
    "code": "1e35f",
    "name": "Yarmouth",
    "updated_at": "2014-09-22T21:39:45.116260Z",
    "country": "us",
    "parent": null,
    "longitude": -70.2292022705078,
    "latitude": 41.7056007385254,
    "regions": [
      "1222"
    ]
  },
  {
    "code": "1e35e",
    "name": "Wrentham",
    "updated_at": "2014-09-22T21:39:45.092748Z",
    "country": "us",
    "parent": null,
    "longitude": -71.3285980224609,
    "latitude": 42.0666999816895,
    "regions": [
      "1222"
    ]
  },
  {
    "code": "1e35d",
    "name": "Worcester",
    "updated_at": "2014-09-22T21:39:45.068075Z",
    "country": "us",
    "parent": null,
    "longitude": -71.8028030395508,
    "latitude": 42.2625007629395,
    "regions": [
      "1222"
    ]
  },
  {
    "code": "1e35c",
    "name": "Woods Hole",
    "updated_at": "2014-09-22T21:39:45.037827Z",
    "country": "us",
    "parent": null,
    "longitude": -70.6735992431641,
    "latitude": 41.5264015197754,
    "regions": [
      "1222"
    ]
  },
  {
    "code": "1e35b",
    "name": "Woburn",
    "updated_at": "2014-09-22T21:39:45.003677Z",
    "country": "us",
    "parent": null,
    "longitude": -71.1528015136719,
    "latitude": 42.4791984558105,
    "regions": [
      "1222"
    ]
  },
  {
    "code": "1e35a",
    "name": "Winthrop",
    "updated_at": "2014-09-22T21:39:44.970631Z",
    "country": "us",
    "parent": null,
    "longitude": -70.9832992553711,
    "latitude": 42.375,
    "regions": [
      "1222"
    ]
  },
  {
    "code": "1e359",
    "name": "Williamstown",
    "updated_at": "2014-09-22T21:39:44.937952Z",
    "country": "us",
    "parent": null,
    "longitude": -73.2042007446289,
    "latitude": 42.7118988037109,
    "regions": [
      "1222"
    ]
  },
  {
    "code": "1e358",
    "name": "Wilbraham",
    "updated_at": "2014-09-22T21:39:44.894975Z",
    "country": "us",
    "parent": null,
    "longitude": -72.4319000244141,
    "latitude": 42.1236000061035,
    "regions": [
      "1222"
    ]
  },
  {
    "code": "1e357",
    "name": "Weymouth",
    "updated_at": "2014-09-22T21:39:44.861502Z",
    "country": "us",
    "parent": null,
    "longitude": -70.9397964477539,
    "latitude": 42.2209014892578,
    "regions": [
      "1222"
    ]
  },
  {
    "code": "1e356",
    "name": "Westminster",
    "updated_at": "2014-09-22T21:39:44.839086Z",
    "country": "us",
    "parent": null,
    "longitude": -71.9111022949219,
    "latitude": 42.5457992553711,
    "regions": [
      "1222"
    ]
  },
  {
    "code": "1e355",
    "name": "Westford",
    "updated_at": "2014-09-22T21:39:44.816018Z",
    "country": "us",
    "parent": null,
    "longitude": -71.4383010864258,
    "latitude": 42.5792007446289,
    "regions": [
      "1222"
    ]
  },
  {
    "code": "1e354",
    "name": "Westfield",
    "updated_at": "2014-09-22T21:39:44.791821Z",
    "country": "us",
    "parent": null,
    "longitude": -72.75,
    "latitude": 42.125,
    "regions": [
      "1222"
    ]
  },
  {
    "code": "1e353",
    "name": "Westborough",
    "updated_at": "2014-09-22T21:39:44.768558Z",
    "country": "us",
    "parent": null,
    "longitude": -71.61669921875,
    "latitude": 42.269401550293,
    "regions": [
      "1222"
    ]
  },
  {
    "code": "1e352",
    "name": "West Yarmouth",
    "updated_at": "2014-09-22T21:39:44.745126Z",
    "country": "us",
    "parent": null,
    "longitude": -70.24169921875,
    "latitude": 41.6500015258789,
    "regions": [
      "1222"
    ]
  },
  {
    "code": "1e351",
    "name": "West Stockbridge",
    "updated_at": "2014-09-22T21:39:44.686680Z",
    "country": "us",
    "parent": null,
    "longitude": -73.36669921875,
    "latitude": 42.3457984924316,
    "regions": [
      "1222"
    ]
  },
  {
    "code": "1e350",
    "name": "West Springfield",
    "updated_at": "2014-09-22T21:39:44.657281Z",
    "country": "us",
    "parent": null,
    "longitude": -72.6207962036133,
    "latitude": 42.1068992614746,
    "regions": [
      "1222"
    ]
  },
  {
    "code": "1e34f",
    "name": "West Dennis",
    "updated_at": "2014-09-22T21:39:44.619533Z",
    "country": "us",
    "parent": null,
    "longitude": -70.1733016967773,
    "latitude": 41.6643981933594,
    "regions": [
      "1222"
    ]
  },
  {
    "code": "1e34e",
    "name": "West Barnstable",
    "updated_at": "2014-09-22T21:39:44.581682Z",
    "country": "us",
    "parent": null,
    "longitude": -70.375,
    "latitude": 41.7056007385254,
    "regions": [
      "1222"
    ]
  },
  {
    "code": "1e34d",
    "name": "Wauwinet",
    "updated_at": "2014-09-22T21:39:44.523047Z",
    "country": "us",
    "parent": null,
    "longitude": -69.996696472168,
    "latitude": 41.3292007446289,
    "regions": [
      "1222",
      "13b3"
    ]
  },
  {
    "code": "1e34c",
    "name": "Watertown",
    "updated_at": "2014-09-22T21:39:44.498485Z",
    "country": "us",
    "parent": null,
    "longitude": -71.1832962036133,
    "latitude": 42.3708000183105,
    "regions": [
      "1222"
    ]
  },
  {
    "code": "1e34b",
    "name": "Waltham",
    "updated_at": "2014-09-22T21:39:44.474099Z",
    "country": "us",
    "parent": null,
    "longitude": -71.2360992431641,
    "latitude": 42.3763999938965,
    "regions": [
      "1222"
    ]
  },
  {
    "code": "1e34a",
    "name": "Wakefield",
    "updated_at": "2014-09-22T21:39:44.449642Z",
    "country": "us",
    "parent": null,
    "longitude": -71.0733032226562,
    "latitude": 42.5064010620117,
    "regions": [
      "1222"
    ]
  },
  {
    "code": "1e349",
    "name": "Vineyard Haven",
    "updated_at": "2014-09-22T21:39:44.425031Z",
    "country": "us",
    "parent": null,
    "longitude": -70.6042022705078,
    "latitude": 41.4542007446289,
    "regions": [
      "1222",
      "13b4"
    ]
  },
  {
    "code": "1e348",
    "name": "Uxbridge",
    "updated_at": "2014-09-22T21:39:44.397723Z",
    "country": "us",
    "parent": null,
    "longitude": -71.629997253418,
    "latitude": 42.0772018432617,
    "regions": [
      "1222"
    ]
  },
  {
    "code": "1e347",
    "name": "Tyngsboro",
    "updated_at": "2014-09-22T21:39:44.368039Z",
    "country": "us",
    "parent": null,
    "longitude": -71.4250030517578,
    "latitude": 42.676700592041,
    "regions": [
      "1222"
    ]
  },
  {
    "code": "1e346",
    "name": "Tewksbury",
    "updated_at": "2014-09-22T21:39:40.980469Z",
    "country": "us",
    "parent": null,
    "longitude": -71.2347030639648,
    "latitude": 42.6105995178223,
    "regions": [
      "1222"
    ]
  },
  {
    "code": "1e345",
    "name": "Swansea",
    "updated_at": "2014-09-22T21:39:40.941850Z",
    "country": "us",
    "parent": null,
    "longitude": -71.190299987793,
    "latitude": 41.7481002807617,
    "regions": [
      "1222"
    ]
  },
  {
    "code": "1e344",
    "name": "Sutton",
    "updated_at": "2014-09-22T21:39:40.907794Z",
    "country": "us",
    "parent": null,
    "longitude": -71.763298034668,
    "latitude": 42.1500015258789,
    "regions": [
      "1222"
    ]
  },
  {
    "code": "1e343",
    "name": "Sudbury",
    "updated_at": "2014-09-22T21:39:40.883274Z",
    "country": "us",
    "parent": null,
    "longitude": -71.4167022705078,
    "latitude": 42.38330078125,
    "regions": [
      "1222"
    ]
  },
  {
    "code": "1e342",
    "name": "Sturbridge",
    "updated_at": "2014-09-22T21:39:40.858699Z",
    "country": "us",
    "parent": null,
    "longitude": -72.0792007446289,
    "latitude": 42.1082992553711,
    "regions": [
      "1222"
    ]
  },
  {
    "code": "1e341",
    "name": "Stoughton",
    "updated_at": "2014-09-22T21:39:40.834077Z",
    "country": "us",
    "parent": null,
    "longitude": -71.1027984619141,
    "latitude": 42.125,
    "regions": [
      "1222"
    ]
  },
  {
    "code": "1e340",
    "name": "Stockbridge",
    "updated_at": "2014-09-22T21:39:40.809000Z",
    "country": "us",
    "parent": null,
    "longitude": -73.32080078125,
    "latitude": 42.2874984741211,
    "regions": [
      "1222"
    ]
  },
  {
    "code": "1e33f",
    "name": "Springfield",
    "updated_at": "2014-09-22T21:39:40.784210Z",
    "country": "us",
    "parent": null,
    "longitude": -72.5903015136719,
    "latitude": 42.1013984680176,
    "regions": [
      "1222"
    ]
  },
  {
    "code": "1e33e",
    "name": "Southbridge",
    "updated_at": "2014-09-22T21:39:40.754505Z",
    "country": "us",
    "parent": null,
    "longitude": -72.0338973999023,
    "latitude": 42.0750007629395,
    "regions": [
      "1222"
    ]
  },
  {
    "code": "1e33d",
    "name": "Southborough",
    "updated_at": "2014-09-22T21:39:40.724960Z",
    "country": "us",
    "parent": null,
    "longitude": -71.5250015258789,
    "latitude": 42.3055992126465,
    "regions": [
      "1222"
    ]
  },
  {
    "code": "1e33c",
    "name": "South Yarmouth",
    "updated_at": "2014-09-22T21:39:40.694074Z",
    "country": "us",
    "parent": null,
    "longitude": -70.185302734375,
    "latitude": 41.6666984558105,
    "regions": [
      "1222"
    ]
  },
  {
    "code": "1e33b",
    "name": "South Wellfleet",
    "updated_at": "2014-09-22T21:39:40.653690Z",
    "country": "us",
    "parent": null,
    "longitude": -69.9957962036133,
    "latitude": 41.918098449707,
    "regions": [
      "1222"
    ]
  },
  {
    "code": "1e33a",
    "name": "South Orleans",
    "updated_at": "2014-09-22T21:39:40.610625Z",
    "country": "us",
    "parent": null,
    "longitude": -69.99169921875,
    "latitude": 41.7505989074707,
    "regions": [
      "1222"
    ]
  },
  {
    "code": "1e339",
    "name": "South Hadley",
    "updated_at": "2014-09-22T21:39:40.578205Z",
    "country": "us",
    "parent": null,
    "longitude": -72.5749969482422,
    "latitude": 42.25830078125,
    "regions": [
      "1222"
    ]
  },
  {
    "code": "1e338",
    "name": "South Deerfield",
    "updated_at": "2014-09-22T21:39:40.531131Z",
    "country": "us",
    "parent": null,
    "longitude": -72.6082992553711,
    "latitude": 42.4771995544434,
    "regions": [
      "1222"
    ]
  },
  {
    "code": "1e337",
    "name": "Somerville",
    "updated_at": "2014-09-22T21:39:40.504791Z",
    "country": "us",
    "parent": null,
    "longitude": -71.0999984741211,
    "latitude": 42.3875007629395,
    "regions": [
      "1222"
    ]
  },
  {
    "code": "1e336",
    "name": "Somerset",
    "updated_at": "2014-09-22T21:39:40.478358Z",
    "country": "us",
    "parent": null,
    "longitude": -71.1292037963867,
    "latitude": 41.769401550293,
    "regions": [
      "1222"
    ]
  },
  {
    "code": "1e335",
    "name": "Siasconset",
    "updated_at": "2014-09-22T21:39:40.454713Z",
    "country": "us",
    "parent": null,
    "longitude": -69.9666976928711,
    "latitude": 41.2625007629395,
    "regions": []
  },
  {
    "code": "1e334",
    "name": "Shrewsbury",
    "updated_at": "2014-09-22T21:39:40.421206Z",
    "country": "us",
    "parent": null,
    "longitude": -71.7133026123047,
    "latitude": 42.2957992553711,
    "regions": [
      "1222"
    ]
  },
  {
    "code": "1e333",
    "name": "Sharon",
    "updated_at": "2014-09-22T21:39:40.387613Z",
    "country": "us",
    "parent": null,
    "longitude": -71.17919921875,
    "latitude": 42.1236000061035,
    "regions": [
      "1222"
    ]
  },
  {
    "code": "1e332",
    "name": "Seekonk",
    "updated_at": "2014-09-22T21:39:40.353248Z",
    "country": "us",
    "parent": null,
    "longitude": -71.3375015258789,
    "latitude": 41.8083000183105,
    "regions": [
      "1222"
    ]
  },
  {
    "code": "1e331",
    "name": "Scituate",
    "updated_at": "2014-09-22T21:39:40.312019Z",
    "country": "us",
    "parent": null,
    "longitude": -70.7264022827148,
    "latitude": 42.19580078125,
    "regions": [
      "1222"
    ]
  },
  {
    "code": "1e330",
    "name": "Saugus",
    "updated_at": "2014-09-22T21:39:40.271561Z",
    "country": "us",
    "parent": null,
    "longitude": -71.0112991333008,
    "latitude": 42.4640998840332,
    "regions": [
      "1222"
    ]
  },
  {
    "code": "1e32f",
    "name": "Sandwich",
    "updated_at": "2014-09-22T21:39:40.242315Z",
    "country": "us",
    "parent": null,
    "longitude": -70.4944000244141,
    "latitude": 41.7588996887207,
    "regions": [
      "1222"
    ]
  },
  {
    "code": "1e32e",
    "name": "Salisbury",
    "updated_at": "2014-09-22T21:39:40.218760Z",
    "country": "us",
    "parent": null,
    "longitude": -70.8610992431641,
    "latitude": 42.8417015075684,
    "regions": [
      "1222"
    ]
  },
  {
    "code": "1e32d",
    "name": "Salem",
    "updated_at": "2014-09-22T21:39:40.195443Z",
    "country": "us",
    "parent": null,
    "longitude": -70.8972015380859,
    "latitude": 42.519401550293,
    "regions": [
      "1222"
    ]
  },
  {
    "code": "1e32c",
    "name": "Rockport",
    "updated_at": "2014-09-22T21:39:40.142558Z",
    "country": "us",
    "parent": null,
    "longitude": -70.6207962036133,
    "latitude": 42.6556015014648,
    "regions": [
      "1222"
    ]
  },
  {
    "code": "1e32b",
    "name": "Rockland",
    "updated_at": "2014-09-22T21:39:40.116910Z",
    "country": "us",
    "parent": null,
    "longitude": -70.9167022705078,
    "latitude": 42.1305999755859,
    "regions": [
      "1222"
    ]
  },
  {
    "code": "1e32a",
    "name": "Revere",
    "updated_at": "2014-09-22T21:39:40.082891Z",
    "country": "us",
    "parent": null,
    "longitude": -71.0070037841797,
    "latitude": 42.4169006347656,
    "regions": [
      "1222"
    ]
  },
  {
    "code": "1e329",
    "name": "Raynham",
    "updated_at": "2014-09-22T21:39:40.049199Z",
    "country": "us",
    "parent": null,
    "longitude": -71.073600769043,
    "latitude": 41.948600769043,
    "regions": [
      "1222"
    ]
  },
  {
    "code": "1e328",
    "name": "Randolph",
    "updated_at": "2014-09-22T21:39:40.012358Z",
    "country": "us",
    "parent": null,
    "longitude": -71.0417022705078,
    "latitude": 42.1624984741211,
    "regions": [
      "1222"
    ]
  },
  {
    "code": "1e327",
    "name": "Quincy",
    "updated_at": "2014-09-22T21:39:39.972082Z",
    "country": "us",
    "parent": null,
    "longitude": -71.002799987793,
    "latitude": 42.252799987793,
    "regions": [
      "1222"
    ]
  },
  {
    "code": "1e326",
    "name": "Provincetown",
    "updated_at": "2014-09-22T21:39:39.931333Z",
    "country": "us",
    "parent": null,
    "longitude": -70.1877212524414,
    "latitude": 42.0517883300781,
    "regions": [
      "1222"
    ]
  },
  {
    "code": "1e325",
    "name": "Plymouth",
    "updated_at": "2014-09-22T21:39:39.904562Z",
    "country": "us",
    "parent": null,
    "longitude": -70.6678009033203,
    "latitude": 41.9583015441895,
    "regions": [
      "1222"
    ]
  },
  {
    "code": "1e324",
    "name": "Plainville",
    "updated_at": "2014-09-22T21:39:39.881587Z",
    "country": "us",
    "parent": null,
    "longitude": -71.3332977294922,
    "latitude": 42.0041999816895,
    "regions": [
      "1222"
    ]
  },
  {
    "code": "1e323",
    "name": "Pittsfield",
    "updated_at": "2014-09-22T21:39:39.858228Z",
    "country": "us",
    "parent": null,
    "longitude": -73.2457962036133,
    "latitude": 42.4500007629395,
    "regions": [
      "1222"
    ]
  },
  {
    "code": "1e322",
    "name": "Peabody",
    "updated_at": "2014-09-22T21:39:39.834626Z",
    "country": "us",
    "parent": null,
    "longitude": -70.92919921875,
    "latitude": 42.5278015136719,
    "regions": [
      "1222"
    ]
  },
  {
    "code": "1e321",
    "name": "Orleans",
    "updated_at": "2014-09-22T21:39:39.810718Z",
    "country": "us",
    "parent": null,
    "longitude": -69.9903030395508,
    "latitude": 41.7896995544434,
    "regions": [
      "1222"
    ]
  },
  {
    "code": "1e320",
    "name": "Orange",
    "updated_at": "2014-09-22T21:39:39.785260Z",
    "country": "us",
    "parent": null,
    "longitude": -72.310302734375,
    "latitude": 42.5903015136719,
    "regions": [
      "1222"
    ]
  },
  {
    "code": "1e31f",
    "name": "Oak Bluffs",
    "updated_at": "2014-09-22T21:39:39.724973Z",
    "country": "us",
    "parent": null,
    "longitude": -70.5625,
    "latitude": 41.4542007446289,
    "regions": [
      "1222",
      "13b4"
    ]
  },
  {
    "code": "1e31e",
    "name": "Norwood",
    "updated_at": "2014-09-22T21:39:39.687386Z",
    "country": "us",
    "parent": null,
    "longitude": -71.1999969482422,
    "latitude": 42.1944007873535,
    "regions": [
      "1222"
    ]
  },
  {
    "code": "1e31d",
    "name": "Norton",
    "updated_at": "2014-09-22T21:39:39.647019Z",
    "country": "us",
    "parent": null,
    "longitude": -71.1875,
    "latitude": 41.9667015075684,
    "regions": [
      "1222"
    ]
  },
  {
    "code": "1e31c",
    "name": "Northborough",
    "updated_at": "2014-09-22T21:39:39.607351Z",
    "country": "us",
    "parent": null,
    "longitude": -71.6417007446289,
    "latitude": 42.3194007873535,
    "regions": [
      "1222"
    ]
  },
  {
    "code": "1e31b",
    "name": "Northampton",
    "updated_at": "2014-09-22T21:39:39.584313Z",
    "country": "us",
    "parent": null,
    "longitude": -72.6417007446289,
    "latitude": 42.3250007629395,
    "regions": [
      "1222"
    ]
  },
  {
    "code": "1e31a",
    "name": "North Westport",
    "updated_at": "2014-09-22T21:39:39.561420Z",
    "country": "us",
    "parent": null,
    "longitude": -71.0888977050781,
    "latitude": 41.6603012084961,
    "regions": [
      "1222"
    ]
  },
  {
    "code": "1e319",
    "name": "North Truro",
    "updated_at": "2014-09-22T21:39:39.538095Z",
    "country": "us",
    "parent": null,
    "longitude": -70.0958023071289,
    "latitude": 42.0332984924316,
    "regions": [
      "1222"
    ]
  },
  {
    "code": "1e318",
    "name": "North Eastham",
    "updated_at": "2014-09-22T21:39:39.514462Z",
    "country": "us",
    "parent": null,
    "longitude": -69.99169921875,
    "latitude": 41.8650016784668,
    "regions": []
  },
  {
    "code": "1e317",
    "name": "North Dartmouth",
    "updated_at": "2014-09-22T21:39:39.490962Z",
    "country": "us",
    "parent": null,
    "longitude": -70.9708023071289,
    "latitude": 41.6389007568359,
    "regions": [
      "1222"
    ]
  },
  {
    "code": "1e316",
    "name": "North Chelmsford",
    "updated_at": "2014-09-22T21:39:39.462405Z",
    "country": "us",
    "parent": null,
    "longitude": -71.38330078125,
    "latitude": 42.6389007568359,
    "regions": [
      "1222"
    ]
  },