[
  {
    "code": "1d11d",
    "name": "Međugorje",
    "updated_at": "2014-09-22T21:36:38.842487Z",
    "country": "ba",
    "parent": null,
    "longitude": 17.678545,
    "latitude": 43.193182,
    "regions": []
  },
  {
    "code": "1d11c",
    "name": "Medulin",
    "updated_at": "2014-09-22T21:36:38.816051Z",
    "country": "hr",
    "parent": null,
    "longitude": 13.9350004196167,
    "latitude": 44.8224983215332,
    "regions": [
      "1195"
    ]
  },
  {
    "code": "1d11b",
    "name": "Medveja",
    "updated_at": "2014-09-22T21:36:38.782636Z",
    "country": "hr",
    "parent": null,
    "longitude": 14.2666997909546,
    "latitude": 45.2682991027832,
    "regions": [
      "1195",
      "1247"
    ]
  },
  {
    "code": "1d11a",
    "name": "Medvode",
    "updated_at": "2014-09-22T21:36:38.745248Z",
    "country": "si",
    "parent": null,
    "longitude": 14.4333000183105,
    "latitude": 46.13330078125,
    "regions": [
      "1246"
    ]
  },
  {
    "code": "1d119",
    "name": "Meljine",
    "updated_at": "2014-09-22T21:36:38.711430Z",
    "country": "me",
    "parent": null,
    "longitude": 18.5618991851807,
    "latitude": 42.4557991027832,
    "regions": [
      "161c"
    ]
  },
  {
    "code": "1d118",
    "name": "Mengeš",
    "updated_at": "2014-09-22T21:36:38.696295Z",
    "country": "si",
    "parent": null,
    "longitude": 14.5749998092651,
    "latitude": 46.1669006347656,
    "regions": [
      "1246"
    ]
  },
  {
    "code": "1d117",
    "name": "Metajna",
    "updated_at": "2014-09-22T21:36:38.681171Z",
    "country": "hr",
    "parent": null,
    "longitude": 15.0118999481201,
    "latitude": 44.5069007873535,
    "regions": [
      "123e",
      "129d"
    ]
  },
  {
    "code": "1d116",
    "name": "Metković",
    "updated_at": "2014-09-22T21:36:38.663889Z",
    "country": "hr",
    "parent": null,
    "longitude": 17.6483001708984,
    "latitude": 43.05419921875,
    "regions": [
      "1488"
    ]
  },
  {
    "code": "1d115",
    "name": "Metlika",
    "updated_at": "2014-09-22T21:36:38.646229Z",
    "country": "si",
    "parent": null,
    "longitude": 15.3142004013062,
    "latitude": 45.6472015380859,
    "regions": [
      "11cc"
    ]
  },
  {
    "code": "1d114",
    "name": "Mihanići",
    "updated_at": "2014-09-22T21:36:38.630592Z",
    "country": "hr",
    "parent": null,
    "longitude": 18.3274993896484,
    "latitude": 42.5633010864258,
    "regions": [
      "1488"
    ]
  },
  {
    "code": "1d113",
    "name": "Miljana",
    "updated_at": "2014-09-22T21:36:38.608939Z",
    "country": "hr",
    "parent": null,
    "longitude": 15.6208000183105,
    "latitude": 46.1258010864258,
    "regions": [
      "12a9"
    ]
  },
  {
    "code": "1d112",
    "name": "Milna",
    "updated_at": "2014-09-22T21:36:38.582235Z",
    "country": "hr",
    "parent": null,
    "longitude": 16.4507999420166,
    "latitude": 43.3266983032227,
    "regions": [
      "11b1",
      "14b3"
    ]
  },
  {
    "code": "1d111",
    "name": "Mirce",
    "updated_at": "2014-09-22T21:36:38.527866Z",
    "country": "hr",
    "parent": null,
    "longitude": 16.5244007110596,
    "latitude": 43.377498626709,
    "regions": [
      "11b1",
      "14b3"
    ]
  },
  {
    "code": "1d110",
    "name": "Mlini",
    "updated_at": "2014-09-22T21:36:38.490623Z",
    "country": "hr",
    "parent": null,
    "longitude": 18.2071990966797,
    "latitude": 42.6231002807617,
    "regions": [
      "1488"
    ]
  },
  {
    "code": "1d10f",
    "name": "Močići",
    "updated_at": "2014-09-22T21:36:38.452599Z",
    "country": "hr",
    "parent": null,
    "longitude": 18.2511005401611,
    "latitude": 42.5616989135742,
    "regions": [
      "1488"
    ]
  },
  {
    "code": "1d10e",
    "name": "Modrušani",
    "updated_at": "2014-09-22T21:36:38.433197Z",
    "country": "hr",
    "parent": null,
    "longitude": 13.8736000061035,
    "latitude": 45.1192016601562,
    "regions": [
      "1195"
    ]
  },
  {
    "code": "1d10d",
    "name": "Mojkovac",
    "updated_at": "2014-09-22T21:36:38.415900Z",
    "country": "me",
    "parent": null,
    "longitude": 19.5825004577637,
    "latitude": 42.9639015197754,
    "regions": []
  },
  {
    "code": "1d10c",
    "name": "Mojstrana",
    "updated_at": "2014-09-22T21:36:38.399370Z",
    "country": "si",
    "parent": null,
    "longitude": 13.936900138855,
    "latitude": 46.4611015319824,
    "regions": [
      "11c8"
    ]
  },
  {
    "code": "1d10b",
    "name": "Mokošica",
    "updated_at": "2014-09-22T21:36:38.381905Z",
    "country": "hr",
    "parent": null,
    "longitude": 18.0902996063232,
    "latitude": 42.6755981445312,
    "regions": [
      "1488"
    ]
  },
  {
    "code": "1d10a",
    "name": "Mokra Gora",
    "updated_at": "2014-09-22T21:36:38.362622Z",
    "country": "rs",
    "parent": null,
    "longitude": 19.5060997009277,
    "latitude": 43.7907981872559,
    "regions": [
      "1367"
    ]
  },
  {
    "code": "1d109",
    "name": "Molat",
    "updated_at": "2014-09-22T21:36:38.330140Z",
    "country": "hr",
    "parent": null,
    "longitude": 14.8832998275757,
    "latitude": 44.2167015075684,
    "regions": [
      "15fb"
    ]
  },
  {
    "code": "1d108",
    "name": "Molunat",
    "updated_at": "2014-09-22T21:36:38.311741Z",
    "country": "hr",
    "parent": null,
    "longitude": 18.4372005462646,
    "latitude": 42.4500007629395,
    "regions": [
      "1488"
    ]
  },
  {
    "code": "1d107",
    "name": "Momjan",
    "updated_at": "2014-09-22T21:36:38.291987Z",
    "country": "hr",
    "parent": null,
    "longitude": 13.7110996246338,
    "latitude": 45.4385986328125,
    "regions": [
      "1195"
    ]
  },
  {
    "code": "1d106",
    "name": "Moravske-Toplice",
    "updated_at": "2014-09-22T21:36:38.272037Z",
    "country": "si",
    "parent": null,
    "longitude": 16.2255992889404,
    "latitude": 46.6875,
    "regions": [
      "11c9"
    ]
  },
  {
    "code": "1d105",
    "name": "Morović",
    "updated_at": "2014-09-22T21:36:38.255065Z",
    "country": "rs",
    "parent": null,
    "longitude": 19.2180995941162,
    "latitude": 45.00830078125,
    "regions": [
      "1347"
    ]
  },
  {
    "code": "1d104",
    "name": "Mošćenice",
    "updated_at": "2014-09-22T21:36:38.239734Z",
    "country": "hr",
    "parent": null,
    "longitude": 14.2508001327515,
    "latitude": 45.2174987792969,
    "regions": [
      "1195",
      "1247"
    ]
  },
  {
    "code": "1d103",
    "name": "Mošćenička Draga",
    "updated_at": "2014-09-22T21:36:38.222059Z",
    "country": "hr",
    "parent": null,
    "longitude": 14.2522001266479,
    "latitude": 45.2378005981445,
    "regions": [
      "1195",
      "1247"
    ]
  },
  {
    "code": "1d102",
    "name": "Mostar",
    "updated_at": "2014-09-22T21:36:38.204682Z",
    "country": "ba",
    "parent": null,
    "longitude": 17.8115634918213,
    "latitude": 43.3444671630859,
    "regions": []
  },
  {
    "code": "1d101",
    "name": "Most na Soči",
    "updated_at": "2014-09-22T21:36:38.189182Z",
    "country": "si",
    "parent": null,
    "longitude": 13.7389001846313,
    "latitude": 46.146900177002,
    "regions": []
  },
  {
    "code": "1d100",
    "name": "Motovun",
    "updated_at": "2014-09-22T21:36:38.173193Z",
    "country": "hr",
    "parent": null,
    "longitude": 13.8285999298096,
    "latitude": 45.3367004394531,
    "regions": [
      "1195"
    ]
  },
  {
    "code": "1d0ff",
    "name": "Mozirje",
    "updated_at": "2014-09-22T21:36:38.151675Z",
    "country": "si",
    "parent": null,
    "longitude": 14.9632997512817,
    "latitude": 46.3394012451172,
    "regions": [
      "123b"
    ]
  },
  {
    "code": "1d0fe",
    "name": "Mrčevo",
    "updated_at": "2014-09-22T21:36:38.134454Z",
    "country": "hr",
    "parent": null,
    "longitude": 17.9832992553711,
    "latitude": 42.7332992553711,
    "regions": [
      "1488"
    ]
  },
  {
    "code": "1d0fd",
    "name": "Mrgani",
    "updated_at": "2014-09-22T21:36:38.116059Z",
    "country": "hr",
    "parent": null,
    "longitude": 13.7825002670288,
    "latitude": 45.1268997192383,
    "regions": []
  },
  {
    "code": "1d0fc",
    "name": "Mrkopalj",
    "updated_at": "2014-09-22T21:36:38.097517Z",
    "country": "hr",
    "parent": null,
    "longitude": 14.855299949646,
    "latitude": 45.315601348877,
    "regions": [
      "1247"
    ]
  },
  {
    "code": "1d0fb",
    "name": "Mugeba",
    "updated_at": "2014-09-22T21:36:38.042390Z",
    "country": "hr",
    "parent": null,
    "longitude": 13.6189002990723,
    "latitude": 45.1913986206055,
    "regions": [
      "1195"
    ]
  },
  {
    "code": "1d0fa",
    "name": "Muna",
    "updated_at": "2014-09-22T21:36:38.022806Z",
    "country": "hr",
    "parent": null,
    "longitude": 15.6667003631592,
    "latitude": 43.6500015258789,
    "regions": [
      "15fc"
    ]
  },
  {
    "code": "1d0f9",
    "name": "Mundanije",
    "updated_at": "2014-09-22T21:36:38.005637Z",
    "country": "hr",
    "parent": null,
    "longitude": 14.7624998092651,
    "latitude": 44.7710990905762,
    "regions": [
      "1226",
      "1247"
    ]
  },
  {
    "code": "1d0f8",
    "name": "Muntić",
    "updated_at": "2014-09-22T21:36:37.979604Z",
    "country": "hr",
    "parent": null,
    "longitude": 13.9469003677368,
    "latitude": 44.9258003234863,
    "regions": [
      "1195"
    ]
  },
  {
    "code": "1d0f7",
    "name": "Murska Sobota",
    "updated_at": "2014-09-22T21:36:37.953489Z",
    "country": "si",
    "parent": null,
    "longitude": 16.1664009094238,
    "latitude": 46.6624984741211,
    "regions": [
      "11c9"
    ]
  },
  {
    "code": "1d0f6",
    "name": "Murter",
    "updated_at": "2014-09-22T21:36:37.923614Z",
    "country": "hr",
    "parent": null,
    "longitude": 15.6061000823975,
    "latitude": 43.8125,
    "regions": [
      "15fc"
    ]
  },
  {
    "code": "1d0f5",
    "name": "Murvica",
    "updated_at": "2014-09-22T21:36:37.891565Z",
    "country": "hr",
    "parent": null,
    "longitude": 16.6000003814697,
    "latitude": 43.2667007446289,
    "regions": [
      "11b1",
      "14b3"
    ]
  },
  {
    "code": "1d0f4",
    "name": "Mušalež",
    "updated_at": "2014-09-22T21:36:37.859182Z",
    "country": "hr",
    "parent": null,
    "longitude": 13.6443996429443,
    "latitude": 45.2113990783691,
    "regions": [
      "1195"
    ]
  },
  {
    "code": "1d0f3",
    "name": "Nadin",
    "updated_at": "2014-09-22T21:36:37.804228Z",
    "country": "hr",
    "parent": null,
    "longitude": 15.5,
    "latitude": 44.0833015441895,
    "regions": [
      "15fb"
    ]
  },
  {
    "code": "1d0f2",
    "name": "Naklo",
    "updated_at": "2014-09-22T21:36:37.785958Z",
    "country": "si",
    "parent": null,
    "longitude": 14.3171997070312,
    "latitude": 46.2728004455566,
    "regions": [
      "11c8"
    ]
  },
  {
    "code": "1d0f1",
    "name": "Nedeščina",
    "updated_at": "2014-09-22T21:36:37.750345Z",
    "country": "hr",
    "parent": null,
    "longitude": 14.1119003295898,
    "latitude": 45.1399993896484,
    "regions": [
      "1195"
    ]
  },
  {
    "code": "1d0f0",
    "name": "Negotin",
    "updated_at": "2014-09-22T21:36:37.723934Z",
    "country": "rs",
    "parent": null,
    "longitude": 22.5307998657227,
    "latitude": 44.2263984680176,
    "regions": [
      "1367"
    ]
  },
  {
    "code": "1d0ef",
    "name": "Negotino",
    "updated_at": "2014-09-22T21:36:37.697737Z",
    "country": "mk",
    "parent": null,
    "longitude": 22.0891990661621,
    "latitude": 41.4838981628418,
    "regions": []
  },
  {
    "code": "1d0ee",
    "name": "Nemenikuće",
    "updated_at": "2014-09-22T21:36:37.668680Z",
    "country": "rs",
    "parent": null,
    "longitude": 20.596399307251,
    "latitude": 44.4963989257812,
    "regions": [
      "1367"
    ]
  },
  {
    "code": "1d0ed",
    "name": "Nerezine",
    "updated_at": "2014-09-22T21:36:34.611821Z",
    "country": "hr",
    "parent": null,
    "longitude": 14.3933000564575,
    "latitude": 44.6575012207031,
    "regions": [
      "11b7",
      "1247"
    ]
  },
  {
    "code": "1d0ec",
    "name": "Nerežišće",
    "updated_at": "2014-09-22T21:36:34.594422Z",
    "country": "hr",
    "parent": null,
    "longitude": 16.5785999298096,
    "latitude": 43.3311004638672,
    "regions": [
      "11b1",
      "14b3"
    ]
  },
  {
    "code": "1d0eb",
    "name": "Neum",
    "updated_at": "2014-09-22T21:36:34.576094Z",
    "country": "ba",
    "parent": null,
    "longitude": 17.6156005859375,
    "latitude": 42.9233016967773,
    "regions": []
  },
  {
    "code": "1d0ea",
    "name": "Neviđane",
    "updated_at": "2014-09-22T21:36:34.560374Z",
    "country": "hr",
    "parent": null,
    "longitude": 15.3406000137329,
    "latitude": 43.980598449707,
    "regions": [
      "15fb"
    ]
  },
  {
    "code": "1d0e9",
    "name": "Nikšić",
    "updated_at": "2014-09-22T21:36:34.543029Z",
    "country": "me",
    "parent": null,
    "longitude": 18.957799911499,
    "latitude": 42.7747001647949,
    "regions": []
  },
  {
    "code": "1d0e8",
    "name": "Niš",
    "updated_at": "2014-09-22T21:36:34.503023Z",
    "country": "rs",
    "parent": null,
    "longitude": 21.903299331665,
    "latitude": 43.3246994018555,
    "regions": [
      "1367"
    ]
  },
  {
    "code": "1d0e7",
    "name": "Nižepole",
    "updated_at": "2014-09-22T21:36:34.477040Z",
    "country": "mk",
    "parent": null,
    "longitude": 21.2458000183105,
    "latitude": 41.011100769043,
    "regions": []
  },
  {
    "code": "1d0e6",
    "name": "Njegovuđa",
    "updated_at": "2014-09-22T21:36:34.449435Z",
    "country": "me",
    "parent": null,
    "longitude": 19.2252998352051,
    "latitude": 43.124698638916,
    "regions": []
  },
  {
    "code": "1d0e5",
    "name": "Njivice",
    "updated_at": "2014-09-22T21:36:34.417970Z",
    "country": "hr",
    "parent": null,
    "longitude": 14.5385999679565,
    "latitude": 45.1581001281738,
    "regions": [
      "11b0",
      "1247"
    ]
  },
  {
    "code": "1d0e4",
    "name": "Nova Gorica",
    "updated_at": "2014-09-22T21:36:34.386688Z",
    "country": "si",
    "parent": null,
    "longitude": 13.6436004638672,
    "latitude": 45.9613990783691,
    "regions": []
  },
  {
    "code": "1d0e3",
    "name": "Novaki Pazinski",
    "updated_at": "2014-09-22T21:36:34.363461Z",
    "country": "hr",
    "parent": null,
    "longitude": 13.9921998977661,
    "latitude": 45.2667007446289,
    "regions": [
      "1195"
    ]
  },
  {
    "code": "1d0e2",
    "name": "Novalja",
    "updated_at": "2014-09-22T21:36:34.346402Z",
    "country": "hr",
    "parent": null,
    "longitude": 14.8866996765137,
    "latitude": 44.5578002929688,
    "regions": [
      "123e",
      "129d"
    ]
  },
  {
    "code": "1d0e1",
    "name": "Nova Vas",
    "updated_at": "2014-09-22T21:36:34.313126Z",
    "country": "hr",
    "parent": null,
    "longitude": 13.6571998596191,
    "latitude": 45.2633018493652,
    "regions": [
      "1195"
    ]
  },
  {
    "code": "1d0e0",
    "name": "Nova Vas",
    "updated_at": "2014-09-22T21:36:34.294364Z",
    "country": "si",
    "parent": null,
    "longitude": 14.5058002471924,
    "latitude": 45.7717018127441,
    "regions": [
      "11cb"
    ]
  },
  {
    "code": "1d0df",
    "name": "Novi Banovci",
    "updated_at": "2014-09-22T21:36:34.274154Z",
    "country": "rs",
    "parent": null,
    "longitude": 20.2819004058838,
    "latitude": 44.9547004699707,
    "regions": [
      "1347"
    ]
  },
  {
    "code": "1d0de",
    "name": "Novi Bečej",
    "updated_at": "2014-09-22T21:36:34.247558Z",
    "country": "rs",
    "parent": null,
    "longitude": 20.1355991363525,
    "latitude": 45.5985984802246,
    "regions": [
      "1347"
    ]
  },
  {
    "code": "1d0dd",
    "name": "Nov Dojran",
    "updated_at": "2014-09-22T21:36:34.222100Z",
    "country": "mk",
    "parent": null,
    "longitude": 22.7061004638672,
    "latitude": 41.2206001281738,
    "regions": []
  },
  {
    "code": "1d0dc",
    "name": "Novigrad Dalmatia",
    "updated_at": "2014-09-22T21:36:34.189344Z",
    "country": "hr",
    "parent": null,
    "longitude": 15.5542001724243,
    "latitude": 44.1838989257812,
    "regions": [
      "15fb"
    ]
  },
  {
    "code": "1d0db",
    "name": "Novigrad Istria",
    "updated_at": "2014-09-22T21:36:34.158205Z",
    "country": "hr",
    "parent": null,
    "longitude": 13.5589046478271,
    "latitude": 45.3159255981445,
    "regions": [
      "1195"
    ]
  },
  {
    "code": "1d0da",
    "name": "Novi Pazar",
    "updated_at": "2014-09-22T21:36:34.122703Z",
    "country": "rs",
    "parent": null,
    "longitude": 20.5121994018555,
    "latitude": 43.1366996765137,
    "regions": [
      "1367"
    ]
  },
  {
    "code": "1d0d9",
    "name": "Novi Sad",
    "updated_at": "2014-09-22T21:36:34.106736Z",
    "country": "rs",
    "parent": null,
    "longitude": 19.8507518768311,
    "latitude": 45.2609443664551,
    "regions": [
      "1347"
    ]
  },
  {
    "code": "1d0d8",
    "name": "Novi Vinodolski",
    "updated_at": "2014-09-22T21:36:34.090553Z",
    "country": "hr",
    "parent": null,
    "longitude": 14.7889003753662,
    "latitude": 45.128101348877,
    "regions": [
      "1247"
    ]
  },
  {
    "code": "1d0d7",
    "name": "Novo Mesto",
    "updated_at": "2014-09-22T21:36:34.072600Z",
    "country": "si",
    "parent": null,
    "longitude": 15.1646995544434,
    "latitude": 45.7924995422363,
    "regions": [
      "11cc"
    ]
  },
  {
    "code": "1d0d6",
    "name": "Novska",
    "updated_at": "2014-09-22T21:36:34.015875Z",
    "country": "hr",
    "parent": null,
    "longitude": 16.976900100708,
    "latitude": 45.3405990600586,
    "regions": [
      "135e"
    ]
  },
  {
    "code": "1d0d5",
    "name": "Obrovac",
    "updated_at": "2014-09-22T21:36:33.960230Z",
    "country": "hr",
    "parent": null,
    "longitude": 15.6822004318237,
    "latitude": 44.2005996704102,
    "regions": [
      "15fb"
    ]
  },
  {
    "code": "1d0d4",
    "name": "Odžak",
    "updated_at": "2014-09-22T21:36:33.931833Z",
    "country": "ba",
    "parent": null,
    "longitude": 18.3267002105713,
    "latitude": 45.011100769043,
    "regions": []
  },
  {
    "code": "1d0d3",
    "name": "Ogulin",
    "updated_at": "2014-09-22T21:36:33.899776Z",
    "country": "hr",
    "parent": null,
    "longitude": 15.2285995483398,
    "latitude": 45.2661018371582,
    "regions": [
      "1248"
    ]
  },
  {
    "code": "1d0d2",
    "name": "Ohrid",
    "updated_at": "2014-09-22T21:36:33.872972Z",
    "country": "mk",
    "parent": null,
    "longitude": 20.8019008636475,
    "latitude": 41.1171989440918,
    "regions": []
  },
  {
    "code": "1d0d1",
    "name": "Okreti",
    "updated_at": "2014-09-22T21:36:33.858614Z",
    "country": "hr",
    "parent": null,
    "longitude": 13.8060998916626,
    "latitude": 45.1108016967773,
    "regions": [
      "1195"
    ]
  },
  {
    "code": "1d0d0",
    "name": "Olovo",
    "updated_at": "2014-09-22T21:36:33.841295Z",
    "country": "ba",
    "parent": null,
    "longitude": 18.582799911499,
    "latitude": 44.1300010681152,
    "regions": []
  },
  {
    "code": "1d0cf",
    "name": "Omiš",
    "updated_at": "2014-09-22T21:36:33.825890Z",
    "country": "hr",
    "parent": null,
    "longitude": 16.6886005401611,
    "latitude": 43.4446983337402,
    "regions": [
      "14b3"
    ]
  },
  {
    "code": "1d0ce",
    "name": "Omišalj",
    "updated_at": "2014-09-22T21:36:33.809540Z",
    "country": "hr",
    "parent": null,
    "longitude": 14.5564002990723,
    "latitude": 45.2089004516602,
    "regions": [
      "11b0",
      "1247"
    ]
  },
  {
    "code": "1d0cd",
    "name": "Opatija",
    "updated_at": "2014-09-22T21:36:33.792427Z",
    "country": "hr",
    "parent": null,
    "longitude": 14.3083000183105,
    "latitude": 45.3391990661621,
    "regions": [
      "1195",
      "1247"
    ]
  },
  {
    "code": "1d0cc",
    "name": "Opovo",
    "updated_at": "2014-09-22T21:36:33.730427Z",
    "country": "rs",
    "parent": null,
    "longitude": 20.4302997589111,
    "latitude": 45.0522003173828,
    "regions": [
      "1367"
    ]
  },
  {
    "code": "1d0cb",
    "name": "Oprtalj",
    "updated_at": "2014-09-22T21:36:33.709385Z",
    "country": "hr",
    "parent": null,
    "longitude": 13.8261003494263,
    "latitude": 45.3816986083984,
    "regions": [
      "1195"
    ]
  },
  {
    "code": "1d0ca",
    "name": "Opuzen",
    "updated_at": "2014-09-22T21:36:33.681276Z",
    "country": "hr",
    "parent": null,
    "longitude": 17.5655994415283,
    "latitude": 43.0153007507324,
    "regions": [
      "1488"
    ]
  },
  {
    "code": "1d0c9",
    "name": "Orašac",
    "updated_at": "2014-02-21T18:47:51.199238Z",
    "country": "hr",
    "parent": null,
    "longitude": 18.0077991485596,
    "latitude": 42.7019004821777,
    "regions": [
      "1488"
    ]
  },
  {
    "code": "1d0c8",
    "name": "Orbanići",
    "updated_at": "2014-09-22T21:36:33.621156Z",
    "country": "hr",
    "parent": null,
    "longitude": 13.917200088501,
    "latitude": 45.0036010742188,
    "regions": [
      "1195"
    ]
  },
  {
    "code": "1d0c7",
    "name": "Orebić",
    "updated_at": "2014-09-22T21:36:33.600510Z",
    "country": "hr",
    "parent": null,
    "longitude": 17.1742515563965,
    "latitude": 42.9748382568359,
    "regions": [
      "1488"
    ]
  },
  {
    "code": "1d0c6",
    "name": "Oroslavje",
    "updated_at": "2014-09-22T21:36:33.565935Z",
    "country": "hr",
    "parent": null,
    "longitude": 15.9113998413086,
    "latitude": 46.002799987793,
    "regions": [
      "12a9"
    ]
  },
  {
    "code": "1d0c5",
    "name": "Orovnik",
    "updated_at": "2014-09-22T21:36:33.549701Z",
    "country": "mk",
    "parent": null,
    "longitude": 20.7541999816895,
    "latitude": 41.1733016967773,
    "regions": []
  },
  {
    "code": "1d0c4",
    "name": "Osečina",
    "updated_at": "2014-09-22T21:36:33.536041Z",
    "country": "rs",
    "parent": null,
    "longitude": 19.6014003753662,
    "latitude": 44.3731002807617,
    "regions": []
  },
  {
    "code": "1d0c3",
    "name": "Osijek",
    "updated_at": "2014-09-22T21:36:33.521341Z",
    "country": "hr",
    "parent": null,
    "longitude": 18.6938991546631,
    "latitude": 45.5511016845703,
    "regions": [
      "1364"
    ]
  },
  {
    "code": "1d0c2",
    "name": "Ošlje",
    "updated_at": "2014-09-22T21:36:33.488350Z",
    "country": "hr",
    "parent": null,
    "longitude": 17.7357997894287,
    "latitude": 42.8863983154297,
    "regions": [
      "1488"
    ]
  },
  {
    "code": "1d0c1",
    "name": "Ostrvica",
    "updated_at": "2014-09-22T21:36:33.447022Z",
    "country": "hr",
    "parent": null,
    "longitude": 16.75,
    "latitude": 43.4500007629395,
    "regions": [
      "14b3"
    ]
  },
  {
    "code": "1d0c0",
    "name": "Otavice",
    "updated_at": "2014-09-22T21:36:33.431550Z",
    "country": "hr",
    "parent": null,
    "longitude": 16.2593994140625,
    "latitude": 43.8442001342773,
    "regions": [
      "15fc"
    ]
  },
  {
    "code": "1d0bf",
    "name": "Otočac",
    "updated_at": "2014-09-22T21:36:33.416212Z",
    "country": "hr",
    "parent": null,
    "longitude": 15.2375001907349,
    "latitude": 44.8694000244141,
    "regions": [
      "123e"
    ]
  },
  {
    "code": "1d0be",
    "name": "Otočec",
    "updated_at": "2014-09-22T21:36:33.398552Z",
    "country": "si",
    "parent": null,
    "longitude": 15.2733001708984,
    "latitude": 45.8675003051758,
    "regions": [
      "11cc"
    ]
  },
  {
    "code": "1d0bd",
    "name": "Ozalj",
    "updated_at": "2014-09-22T21:36:33.378269Z",
    "country": "hr",
    "parent": null,
    "longitude": 15.4618997573853,
    "latitude": 45.6067008972168,
    "regions": []
  },
  {
    "code": "1d0bc",
    "name": "Pag",
    "updated_at": "2014-09-22T21:36:33.353727Z",
    "country": "hr",
    "parent": null,
    "longitude": 15.0574998855591,
    "latitude": 44.4449996948242,
    "regions": [
      "129d",
      "15fb"
    ]
  },
  {
    "code": "1d0bb",
    "name": "Pakoštane",
    "updated_at": "2014-09-22T21:36:33.305392Z",
    "country": "hr",
    "parent": null,
    "longitude": 15.5088996887207,
    "latitude": 43.9122009277344,
    "regions": [
      "15fb"
    ]
  },
  {
    "code": "1d0ba",
    "name": "Pale",
    "updated_at": "2014-09-22T21:36:33.289934Z",
    "country": "ba",
    "parent": null,
    "longitude": 18.5694007873535,
    "latitude": 43.8161010742188,
    "regions": []
  },
  {
    "code": "1d0b9",
    "name": "Palić",
    "updated_at": "2014-09-22T21:36:33.276556Z",
    "country": "rs",
    "parent": null,
    "longitude": 19.7672004699707,
    "latitude": 46.1088981628418,
    "regions": [
      "1347"
    ]
  },
  {
    "code": "1d0b8",
    "name": "Pančevo",
    "updated_at": "2014-09-22T21:36:33.263535Z",
    "country": "rs",
    "parent": null,
    "longitude": 20.6403007507324,
    "latitude": 44.8708000183105,
    "regions": [
      "1347"
    ]
  },
  {
    "code": "1d0b7",
    "name": "Paraćin",
    "updated_at": "2014-09-22T21:36:33.250127Z",
    "country": "rs",
    "parent": null,
    "longitude": 21.4078006744385,
    "latitude": 43.8608016967773,
    "regions": [
      "1367"
    ]
  },
  {
    "code": "1d0b6",
    "name": "Pašman",
    "updated_at": "2014-09-22T21:36:33.235995Z",
    "country": "hr",
    "parent": null,
    "longitude": 15.3850002288818,
    "latitude": 43.9575004577637,
    "regions": [
      "15fb"
    ]
  },
  {
    "code": "1d0b5",
    "name": "Otok Pašman",
    "updated_at": "2014-09-22T21:36:33.220507Z",
    "country": "hr",
    "parent": null,
    "longitude": 15.351900100708,
    "latitude": 43.948600769043,
    "regions": []
  },
  {
    "code": "1d0b4",
    "name": "Pazin",
    "updated_at": "2014-09-22T21:36:33.204884Z",
    "country": "hr",
    "parent": null,
    "longitude": 13.9366998672485,
    "latitude": 45.2402992248535,
    "regions": [
      "1195"
    ]
  },
  {
    "code": "1d0b3",
    "name": "Perast",
    "updated_at": "2014-09-22T21:36:33.189319Z",
    "country": "me",
    "parent": null,
    "longitude": 18.6991996765137,
    "latitude": 42.4869003295898,
    "regions": [
      "161d"
    ]
  },
  {
    "code": "1d0b2",
    "name": "Pernica",
    "updated_at": "2014-09-22T21:36:33.175064Z",
    "country": "si",
    "parent": null,
    "longitude": 15.7278003692627,
    "latitude": 46.5800018310547,
    "regions": [
      "1244"
    ]
  },
  {
    "code": "1d0b1",
    "name": "Peruški",
    "updated_at": "2014-09-22T21:36:33.106547Z",
    "country": "hr",
    "parent": null,
    "longitude": 14.0122003555298,
    "latitude": 44.9472007751465,
    "regions": [
      "1195"
    ]
  },
  {
    "code": "1d0b0",
    "name": "Peštani",
    "updated_at": "2014-09-22T21:36:33.086494Z",
    "country": "mk",
    "parent": null,
    "longitude": 20.8108005523682,
    "latitude": 41.0153007507324,
    "regions": []
  },
  {
    "code": "1d0af",
    "name": "Petrovac na Moru",
    "updated_at": "2014-09-22T21:36:33.038200Z",
    "country": "me",
    "parent": null,
    "longitude": 18.9424991607666,
    "latitude": 42.2056007385254,
    "regions": [
      "161b"
    ]
  },
  {
    "code": "1d0ae",
    "name": "Petrovče",
    "updated_at": "2014-09-22T21:36:32.997483Z",
    "country": "si",
    "parent": null,
    "longitude": 15.1899995803833,
    "latitude": 46.24169921875,
    "regions": [
      "123b"
    ]
  },
  {
    "code": "1d0ad",
    "name": "Petrovec",
    "updated_at": "2014-09-22T21:36:32.976598Z",
    "country": "mk",
    "parent": null,
    "longitude": 21.6149997711182,
    "latitude": 41.9388999938965,
    "regions": []
  },
  {
    "code": "1d0ac",
    "name": "Pićan",
    "updated_at": "2014-09-22T21:36:32.924904Z",
    "country": "hr",
    "parent": null,
    "longitude": 14.042799949646,
    "latitude": 45.2061004638672,
    "regions": [
      "1195"
    ]
  },
  {
    "code": "1d0ab",
    "name": "Pinezići",
    "updated_at": "2014-09-22T21:36:32.906526Z",
    "country": "hr",
    "parent": null,
    "longitude": 13.9350004196167,
    "latitude": 44.9650001525879,
    "regions": [
      "1195"
    ]
  },
  {
    "code": "1d0aa",
    "name": "Piran",
    "updated_at": "2014-09-22T21:36:32.887233Z",
    "country": "si",
    "parent": null,
    "longitude": 13.5705995559692,
    "latitude": 45.5278015136719,
    "regions": []
  },
  {
    "code": "1d0a9",
    "name": "Pirot",
    "updated_at": "2014-09-22T21:36:32.871729Z",
    "country": "rs",
    "parent": null,
    "longitude": 22.5860996246338,
    "latitude": 43.1530990600586,
    "regions": [
      "1367"
    ]
  },
  {
    "code": "1d0a8",
    "name": "Pirovac",
    "updated_at": "2014-09-22T21:36:32.855702Z",
    "country": "hr",
    "parent": null,
    "longitude": 15.6728000640869,
    "latitude": 43.8191986083984,
    "regions": [
      "15fc"
    ]
  },
  {
    "code": "1d0a7",
    "name": "Pisak",
    "updated_at": "2014-09-22T21:36:32.831510Z",
    "country": "hr",
    "parent": null,
    "longitude": 16.8500003814697,
    "latitude": 43.4000015258789,
    "regions": [
      "14b3"
    ]
  },
  {
    "code": "1d0a6",
    "name": "Pisarovina",
    "updated_at": "2014-09-22T21:36:32.807370Z",
    "country": "hr",
    "parent": null,
    "longitude": 15.8591995239258,
    "latitude": 45.5863990783691,
    "regions": [
      "130a"
    ]
  },
  {
    "code": "1d0a5",
    "name": "Pišece",
    "updated_at": "2014-09-22T21:36:32.780364Z",
    "country": "si",
    "parent": null,
    "longitude": 15.6410999298096,
    "latitude": 46.0017013549805,
    "regions": [
      "123b"
    ]
  },
  {
    "code": "1d0a4",
    "name": "Pivka",
    "updated_at": "2014-09-22T21:36:32.726782Z",
    "country": "si",
    "parent": null,
    "longitude": 14.1967000961304,
    "latitude": 45.6794013977051,
    "regions": [
      "11cb"
    ]
  },
  {
    "code": "1d0a3",
    "name": "Plaški",
    "updated_at": "2014-09-22T21:36:32.701466Z",
    "country": "hr",
    "parent": null,
    "longitude": 15.3681001663208,
    "latitude": 45.0764007568359,
    "regions": [
      "1248"
    ]
  },
  {
    "code": "1d0a2",
    "name": "Plat",
    "updated_at": "2014-09-22T21:36:32.676169Z",
    "country": "hr",
    "parent": null,
    "longitude": 18.2255992889404,
    "latitude": 42.6086006164551,
    "regions": [
      "1488"
    ]
  },
  {
    "code": "1d0a1",
    "name": "Plav",
    "updated_at": "2014-09-22T21:36:32.657029Z",
    "country": "me",
    "parent": null,
    "longitude": 19.9456005096436,
    "latitude": 42.5969009399414,
    "regions": []
  },
  {
    "code": "1d0a0",
    "name": "Pliskovica",
    "updated_at": "2014-09-22T21:36:32.641077Z",
    "country": "si",
    "parent": null,
    "longitude": 13.7817001342773,
    "latitude": 45.7724990844727,
    "regions": []
  },
  {
    "code": "1d09f",
    "name": "Plitvička Jezera",
    "updated_at": "2014-09-22T21:36:32.624091Z",
    "country": "hr",
    "parent": null,
    "longitude": 15.6203002929688,
    "latitude": 44.8824996948242,
    "regions": [
      "123e"
    ]
  },
  {
    "code": "1d09e",
    "name": "Pljevlja",
    "updated_at": "2014-09-22T21:36:32.604697Z",
    "country": "me",
    "parent": null,
    "longitude": 19.3528003692627,
    "latitude": 43.3518981933594,
    "regions": []
  },
  {
    "code": "1d09d",
    "name": "Ploče",
    "updated_at": "2014-09-22T21:36:32.588136Z",
    "country": "hr",
    "parent": null,
    "longitude": 17.4328002929688,
    "latitude": 43.0560989379883,
    "regions": [
      "1488"
    ]
  },
  {
    "code": "1d09c",
    "name": "Plomin",
    "updated_at": "2014-09-22T21:36:32.568867Z",
    "country": "hr",
    "parent": null,
    "longitude": 14.1810998916626,
    "latitude": 45.1366996765137,
    "regions": [
      "1195"
    ]
  },
  {
    "code": "1d09b",
    "name": "Plužine",
    "updated_at": "2014-09-22T21:36:32.546138Z",
    "country": "me",
    "parent": null,
    "longitude": 18.8393993377686,
    "latitude": 43.1528015136719,
    "regions": []
  },
  {
    "code": "1d09a",
    "name": "Podaca",
    "updated_at": "2014-09-22T21:36:32.524304Z",
    "country": "hr",
    "parent": null,
    "longitude": 17.2975006103516,
    "latitude": 43.1293983459473,
    "regions": [
      "14b3"
    ]
  },
  {
    "code": "1d099",
    "name": "Podčetrtek",
    "updated_at": "2014-09-22T21:36:32.500148Z",
    "country": "si",
    "parent": null,
    "longitude": 15.5986003875732,
    "latitude": 46.1568984985352,
    "regions": [
      "123b"
    ]
  },
  {
    "code": "1d098",
    "name": "Podgora",
    "updated_at": "2014-09-22T21:36:32.478394Z",
    "country": "hr",
    "parent": null,
    "longitude": 17.0771999359131,
    "latitude": 43.2433013916016,
    "regions": [
      "14b3"
    ]
  },
  {
    "code": "1d097",
    "name": "Podgorica",
    "updated_at": "2014-09-22T21:36:32.426105Z",
    "country": "me",
    "parent": null,
    "longitude": 19.2672786712646,
    "latitude": 42.4414749145508,
    "regions": [
      "1620"
    ]
  },
  {
    "code": "1d096",
    "name": "Podgorje",
    "updated_at": "2014-09-22T21:36:32.395294Z",
    "country": "si",
    "parent": null,
    "longitude": 13.9527997970581,
    "latitude": 45.5292015075684,
    "regions": []
  },
  {
    "code": "1d095",
    "name": "Podjelje",
    "updated_at": "2014-09-22T21:36:32.360528Z",
    "country": "si",
    "parent": null,
    "longitude": 13.9666996002197,
    "latitude": 46.3166999816895,
    "regions": [
      "11c8"
    ]
  },
  {
    "code": "1d094",
    "name": "Podnart",
    "updated_at": "2014-09-22T21:36:32.344343Z",
    "country": "si",
    "parent": null,
    "longitude": 14.2666997909546,
    "latitude": 46.2999992370605,
    "regions": [
      "11c8"
    ]
  },
  {
    "code": "1d093",
    "name": "Podobuče",
    "updated_at": "2014-09-22T21:36:32.326552Z",
    "country": "hr",
    "parent": null,
    "longitude": 17.2882995605469,
    "latitude": 42.948600769043,
    "regions": [
      "1488"
    ]
  },
  {
    "code": "1d092",
    "name": "Potpićan",
    "updated_at": "2014-09-22T21:36:32.308522Z",
    "country": "hr",
    "parent": null,
    "longitude": 14.0980997085571,
    "latitude": 45.1888999938965,
    "regions": [
      "1195"
    ]
  },
  {
    "code": "1d091",
    "name": "Podstrana",
    "updated_at": "2014-09-22T21:36:32.270744Z",
    "country": "hr",
    "parent": null,
    "longitude": 16.5508995056152,
    "latitude": 43.4854011535645,
    "regions": [
      "14b3"
    ]
  },
  {
    "code": "1d090",
    "name": "Pokrovnik",
    "updated_at": "2014-09-22T21:36:32.253137Z",
    "country": "hr",
    "parent": null,
    "longitude": 16.0692005157471,
    "latitude": 43.8025016784668,
    "regions": [
      "15fc"
    ]
  },
  {
    "code": "1d08f",
    "name": "Polača",
    "updated_at": "2014-09-22T21:36:32.231059Z",
    "country": "hr",
    "parent": null,
    "longitude": 15.5174999237061,
    "latitude": 44.0182991027832,
    "regions": [
      "15fb"
    ]
  },
  {
    "code": "1d08e",
    "name": "Polače",
    "updated_at": "2014-09-22T21:36:32.212706Z",
    "country": "hr",
    "parent": null,
    "longitude": 17.3777542114258,
    "latitude": 42.7854347229004,
    "regions": [
      "11ce",
      "1454",
      "1488"
    ]
  },
  {
    "code": "1d08d",
    "name": "Poličnik",
    "updated_at": "2014-09-22T21:36:32.194773Z",
    "country": "hr",
    "parent": null,
    "longitude": 15.375599861145,
    "latitude": 44.1781005859375,
    "regions": [
      "15fb"
    ]
  },
  {
    "code": "1d08c",
    "name": "Poljanak",
    "updated_at": "2014-09-22T21:36:32.146287Z",
    "country": "hr",
    "parent": null,
    "longitude": 15.5958003997803,
    "latitude": 44.9213981628418,
    "regions": [
      "123e"
    ]
  },
  {
    "code": "1d08b",
    "name": "Poljane nad Škofjo Loko",
    "updated_at": "2014-09-22T21:36:32.125301Z",
    "country": "si",
    "parent": null,
    "longitude": 14.1999998092651,
    "latitude": 46.13330078125,
    "regions": [
      "11c8"
    ]
  },
  {
    "code": "1d08a",
    "name": "Poljica",
    "updated_at": "2014-09-22T21:36:32.075155Z",
    "country": "hr",
    "parent": null,
    "longitude": 15.2849998474121,
    "latitude": 44.2193984985352,
    "regions": [
      "15fb"
    ]
  },
  {
    "code": "1d089",
    "name": "Poljica",
    "updated_at": "2014-09-22T21:36:32.059636Z",
    "country": "hr",
    "parent": null,
    "longitude": 14.4883003234863,
    "latitude": 45.0847015380859,
    "regions": [
      "11b0",
      "1247"
    ]
  },
  {
    "code": "1d088",
    "name": "Pomer",
    "updated_at": "2014-09-22T21:36:32.043858Z",
    "country": "hr",
    "parent": null,
    "longitude": 13.8957996368408,
    "latitude": 44.8238983154297,
    "regions": [
      "1195"
    ]
  },
  {
    "code": "1d087",
    "name": "Popovača",
    "updated_at": "2014-09-22T21:36:32.028469Z",
    "country": "hr",
    "parent": null,
    "longitude": 16.625,
    "latitude": 45.5696983337402,
    "regions": [
      "135e"
    ]
  },
  {
    "code": "1d086",
    "name": "Poreč",
    "updated_at": "2014-09-22T21:36:31.976707Z",
    "country": "hr",
    "parent": null,
    "longitude": 13.5932331085205,
    "latitude": 45.2282676696777,
    "regions": [
      "1195"
    ]
  },
  {
    "code": "1d085",
    "name": "Porozina",
    "updated_at": "2014-09-22T21:36:31.959558Z",
    "country": "hr",
    "parent": null,
    "longitude": 14.2885999679565,
    "latitude": 45.1305999755859,
    "regions": []
  },
  {
    "code": "1d084",
    "name": "Portorož",
    "updated_at": "2014-09-22T21:36:31.943578Z",
    "country": "si",
    "parent": null,
    "longitude": 13.5882997512817,
    "latitude": 45.5161018371582,
    "regions": []
  },
  {
    "code": "1d083",
    "name": "Posedarje",
    "updated_at": "2014-09-22T21:36:31.901230Z",
    "country": "hr",
    "parent": null,
    "longitude": 15.4766998291016,
    "latitude": 44.2136001586914,
    "regions": [
      "15fb"
    ]
  },
  {
    "code": "1d082",
    "name": "Postire",
    "updated_at": "2014-09-22T21:36:31.880828Z",
    "country": "hr",
    "parent": null,
    "longitude": 16.6322002410889,
    "latitude": 43.3763999938965,
    "regions": [
      "11b1",
      "14b3"
    ]
  },
  {
    "code": "1d081",
    "name": "Postojna",
    "updated_at": "2014-09-22T21:36:31.855446Z",
    "country": "si",
    "parent": null,
    "longitude": 14.2166996002197,
    "latitude": 45.7769012451172,
    "regions": [
      "11cb"
    ]
  },
  {
    "code": "1d080",
    "name": "Povile",
    "updated_at": "2014-09-22T21:36:31.827034Z",
    "country": "hr",
    "parent": null,
    "longitude": 14.8235998153687,
    "latitude": 45.1171989440918,
    "regions": [
      "1247"
    ]
  },
  {
    "code": "1d07f",
    "name": "Povlja",
    "updated_at": "2014-09-22T21:36:31.798210Z",
    "country": "hr",
    "parent": null,
    "longitude": 16.8397006988525,
    "latitude": 43.3335990905762,
    "regions": [
      "11b1",
      "14b3"
    ]
  },
  {
    "code": "1d07e",
    "name": "Povljana",
    "updated_at": "2014-09-22T21:36:31.780621Z",
    "country": "hr",
    "parent": null,
    "longitude": 15.1155996322632,
    "latitude": 44.3466987609863,
    "regions": [
      "129d",
      "15fb"
    ]
  },
  {
    "code": "1d07d",
    "name": "Požarevac",
    "updated_at": "2014-09-22T21:36:31.763530Z",
    "country": "rs",
    "parent": null,
    "longitude": 21.1825008392334,
    "latitude": 44.6152992248535,
    "regions": [
      "1367"
    ]
  },
  {
    "code": "1d07c",
    "name": "Požega",
    "updated_at": "2014-09-22T21:36:31.747772Z",
    "country": "rs",
    "parent": null,
    "longitude": 20.0414009094238,
    "latitude": 43.8464012145996,
    "regions": [
      "1367"
    ]
  },
  {
    "code": "1d07b",
    "name": "Pražnice",
    "updated_at": "2014-09-22T21:36:31.732857Z",
    "country": "hr",
    "parent": null,
    "longitude": 16.6977996826172,
    "latitude": 43.3203010559082,
    "regions": [
      "11b1",
      "14b3"
    ]
  },
  {
    "code": "1d07a",
    "name": "Prčanj",
    "updated_at": "2014-09-22T21:36:31.715169Z",
    "country": "me",
    "parent": null,
    "longitude": 18.7422008514404,
    "latitude": 42.4575004577637,
    "regions": [
      "161d"
    ]
  },
  {
    "code": "1d079",
    "name": "Prebold",
    "updated_at": "2014-09-22T21:36:31.694765Z",
    "country": "si",
    "parent": null,
    "longitude": 15.0924997329712,
    "latitude": 46.2369003295898,
    "regions": [
      "123b"
    ]
  },
  {
    "code": "1d078",
    "name": "Preddvor",
    "updated_at": "2014-09-22T21:36:31.668599Z",
    "country": "si",
    "parent": null,
    "longitude": 14.4231004714966,
    "latitude": 46.3025016784668,
    "regions": [
      "11c8"
    ]
  },
  {
    "code": "1d077",
    "name": "Prelog",
    "updated_at": "2014-09-22T21:36:31.548373Z",
    "country": "hr",
    "parent": null,
    "longitude": 16.6156005859375,
    "latitude": 46.3349990844727,
    "regions": [
      "1366"
    ]
  },
  {
    "code": "1d076",
    "name": "Premantura",
    "updated_at": "2014-09-22T21:36:31.531341Z",
    "country": "hr",
    "parent": null,
    "longitude": 13.9085998535156,
    "latitude": 44.8005981445312,
    "regions": [
      "1195"
    ]
  },
  {
    "code": "1d075",
    "name": "Prestranek",
    "updated_at": "2014-09-22T21:36:31.514082Z",
    "country": "si",
    "parent": null,
    "longitude": 14.1780996322632,
    "latitude": 45.7289009094238,
    "regions": [
      "11cb"
    ]
  },
  {
    "code": "1d074",
    "name": "Prgomet",
    "updated_at": "2014-09-22T21:36:31.498191Z",
    "country": "hr",
    "parent": null,
    "longitude": 16.2332992553711,
    "latitude": 43.61669921875,
    "regions": [
      "14b3"
    ]
  },
  {
    "code": "1d073",
    "name": "Prhati",
    "updated_at": "2014-09-22T21:36:31.479095Z",
    "country": "hr",
    "parent": null,
    "longitude": 13.7863998413086,
    "latitude": 45.2846984863281,
    "regions": [
      "1195"
    ]
  },
  {
    "code": "1d072",
    "name": "Pridraga",
    "updated_at": "2014-09-22T21:36:31.460069Z",
    "country": "hr",
    "parent": null,
    "longitude": 15.5666999816895,
    "latitude": 44.1666984558105,
    "regions": [
      "15fb"
    ]
  },
  {
    "code": "1d071",
    "name": "Prigradica",
    "updated_at": "2014-09-22T21:36:31.410008Z",
    "country": "hr",
    "parent": null,
    "longitude": 16.8078002929688,
    "latitude": 42.9664001464844,
    "regions": [
      "11b3",
      "1488"
    ]
  },
  {
    "code": "1d070",
    "name": "Prijedor",
    "updated_at": "2014-09-22T21:36:31.381647Z",
    "country": "ba",
    "parent": null,
    "longitude": 16.7131004333496,
    "latitude": 44.9813995361328,
    "regions": []
  },
  {
    "code": "1d06f",
    "name": "Prilep",
    "updated_at": "2014-09-22T21:36:31.351393Z",
    "country": "mk",
    "parent": null,
    "longitude": 21.5543994903564,
    "latitude": 41.3464012145996,
    "regions": []
  },
  {
    "code": "1d06e",
    "name": "Primošten",
    "updated_at": "2014-09-22T21:36:31.296677Z",
    "country": "hr",
    "parent": null,
    "longitude": 15.9272003173828,
    "latitude": 43.5868988037109,
    "regions": [
      "15fc"
    ]
  },
  {
    "code": "1d06d",
    "name": "Pristina",
    "updated_at": "2016-02-09T09:32:29.876804Z",
    "country": "xk",
    "parent": null,
    "longitude": 21.1667003631592,
    "latitude": 42.6666984558105,
    "regions": [
      "16c6"
    ]
  },
  {
    "code": "1d06c",
    "name": "Privlaka",
    "updated_at": "2014-09-22T21:36:31.265061Z",
    "country": "hr",
    "parent": null,
    "longitude": 15.1332998275757,
    "latitude": 44.2667007446289,
    "regions": [
      "15fb"
    ]
  },
  {
    "code": "1d06b",
    "name": "Prizna",
    "updated_at": "2014-09-22T21:36:31.245891Z",
    "country": "hr",
    "parent": null,
    "longitude": 15.0110998153687,
    "latitude": 44.6418991088867,
    "regions": [
      "123e"
    ]
  },
  {
    "code": "1d06a",
    "name": "Prnjavor Mali",
    "updated_at": "2014-09-22T21:36:31.226925Z",
    "country": "ba",
    "parent": null,
    "longitude": 17.1144008636475,
    "latitude": 44.7963981628418,
    "regions": []
  },
  {
    "code": "1d069",
    "name": "Promajna",
    "updated_at": "2014-09-22T21:36:31.207000Z",
    "country": "hr",
    "parent": null,
    "longitude": 16.9755992889404,
    "latitude": 43.3361015319824,
    "regions": [
      "14b3"
    ]
  },
  {
    "code": "1d068",
    "name": "Gornji Prozor",
    "updated_at": "2014-09-22T21:36:31.178888Z",
    "country": "hr",
    "parent": null,
    "longitude": 15.2707996368408,
    "latitude": 44.8428001403809,
    "regions": [
      "123e"
    ]
  },
  {
    "code": "1d067",
    "name": "Prvić Luka",
    "updated_at": "2014-09-22T21:36:31.151249Z",
    "country": "hr",
    "parent": null,
    "longitude": 15.8000001907349,
    "latitude": 43.7167015075684,
    "regions": [
      "15fc"
    ]
  },
  {
    "code": "1d066",
    "name": "Prvić Šepurine",
    "updated_at": "2014-09-22T21:36:31.122412Z",
    "country": "hr",
    "parent": null,
    "longitude": 15.8000001907349,
    "latitude": 43.7332992553711,
    "regions": [
      "15fc"
    ]
  },
  {
    "code": "1d065",
    "name": "Ptuj",
    "updated_at": "2014-09-22T21:36:31.088633Z",
    "country": "si",
    "parent": null,
    "longitude": 15.8697004318237,
    "latitude": 46.4213981628418,
    "regions": [
      "1244"
    ]
  },
  {
    "code": "1d064",
    "name": "Pučišća",
    "updated_at": "2014-09-22T21:36:31.057423Z",
    "country": "hr",
    "parent": null,
    "longitude": 16.7339000701904,
    "latitude": 43.3478012084961,
    "regions": [
      "11b1",
      "14b3"
    ]
  },
  {
    "code": "1d063",
    "name": "Pula",
    "updated_at": "2014-09-22T21:36:31.040058Z",
    "country": "hr",
    "parent": null,
    "longitude": 13.8472328186035,
    "latitude": 44.867748260498,
    "regions": [
      "1195"
    ]
  },
  {
    "code": "1d062",
    "name": "Puljane",
    "updated_at": "2014-09-22T21:36:31.022878Z",
    "country": "hr",
    "parent": null,
    "longitude": 16.0466995239258,
    "latitude": 43.988899230957,
    "regions": [
      "15fc"
    ]
  },
  {
    "code": "1d061",
    "name": "Punat",
    "updated_at": "2014-09-22T21:36:31.004713Z",
    "country": "hr",
    "parent": null,
    "longitude": 14.6288995742798,
    "latitude": 45.0147018432617,
    "regions": [
      "11b0",
      "1247"
    ]
  },
  {
    "code": "1d060",
    "name": "Puntera",
    "updated_at": "2014-09-22T21:36:30.966488Z",
    "country": "hr",
    "parent": null,
    "longitude": 14.0206003189087,
    "latitude": 45.0505981445312,
    "regions": [
      "1195"
    ]
  },
  {
    "code": "1d05f",
    "name": "Pušćina",
    "updated_at": "2014-09-22T21:36:30.940346Z",
    "country": "hr",
    "parent": null,
    "longitude": 16.3714008331299,
    "latitude": 46.353099822998,
    "regions": [
      "1366"
    ]
  },
  {
    "code": "1d05e",
    "name": "Putniković",
    "updated_at": "2014-09-22T21:36:30.912871Z",
    "country": "hr",
    "parent": null,
    "longitude": 17.528299331665,
    "latitude": 42.8767013549805,
    "regions": [
      "1488"
    ]
  },
  {
    "code": "1d05d",
    "name": "Arbe",
    "updated_at": "2014-09-22T21:36:30.886163Z",
    "country": "hr",
    "parent": null,
    "longitude": 14.7608003616333,
    "latitude": 44.7569007873535,
    "regions": [
      "1226",
      "1247"
    ]
  },
  {
    "code": "1d05c",
    "name": "Otok Rab",
    "updated_at": "2014-09-22T21:36:30.855030Z",
    "country": "hr",
    "parent": null,
    "longitude": 14.7705097198486,
    "latitude": 44.7756166098156,
    "regions": []
  },
  {
    "code": "1d05b",
    "name": "Rabac",
    "updated_at": "2014-09-22T21:36:30.826210Z",
    "country": "hr",
    "parent": null,
    "longitude": 14.1575002670288,
    "latitude": 45.0793991088867,
    "regions": [
      "1195"
    ]
  },
  {
    "code": "1d05a",
    "name": "Račišće",
    "updated_at": "2014-09-22T21:36:30.798299Z",
    "country": "hr",
    "parent": null,
    "longitude": 17.0167007446289,
    "latitude": 42.9763984680176,
    "regions": [
      "11b3",
      "1488"
    ]
  },
  {
    "code": "1d059",
    "name": "Radenci",
    "updated_at": "2014-09-22T21:36:30.779491Z",
    "country": "si",
    "parent": null,
    "longitude": 16.0442008972168,
    "latitude": 46.6472015380859,
    "regions": [
      "11c9"
    ]
  },
  {
    "code": "1d058",
    "name": "Radmani",
    "updated_at": "2014-09-22T21:36:30.745225Z",
    "country": "hr",
    "parent": null,
    "longitude": 13.6819000244141,
    "latitude": 45.1994018554688,
    "regions": [
      "1195"
    ]
  },
  {
    "code": "1d057",
    "name": "Radomlje",
    "updated_at": "2014-09-22T21:36:30.727313Z",
    "country": "si",
    "parent": null,
    "longitude": 14.6121997833252,
    "latitude": 46.1735992431641,
    "regions": [
      "1246"
    ]
  },
  {
    "code": "1d056",
    "name": "Srednji Radovčići",
    "updated_at": "2014-09-22T21:36:30.687759Z",
    "country": "hr",
    "parent": null,
    "longitude": 18.3453006744385,
    "latitude": 42.5125007629395,
    "regions": [
      "1488"
    ]
  },
  {
    "code": "1d055",
    "name": "Radovići",
    "updated_at": "2014-09-22T21:36:30.662105Z",
    "country": "me",
    "parent": null,
    "longitude": 18.6707992553711,
    "latitude": 42.3964004516602,
    "regions": []
  },
  {
    "code": "1d054",
    "name": "Radovljica",
    "updated_at": "2014-09-22T21:36:30.632208Z",
    "country": "si",
    "parent": null,
    "longitude": 14.1744003295898,
    "latitude": 46.3443984985352,
    "regions": [
      "11c8"
    ]
  },
  {
    "code": "1d053",
    "name": "Rakalj",
    "updated_at": "2014-09-22T21:36:30.550586Z",
    "country": "hr",
    "parent": null,
    "longitude": 14.0500001907349,
    "latitude": 44.9832992553711,
    "regions": [
      "1195"
    ]
  },
  {
    "code": "1d052",
    "name": "Rakek",
    "updated_at": "2014-09-22T21:36:30.516073Z",
    "country": "si",
    "parent": null,
    "longitude": 14.3111000061035,
    "latitude": 45.8133010864258,
    "regions": [
      "11cb"
    ]
  },
  {
    "code": "1d051",
    "name": "Rakitna",
    "updated_at": "2014-09-22T21:36:30.482985Z",
    "country": "si",
    "parent": null,
    "longitude": 14.4441995620728,
    "latitude": 45.8883018493652,
    "regions": [
      "1246"
    ]
  },
  {
    "code": "1d050",
    "name": "Rakotule",
    "updated_at": "2014-09-22T21:36:30.462071Z",
    "country": "hr",
    "parent": null,
    "longitude": 13.8069000244141,
    "latitude": 45.307201385498,
    "regions": [
      "1195"
    ]
  },
  {
    "code": "1d04f",
    "name": "Rakovica",
    "updated_at": "2014-02-21T18:47:49.469285Z",
    "country": "hr",
    "parent": null,
    "longitude": 15.6513996124268,
    "latitude": 45.0,
    "regions": [
      "1248"
    ]
  },
  {
    "code": "1d04e",
    "name": "Rapavel",
    "updated_at": "2014-09-22T21:36:30.410547Z",
    "country": "hr",
    "parent": null,
    "longitude": 13.7753000259399,
    "latitude": 45.2593994140625,
    "regions": [
      "1195"
    ]
  },
  {
    "code": "1d04d",
    "name": "Raša",
    "updated_at": "2014-09-22T21:36:30.381769Z",
    "country": "hr",
    "parent": null,
    "longitude": 14.0789003372192,
    "latitude": 45.0802993774414,
    "regions": [
      "1195"
    ]
  },
  {
    "code": "1d04c",
    "name": "Raslina",
    "updated_at": "2014-09-22T21:36:30.319953Z",
    "country": "hr",
    "parent": null,
    "longitude": 15.854700088501,
    "latitude": 43.8064002990723,
    "regions": [
      "15fc"
    ]
  },
  {
    "code": "1d04b",
    "name": "Rasopasno",
    "updated_at": "2014-09-22T21:36:30.302654Z",
    "country": "hr",
    "parent": null,
    "longitude": 14.5817003250122,
    "latitude": 45.1178016662598,
    "regions": [
      "11b0",
      "1247"
    ]
  },
  {
    "code": "1d04a",
    "name": "Rastovača",
    "updated_at": "2014-09-22T21:36:30.269471Z",
    "country": "hr",
    "parent": null,
    "longitude": 15.6211004257202,
    "latitude": 44.9207992553711,
    "regions": [
      "123e"
    ]
  },
  {
    "code": "1d049",
    "name": "Rava",
    "updated_at": "2014-09-22T21:36:30.250314Z",
    "country": "hr",
    "parent": null,
    "longitude": 15.0666999816895,
    "latitude": 44.021900177002,
    "regions": [
      "15fb"
    ]
  },
  {
    "code": "1d048",
    "name": "Ravna Gora",
    "updated_at": "2014-09-22T21:36:30.231341Z",
    "country": "hr",
    "parent": null,
    "longitude": 14.9352998733521,
    "latitude": 45.3727989196777,
    "regions": [
      "1247"
    ]
  },
  {
    "code": "1d047",
    "name": "Ravni",
    "updated_at": "2014-09-22T21:36:30.181554Z",
    "country": "hr",
    "parent": null,
    "longitude": 14.1641998291016,
    "latitude": 44.9963989257812,
    "regions": [
      "1195"
    ]
  },
  {
    "code": "1d046",
    "name": "Ražanac",
    "updated_at": "2014-09-22T21:36:30.153417Z",
    "country": "hr",
    "parent": null,
    "longitude": 15.302212,
    "latitude": 44.292451,
    "regions": [
      "15fb"
    ]
  },
  {
    "code": "1d045",
    "name": "Razbor",
    "updated_at": "2014-09-22T21:36:30.122384Z",
    "country": "si",
    "parent": null,
    "longitude": 15.25,
    "latitude": 46.0666999816895,
    "regions": [
      "1243"
    ]
  },
  {
    "code": "1d044",
    "name": "Rebići",
    "updated_at": "2014-09-22T21:36:30.087040Z",
    "country": "hr",
    "parent": null,
    "longitude": 14.0242004394531,
    "latitude": 45.0153007507324,
    "regions": [
      "1195"
    ]
  },
  {
    "code": "1d043",
    "name": "Resen",
    "updated_at": "2014-09-22T21:36:30.042770Z",
    "country": "mk",
    "parent": null,
    "longitude": 21.0121994018555,
    "latitude": 41.0889015197754,
    "regions": []
  },
  {
    "code": "1d042",
    "name": "Režanci",
    "updated_at": "2014-09-22T21:36:30.026497Z",
    "country": "hr",
    "parent": null,
    "longitude": 13.9067001342773,
    "latitude": 45.0442008972168,
    "regions": [
      "1195"
    ]
  },
  {
    "code": "1d041",
    "name": "Ribnica na Pohorju",
    "updated_at": "2014-09-22T21:36:29.993704Z",
    "country": "si",
    "parent": null,
    "longitude": 15.2728004455566,
    "latitude": 46.5349998474121,
    "regions": [
      "11ca"
    ]
  },
  {
    "code": "1d040",
    "name": "Ribnik",
    "updated_at": "2014-09-22T21:36:29.975648Z",
    "country": "hr",
    "parent": null,
    "longitude": 15.3478002548218,
    "latitude": 45.5782012939453,
    "regions": [
      "1248"
    ]
  },
  {
    "code": "1d03f",
    "name": "Rijeka",
    "updated_at": "2014-09-22T21:36:29.947999Z",
    "country": "hr",
    "parent": null,
    "longitude": 14.4091997146606,
    "latitude": 45.3431015014648,
    "regions": [
      "1247"
    ]
  },
  {
    "code": "1d03e",
    "name": "Rimske Toplice",
    "updated_at": "2014-09-22T21:36:29.893248Z",
    "country": "si",
    "parent": null,
    "longitude": 15.1999998092651,
    "latitude": 46.13330078125,
    "regions": [
      "123b"
    ]
  },
  {
    "code": "1d03d",
    "name": "Risan",
    "updated_at": "2014-09-22T21:36:29.861936Z",
    "country": "me",
    "parent": null,
    "longitude": 18.6949996948242,
    "latitude": 42.5147018432617,
    "regions": [
      "161d"
    ]
  },
  {
    "code": "1d03c",
    "name": "Risika",
    "updated_at": "2014-09-22T21:36:29.829239Z",
    "country": "hr",
    "parent": null,
    "longitude": 14.6433000564575,
    "latitude": 45.105598449707,
    "regions": []
  },
  {
    "code": "1d03b",
    "name": "Roč",
    "updated_at": "2014-09-22T21:36:29.796865Z",
    "country": "hr",
    "parent": null,
    "longitude": 14.0472002029419,
    "latitude": 45.3922004699707,
    "regions": [
      "1195"
    ]
  },
  {
    "code": "1d03a",
    "name": "Rogač",
    "updated_at": "2014-09-22T21:36:29.778689Z",
    "country": "hr",
    "parent": null,
    "longitude": 16.2968997955322,
    "latitude": 43.3955993652344,
    "regions": [
      "14b3",
      "1614"
    ]
  },
  {
    "code": "1d039",
    "name": "Rogaška Slatina",
    "updated_at": "2014-09-22T21:36:29.760480Z",
    "country": "si",
    "parent": null,
    "longitude": 15.6396999359131,
    "latitude": 46.2374992370605,
    "regions": [
      "123b"
    ]
  },
  {
    "code": "1d038",
    "name": "Rogašovci",
    "updated_at": "2014-09-22T21:36:29.745189Z",
    "country": "si",
    "parent": null,
    "longitude": 16.0333003997803,
    "latitude": 46.7999992370605,
    "regions": []
  },
  {
    "code": "1d037",
    "name": "Rogoznica",
    "updated_at": "2014-09-22T21:36:29.701445Z",
    "country": "hr",
    "parent": null,
    "longitude": 15.9666996002197,
    "latitude": 43.5332984924316,
    "regions": []
  },
  {
    "code": "1d036",
    "name": "Rogoznica",
    "updated_at": "2014-09-22T21:36:29.674012Z",
    "country": "hr",
    "parent": null,
    "longitude": 15.9700002670288,
    "latitude": 43.5247001647949,
    "regions": [
      "15fc"
    ]
  },
  {
    "code": "1d035",
    "name": "Rojnići",
    "updated_at": "2014-09-22T21:36:29.643614Z",
    "country": "hr",
    "parent": null,
    "longitude": 13.9591999053955,
    "latitude": 45.0896987915039,
    "regions": [
      "1195"
    ]
  },
  {
    "code": "1d034",
    "name": "Rovinj",
    "updated_at": "2014-09-22T21:36:29.612073Z",
    "country": "hr",
    "parent": null,
    "longitude": 13.6344623565674,
    "latitude": 45.0819282531738,
    "regions": [
      "1195"
    ]
  },
  {
    "code": "1d033",
    "name": "Rovinjsko Selo",
    "updated_at": "2014-09-22T21:36:29.584061Z",
    "country": "hr",
    "parent": null,
    "longitude": 13.7156000137329,
    "latitude": 45.1063995361328,
    "regions": [
      "1195"
    ]
  },
  {
    "code": "1d032",
    "name": "Rtina",
    "updated_at": "2014-09-22T21:36:29.566459Z",
    "country": "hr",
    "parent": null,
    "longitude": 15.2877998352051,
    "latitude": 44.3039016723633,
    "regions": [
      "15fb"
    ]
  },
  {
    "code": "1d031",
    "name": "Rudnik",
    "updated_at": "2014-09-22T21:36:29.547963Z",
    "country": "rs",
    "parent": null,
    "longitude": 20.5167007446289,
    "latitude": 44.13330078125,
    "regions": [
      "1367"
    ]
  },
  {
    "code": "1d030",
    "name": "Rukavac",
    "updated_at": "2014-09-22T21:36:29.517058Z",
    "country": "hr",
    "parent": null,
    "longitude": 16.2119007110596,
    "latitude": 43.0224990844727,
    "regions": [
      "129c",
      "14b3"
    ]
  },
  {
    "code": "1d02f",
    "name": "Rukavac",
    "updated_at": "2014-09-22T21:36:29.499576Z",
    "country": "hr",
    "parent": null,
    "longitude": 14.2944002151489,
    "latitude": 45.3624992370605,
    "regions": [
      "1195",
      "1247"
    ]
  },
  {
    "code": "1d02e",
    "name": "Ruma",
    "updated_at": "2014-09-22T21:36:29.475145Z",
    "country": "rs",
    "parent": null,
    "longitude": 19.8222007751465,
    "latitude": 45.0080986022949,
    "regions": [
      "1347"
    ]
  },
  {
    "code": "1d02d",
    "name": "Rupa",
    "updated_at": "2014-09-22T21:36:29.449866Z",
    "country": "hr",
    "parent": null,
    "longitude": 14.2863998413086,
    "latitude": 45.4782981872559,
    "regions": [
      "1247"
    ]
  },
  {
    "code": "1d02c",
    "name": "Ruše",
    "updated_at": "2014-09-22T21:36:29.423969Z",
    "country": "si",
    "parent": null,
    "longitude": 15.5158004760742,
    "latitude": 46.5393981933594,
    "regions": [
      "1244"
    ]
  },
  {
    "code": "1d02b",
    "name": "Ružić",
    "updated_at": "2014-09-22T21:36:29.391450Z",
    "country": "hr",
    "parent": null,
    "longitude": 16.25,
    "latitude": 43.8166999816895,
    "regions": [
      "15fc"
    ]
  },
  {
    "code": "1d02a",
    "name": "Ružići",
    "updated_at": "2014-09-22T21:36:29.358623Z",
    "country": "hr",
    "parent": null,
    "longitude": 14.0628004074097,
    "latitude": 45.1455993652344,
    "regions": [
      "1195"
    ]
  },
  {
    "code": "1d029",
    "name": "Saborsko",
    "updated_at": "2014-09-22T21:36:29.318910Z",
    "country": "hr",
    "parent": null,
    "longitude": 15.478099822998,
    "latitude": 44.9832992553711,
    "regions": [
      "1248"
    ]
  },
  {
    "code": "1d028",
    "name": "Šajini",
    "updated_at": "2014-09-22T21:36:29.301679Z",
    "country": "hr",
    "parent": null,
    "longitude": 13.9430999755859,
    "latitude": 45.0318984985352,
    "regions": [
      "1195"
    ]
  },
  {
    "code": "1d027",
    "name": "Sali",
    "updated_at": "2014-09-22T21:36:29.283394Z",
    "country": "hr",
    "parent": null,
    "longitude": 15.1632995605469,
    "latitude": 43.9397010803223,
    "regions": [
      "13e1",
      "15fb"
    ]
  },
  {
    "code": "1d026",
    "name": "Samobor",
    "updated_at": "2014-09-22T21:36:29.264399Z",
    "country": "hr",
    "parent": null,
    "longitude": 15.7180995941162,
    "latitude": 45.8031005859375,
    "regions": [
      "130a"
    ]
  },
  {
    "code": "1d025",
    "name": "Santalezi",
    "updated_at": "2014-09-22T21:36:29.242799Z",
    "country": "hr",
    "parent": null,
    "longitude": 14.0978002548218,
    "latitude": 45.136100769043,
    "regions": [
      "1195"
    ]
  },
  {
    "code": "1d024",
    "name": "Sarajevo",
    "updated_at": "2014-09-22T21:36:29.220188Z",
    "country": "ba",
    "parent": null,
    "longitude": 18.4301344156211,
    "latitude": 43.8601356187882,
    "regions": []
  },
  {
    "code": "1d023",
    "name": "Savar",
    "updated_at": "2014-09-22T21:36:29.165365Z",
    "country": "hr",
    "parent": null,
    "longitude": 15.0180997848511,
    "latitude": 44.0607986450195,
    "regions": [
      "13e1",
      "15fb"
    ]
  },
  {
    "code": "1d022",
    "name": "Savudrija",
    "updated_at": "2014-09-22T21:36:29.132167Z",
    "country": "hr",
    "parent": null,
    "longitude": 13.5066995620728,
    "latitude": 45.4914016723633,
    "regions": [
      "1195"
    ]
  },
  {
    "code": "1d021",
    "name": "Sečovlje",
    "updated_at": "2014-09-22T21:36:29.100559Z",
    "country": "si",
    "parent": null,
    "longitude": 13.6232995986938,
    "latitude": 45.4766998291016,
    "regions": []
  },
  {
    "code": "1d020",
    "name": "Selca",
    "updated_at": "2014-09-22T21:36:29.064231Z",
    "country": "hr",
    "parent": null,
    "longitude": 16.8507995605469,
    "latitude": 43.2971992492676,
    "regions": [
      "11b1",
      "14b3"
    ]
  },
  {
    "code": "1d01f",
    "name": "Selce",
    "updated_at": "2014-09-22T21:36:29.045907Z",
    "country": "hr",
    "parent": null,
    "longitude": 14.7210998535156,
    "latitude": 45.1563987731934,
    "regions": [
      "1247"
    ]
  },
  {
    "code": "1d01e",
    "name": "Seline",
    "updated_at": "2014-02-21T18:47:48.791276Z",
    "country": "hr",
    "parent": null,
    "longitude": 15.4793996810913,
    "latitude": 44.2778015136719,
    "regions": [
      "15fb"
    ]
  },
  {
    "code": "1d01d",
    "name": "Šenčur",
    "updated_at": "2014-09-22T21:36:28.991471Z",
    "country": "si",
    "parent": null,
    "longitude": 14.4196996688843,
    "latitude": 46.2456016540527,
    "regions": [
      "11c8"
    ]
  },
  {
    "code": "1d01c",
    "name": "Senj",
    "updated_at": "2014-09-22T21:36:28.965684Z",
    "country": "hr",
    "parent": null,
    "longitude": 14.9057998657227,
    "latitude": 44.9893989562988,
    "regions": [
      "123e"
    ]
  },
  {
    "code": "1d01b",
    "name": "Senožeče",
    "updated_at": "2014-09-22T21:36:28.940112Z",
    "country": "si",
    "parent": null,
    "longitude": 14.0410995483398,
    "latitude": 45.7210998535156,
    "regions": []
  },
  {
    "code": "1d01a",
    "name": "Šentjanž",
    "updated_at": "2014-09-22T21:36:28.880192Z",
    "country": "si",
    "parent": null,
    "longitude": 15.167200088501,
    "latitude": 46.0113983154297,
    "regions": [
      "1243"
    ]
  },
  {
    "code": "1d019",
    "name": "Šentjanž pri Dravogradu",
    "updated_at": "2014-09-22T21:36:28.850937Z",
    "country": "si",
    "parent": null,
    "longitude": 15.0389003753662,
    "latitude": 46.5611000061035,
    "regions": [
      "11ca"
    ]
  },
  {
    "code": "1d018",
    "name": "Šentjur",
    "updated_at": "2014-09-22T21:36:28.835506Z",
    "country": "si",
    "parent": null,
    "longitude": 15.397500038147,
    "latitude": 46.2172012329102,
    "regions": [
      "123b"
    ]
  },
  {
    "code": "1d017",
    "name": "Seoca",
    "updated_at": "2014-09-22T21:36:28.804456Z",
    "country": "hr",
    "parent": null,
    "longitude": 16.8166999816895,
    "latitude": 43.4667015075684,
    "regions": [
      "14b3"
    ]
  },
  {
    "code": "1d016",
    "name": "Šestanovac",
    "updated_at": "2014-09-22T21:36:28.786486Z",
    "country": "hr",
    "parent": null,
    "longitude": 16.9113998413086,
    "latitude": 43.4543991088867,
    "regions": [
      "14b3"
    ]
  },
  {
    "code": "1d015",
    "name": "Sesvete",
    "updated_at": "2014-09-22T21:36:28.767566Z",
    "country": "hr",
    "parent": null,
    "longitude": 16.1163997650146,
    "latitude": 45.8311004638672,
    "regions": [
      "130a"
    ]
  },
  {
    "code": "1d014",
    "name": "Sevid",
    "updated_at": "2014-09-22T21:36:28.744720Z",
    "country": "hr",
    "parent": null,
    "longitude": 16.033899307251,
    "latitude": 43.5022010803223,
    "regions": [
      "14b3"
    ]
  },
  {
    "code": "1d013",
    "name": "Sevnica",
    "updated_at": "2014-09-22T21:36:28.719190Z",
    "country": "si",
    "parent": null,
    "longitude": 15.3156003952026,
    "latitude": 46.0078010559082,
    "regions": [
      "1243"
    ]
  },
  {
    "code": "1d012",
    "name": "Sežana",
    "updated_at": "2014-09-22T21:36:28.691076Z",
    "country": "si",
    "parent": null,
    "longitude": 13.872200012207,
    "latitude": 45.706901550293,
    "regions": []
  },
  {
    "code": "1d011",
    "name": "Šibenik",
    "updated_at": "2014-09-22T21:36:28.660351Z",
    "country": "hr",
    "parent": null,
    "longitude": 15.8891607820988,
    "latitude": 43.7355785931103,
    "regions": [
      "15fc"
    ]
  },
  {
    "code": "1d010",
    "name": "Sibinj Krmpotski",
    "updated_at": "2014-09-22T21:36:28.624281Z",
    "country": "hr",
    "parent": null,
    "longitude": 14.8816995620728,
    "latitude": 45.043098449707,
    "regions": [
      "123e"
    ]
  },
  {
    "code": "1d00f",
    "name": "Šid",
    "updated_at": "2014-09-22T21:36:28.600751Z",
    "country": "rs",
    "parent": null,
    "longitude": 19.2264003753662,
    "latitude": 45.1282997131348,
    "regions": [
      "1347"
    ]
  },
  {
    "code": "1d00e",
    "name": "Šikići",
    "updated_at": "2014-09-22T21:36:28.584596Z",
    "country": "hr",
    "parent": null,
    "longitude": 13.8999996185303,
    "latitude": 44.8596992492676,
    "regions": [
      "1195"
    ]
  },
  {
    "code": "1d00d",
    "name": "Šilo",
    "updated_at": "2014-09-22T21:36:28.548099Z",
    "country": "hr",
    "parent": null,
    "longitude": 14.6631002426147,
    "latitude": 45.144401550293,
    "regions": [
      "11b0",
      "1247"
    ]
  },
  {
    "code": "1d00c",
    "name": "Sinj",
    "updated_at": "2014-09-22T21:36:28.530461Z",
    "country": "hr",
    "parent": null,
    "longitude": 16.6394004821777,
    "latitude": 43.7036018371582,
    "regions": [
      "14b3"
    ]
  },
  {
    "code": "1d00b",
    "name": "Šipanska Luka",
    "updated_at": "2014-09-22T21:36:28.509555Z",
    "country": "hr",
    "parent": null,
    "longitude": 17.8672008514404,
    "latitude": 42.7289009094238,
    "regions": [
      "1227",
      "1454",
      "1488"
    ]
  },
  {
    "code": "1d00a",
    "name": "Sisak",
    "updated_at": "2014-09-22T21:36:28.454997Z",
    "country": "hr",
    "parent": null,
    "longitude": 16.3782997131348,
    "latitude": 45.4660987854004,
    "regions": [
      "135e"
    ]
  },
  {
    "code": "1d009",
    "name": "Siverić",
    "updated_at": "2014-09-22T21:36:28.387504Z",
    "country": "hr",
    "parent": null,
    "longitude": 16.2000007629395,
    "latitude": 43.88330078125,
    "regions": [
      "15fc"
    ]
  },
  {
    "code": "1d008",
    "name": "Sjenica",
    "updated_at": "2014-09-22T21:36:28.360195Z",
    "country": "rs",
    "parent": null,
    "longitude": 19.9993991851807,
    "latitude": 43.2731018066406,
    "regions": [
      "1367"
    ]
  },
  {
    "code": "1d007",
    "name": "Skaručna",
    "updated_at": "2014-09-22T21:36:28.345495Z",
    "country": "si",
    "parent": null,
    "longitude": 14.4857997894287,
    "latitude": 46.1556015014648,
    "regions": [
      "1246"
    ]
  },
  {
    "code": "1d006",
    "name": "Škatari",
    "updated_at": "2014-09-22T21:36:28.330367Z",
    "country": "hr",
    "parent": null,
    "longitude": 13.8999996185303,
    "latitude": 44.86669921875,
    "regions": [
      "1195"
    ]
  },
  {
    "code": "1d005",
    "name": "Skender Vakuf",
    "updated_at": "2014-09-22T21:36:28.312151Z",
    "country": "ba",
    "parent": null,
    "longitude": 17.3775005340576,
    "latitude": 44.4907989501953,
    "regions": []
  },
  {
    "code": "1d004",
    "name": "Škocjan",
    "updated_at": "2014-09-22T21:36:28.294919Z",
    "country": "si",
    "parent": null,
    "longitude": 15.2913999557495,
    "latitude": 45.9067001342773,
    "regions": [
      "11cc"
    ]
  },
  {
    "code": "1d003",
    "name": "Zgornje Škofije",
    "updated_at": "2014-09-22T21:36:28.277338Z",
    "country": "si",
    "parent": null,
    "longitude": 13.7994003295898,
    "latitude": 45.5663986206055,
    "regions": []
  },
  {
    "code": "1d002",
    "name": "Škofja Loka",
    "updated_at": "2014-09-22T21:36:28.251926Z",
    "country": "si",
    "parent": null,
    "longitude": 14.3088998794556,
    "latitude": 46.1671981811523,
    "regions": [
      "11c8"
    ]
  },
  {
    "code": "1d001",
    "name": "Škofljica",
    "updated_at": "2014-09-22T21:36:28.226495Z",
    "country": "si",
    "parent": null,
    "longitude": 14.5767002105713,
    "latitude": 45.9832992553711,
    "regions": [
      "1246"
    ]
  },
  {
    "code": "1d000",
    "name": "Skopje",
    "updated_at": "2014-09-22T21:36:28.199558Z",
    "country": "mk",
    "parent": null,
    "longitude": 21.4333000183105,
    "latitude": 42.0,
    "regions": []
  },
  {
    "code": "1cfff",
    "name": "Skradin",
    "updated_at": "2014-09-22T21:36:28.170090Z",
    "country": "hr",
    "parent": null,
    "longitude": 15.9236001968384,
    "latitude": 43.8203010559082,
    "regions": [
      "15fc"
    ]
  },
  {
    "code": "1cffe",
    "name": "Skrbčići",
    "updated_at": "2014-09-22T21:36:28.136596Z",
    "country": "hr",
    "parent": null,
    "longitude": 14.4949998855591,
    "latitude": 45.048900604248,
    "regions": [
      "11b0",
      "1247"
    ]
  },
  {
    "code": "1cffd",
    "name": "Skriv",
    "updated_at": "2014-09-22T21:36:28.115968Z",
    "country": "hr",
    "parent": null,
    "longitude": 16.6039009094238,
    "latitude": 43.3546981811523,
    "regions": []
  },
  {
    "code": "1cffc",
    "name": "Slano",
    "updated_at": "2014-09-22T21:36:28.098646Z",
    "country": "hr",
    "parent": null,
    "longitude": 17.8918991088867,
    "latitude": 42.7860984802246,
    "regions": [
      "1488"
    ]
  },
  {
    "code": "1cffb",
    "name": "Slatina Varoš",
    "updated_at": "2014-09-22T21:36:28.081483Z",
    "country": "ba",
    "parent": null,
    "longitude": 17.2985992431641,
    "latitude": 44.8252983093262,
    "regions": []
  },
  {
    "code": "1cffa",
    "name": "Slatine",
    "updated_at": "2014-09-22T21:36:28.064394Z",
    "country": "hr",
    "parent": null,
    "longitude": 16.3332996368408,
    "latitude": 43.4994010925293,
    "regions": [
      "1225",
      "14b3"
    ]
  },
  {
    "code": "1cff9",
    "name": "Slavonski Brod",
    "updated_at": "2014-09-22T21:36:28.045361Z",
    "country": "hr",
    "parent": null,
    "longitude": 18.0156002044678,
    "latitude": 45.1603012084961,
    "regions": [
      "1363"
    ]
  },
  {
    "code": "1cff8",
    "name": "Slime",
    "updated_at": "2014-09-22T21:36:27.997894Z",
    "country": "hr",
    "parent": null,
    "longitude": 16.86669921875,
    "latitude": 43.4166984558105,
    "regions": [
      "14b3"
    ]
  },
  {
    "code": "1cff7",
    "name": "Slivnica",
    "updated_at": "2014-09-22T21:36:27.970467Z",
    "country": "hr",
    "parent": null,
    "longitude": 15.4485998153687,
    "latitude": 44.2430992126465,
    "regions": [
      "15fb"
    ]
  },
  {
    "code": "1cff6",
    "name": "Slovenj Gradec",
    "updated_at": "2014-09-22T21:36:27.938720Z",
    "country": "si",
    "parent": null,
    "longitude": 15.0805997848511,
    "latitude": 46.5102996826172,
    "regions": [
      "11ca"
    ]
  },
  {
    "code": "1cff5",
    "name": "Slovenska Bistrica",
    "updated_at": "2014-09-22T21:36:27.905960Z",
    "country": "si",
    "parent": null,
    "longitude": 15.5743999481201,
    "latitude": 46.3927993774414,
    "regions": [
      "1244"
    ]
  },
  {
    "code": "1cff4",
    "name": "Slovenske Konjice",
    "updated_at": "2014-09-22T21:36:27.877187Z",
    "country": "si",
    "parent": null,
    "longitude": 15.4258003234863,
    "latitude": 46.3367004394531,
    "regions": [
      "123b"
    ]
  },
  {
    "code": "1cff3",
    "name": "Slunj",
    "updated_at": "2014-09-22T21:36:27.862092Z",
    "country": "hr",
    "parent": null,
    "longitude": 15.5894002914429,
    "latitude": 45.1108016967773,
    "regions": [
      "1248"
    ]
  },
  {
    "code": "1cff2",
    "name": "Šmartno",
    "updated_at": "2014-09-22T21:36:27.828739Z",
    "country": "si",
    "parent": null,
    "longitude": 13.5375003814697,
    "latitude": 46.0050010681152,
    "regions": []
  },
  {
    "code": "1cff1",
    "name": "Smederevo",
    "updated_at": "2014-09-22T21:36:27.811859Z",
    "country": "rs",
    "parent": null,
    "longitude": 20.9300003051758,
    "latitude": 44.6627998352051,
    "regions": [
      "1367"
    ]
  },
  {
    "code": "1cff0",
    "name": "Šmihel pri Žužemberku",
    "updated_at": "2014-09-22T21:36:27.796381Z",
    "country": "si",
    "parent": null,
    "longitude": 14.8846998214722,
    "latitude": 45.8502998352051,
    "regions": [
      "1246"
    ]
  },
  {
    "code": "1cfef",
    "name": "Smlednik",
    "updated_at": "2014-09-22T21:36:27.743159Z",
    "country": "si",
    "parent": null,
    "longitude": 14.4324998855591,
    "latitude": 46.1641998291016,
    "regions": [
      "1246"
    ]
  },
  {
    "code": "1cfee",
    "name": "Smokvica",
    "updated_at": "2014-09-22T21:36:27.716674Z",
    "country": "hr",
    "parent": null,
    "longitude": 16.8964004516602,
    "latitude": 42.9305992126465,
    "regions": [
      "11b3",
      "1488"
    ]
  },
  {
    "code": "1cfed",
    "name": "Smoljanac",
    "updated_at": "2014-09-22T21:36:27.684023Z",
    "country": "hr",
    "parent": null,
    "longitude": 15.6597003936768,
    "latitude": 44.9385986328125,
    "regions": [
      "123e"
    ]
  },
  {
    "code": "1cfec",
    "name": "Smoljanci",
    "updated_at": "2014-09-22T21:36:27.649708Z",
    "country": "hr",
    "parent": null,
    "longitude": 13.8438997268677,
    "latitude": 45.0918998718262,
    "regions": [
      "1195"
    ]
  },
  {
    "code": "1cfeb",
    "name": "Šmrika",
    "updated_at": "2014-09-22T21:36:27.611609Z",
    "country": "hr",
    "parent": null,
    "longitude": 14.6016998291016,
    "latitude": 45.249698638916,
    "regions": [
      "1247"
    ]
  },
  {
    "code": "1cfea",
    "name": "Soča",
    "updated_at": "2014-09-22T21:36:27.594984Z",
    "country": "si",
    "parent": null,
    "longitude": 13.6563997268677,
    "latitude": 46.3432998657227,
    "regions": []
  },
  {
    "code": "1cfe9",
    "name": "Soko Banja",
    "updated_at": "2014-09-22T21:36:27.579431Z",
    "country": "rs",
    "parent": null,
    "longitude": 21.8710994720459,
    "latitude": 43.6432991027832,
    "regions": [
      "1367"
    ]
  },
  {
    "code": "1cfe8",
    "name": "Solčava",
    "updated_at": "2014-09-22T21:36:27.564212Z",
    "country": "si",
    "parent": null,
    "longitude": 14.6935997009277,
    "latitude": 46.4193992614746,
    "regions": [
      "123b"
    ]
  },
  {
    "code": "1cfe7",
    "name": "Solin",
    "updated_at": "2014-09-22T21:36:27.545301Z",
    "country": "hr",
    "parent": null,
    "longitude": 16.5,
    "latitude": 43.5499992370605,
    "regions": [
      "14b3"
    ]
  },
  {
    "code": "1cfe6",
    "name": "Soline",
    "updated_at": "2014-09-22T21:36:27.519395Z",
    "country": "hr",
    "parent": null,
    "longitude": 14.604700088501,
    "latitude": 45.1464004516602,
    "regions": [
      "11b0",
      "1247"
    ]
  },
  {
    "code": "1cfe5",
    "name": "Sombor",
    "updated_at": "2014-09-22T21:36:27.493645Z",
    "country": "rs",
    "parent": null,
    "longitude": 19.1121997833252,
    "latitude": 45.7742004394531,
    "regions": [
      "1347"
    ]
  },
  {
    "code": "1cfe4",
    "name": "Šorići",
    "updated_at": "2014-09-22T21:36:27.431271Z",
    "country": "hr",
    "parent": null,
    "longitude": 13.7477998733521,
    "latitude": 45.1049995422363,
    "regions": [
      "1195"
    ]
  },
  {
    "code": "1cfe3",
    "name": "Sobra",
    "updated_at": "2014-09-22T21:36:27.366865Z",
    "country": "hr",
    "parent": null,
    "longitude": 17.6002998352051,
    "latitude": 42.7372016906738,
    "regions": [
      "11ce",
      "1454",
      "1488"
    ]
  },
  {
    "code": "1cfe2",
    "name": "Špišić-Bukovica",
    "updated_at": "2014-09-22T21:36:27.329384Z",
    "country": "hr",
    "parent": null,
    "longitude": 17.2994003295898,
    "latitude": 45.8572006225586,
    "regions": [
      "1361"
    ]
  },
  {
    "code": "1cfe1",
    "name": "Split",
    "updated_at": "2014-09-22T21:36:27.312362Z",
    "country": "hr",
    "parent": null,
    "longitude": 16.4407501220703,
    "latitude": 43.5085830688477,
    "regions": [
      "14b3"
    ]
  },
  {
    "code": "1cfe0",
    "name": "Splitska",
    "updated_at": "2014-09-22T21:36:27.290327Z",
    "country": "hr",
    "parent": null,
    "longitude": 16.6072006225586,
    "latitude": 43.375301361084,
    "regions": [
      "11b1",
      "14b3"
    ]
  },
  {
    "code": "1cfdf",
    "name": "Spodnja Idrija",
    "updated_at": "2014-09-22T21:36:27.264575Z",
    "country": "si",
    "parent": null,
    "longitude": 14.0271997451782,
    "latitude": 46.0318984985352,
    "regions": []
  },
  {
    "code": "1cfde",
    "name": "Srbinjak",
    "updated_at": "2014-09-22T21:36:27.239065Z",
    "country": "hr",
    "parent": null,
    "longitude": 13.7964000701904,
    "latitude": 45.2016983032227,
    "regions": []
  },
  {
    "code": "1cfdd",
    "name": "Srebrenica",
    "updated_at": "2014-09-22T21:36:27.204699Z",
    "country": "ba",
    "parent": null,
    "longitude": 19.2968997955322,
    "latitude": 44.1063995361328,
    "regions": []
  },
  {
    "code": "1cfdc",
    "name": "Srednja Vas v Bohinju",
    "updated_at": "2014-09-22T21:36:27.146002Z",
    "country": "si",
    "parent": null,
    "longitude": 13.9260654449463,
    "latitude": 46.2977905273438,
    "regions": [
      "11c8"
    ]
  },
  {
    "code": "1cfdb",
    "name": "Sremska Kamenica",
    "updated_at": "2014-09-22T21:36:27.130646Z",
    "country": "rs",
    "parent": null,
    "longitude": 19.8430995941162,
    "latitude": 45.2233009338379,
    "regions": [
      "1347"
    ]
  },
  {
    "code": "1cfda",
    "name": "Sremska Mitrovica",
    "updated_at": "2014-09-22T21:36:27.114780Z",
    "country": "rs",
    "parent": null,
    "longitude": 19.6107997894287,
    "latitude": 44.9682998657227,
    "regions": [
      "1347"
    ]
  },
  {
    "code": "1cfd9",
    "name": "Sremski Karlovci",
    "updated_at": "2014-09-22T21:36:27.099002Z",
    "country": "rs",
    "parent": null,
    "longitude": 19.9344005584717,
    "latitude": 45.2024993896484,
    "regions": [
      "1347"
    ]
  },
  {
    "code": "1cfd8",
    "name": "Srijane",
    "updated_at": "2014-09-22T21:36:27.062991Z",
    "country": "hr",
    "parent": null,
    "longitude": 16.728099822998,
    "latitude": 43.5177993774414,
    "regions": [
      "14b3"
    ]
  },
  {
    "code": "1cfd7",
    "name": "Srima",
    "updated_at": "2014-09-22T21:36:27.037861Z",
    "country": "hr",
    "parent": null,
    "longitude": 15.8058004379272,
    "latitude": 43.747501373291,
    "regions": [
      "15fc"
    ]
  },
  {
    "code": "1cfd6",
    "name": "Srinjine",
    "updated_at": "2014-09-22T21:36:27.012161Z",
    "country": "hr",
    "parent": null,
    "longitude": 16.6000003814697,
    "latitude": 43.4832992553711,
    "regions": [
      "14b3"
    ]
  },
  {
    "code": "1cfd5",
    "name": "Moravice",
    "updated_at": "2014-09-22T21:36:26.922216Z",
    "country": "hr",
    "parent": null,
    "longitude": 15.0333003997803,
    "latitude": 45.4333000183105,
    "regions": [
      "1247"
    ]
  },
  {
    "code": "1cfd4",
    "name": "Stahovica",
    "updated_at": "2014-09-22T21:36:26.896999Z",
    "country": "si",
    "parent": null,
    "longitude": 14.6021995544434,
    "latitude": 46.2619018554688,
    "regions": [
      "1246"
    ]
  },
  {
    "code": "1cfd3",
    "name": "Stanišovi",
    "updated_at": "2014-09-22T21:36:26.881868Z",
    "country": "hr",
    "parent": null,
    "longitude": 14.0918998718262,
    "latitude": 45.0147018432617,
    "regions": [
      "1195"
    ]
  },
  {
    "code": "1cfd2",
    "name": "Stara Baška",
    "updated_at": "2014-09-22T21:36:26.843152Z",
    "country": "hr",
    "parent": null,
    "longitude": 14.6916999816895,
    "latitude": 44.9580993652344,
    "regions": [
      "11b0",
      "1247"
    ]
  },
  {
    "code": "1cfd1",
    "name": "Stara Novalja",
    "updated_at": "2014-09-22T21:36:26.788275Z",
    "country": "hr",
    "parent": null,
    "longitude": 14.8772001266479,
    "latitude": 44.5980987548828,
    "regions": [
      "123e",
      "129d"
    ]
  },
  {
    "code": "1cfd0",
    "name": "Stara Pazova",
    "updated_at": "2014-09-22T21:36:26.758097Z",
    "country": "rs",
    "parent": null,
    "longitude": 20.1608009338379,
    "latitude": 44.9850006103516,
    "regions": [
      "1347"
    ]
  },
  {
    "code": "1cfcf",
    "name": "Stara Sušica",
    "updated_at": "2014-09-22T21:36:26.728127Z",
    "country": "hr",
    "parent": null,
    "longitude": 14.9949998855591,
    "latitude": 45.374698638916,
    "regions": [
      "1247"
    ]
  },
  {
    "code": "1cfce",
    "name": "Stari Banovci",
    "updated_at": "2014-09-22T21:36:26.697024Z",
    "country": "rs",
    "parent": null,
    "longitude": 20.2866992950439,
    "latitude": 44.986400604248,
    "regions": []
  },
  {
    "code": "1cfcd",
    "name": "Stari Bar",
    "updated_at": "2014-09-22T21:36:26.677630Z",
    "country": "me",
    "parent": null,
    "longitude": 19.1331005096436,
    "latitude": 42.0900001525879,
    "regions": [
      "15b2"
    ]
  },
  {
    "code": "1cfcc",
    "name": "Star Dojran",
    "updated_at": "2014-09-22T21:36:26.661378Z",
    "country": "mk",
    "parent": null,
    "longitude": 22.7208003997803,
    "latitude": 41.1875,
    "regions": []
  },
  {
    "code": "1cfcb",
    "name": "Stari Grad",
    "updated_at": "2014-09-22T21:36:26.645352Z",
    "country": "hr",
    "parent": null,
    "longitude": 16.5953006744385,
    "latitude": 43.184700012207,
    "regions": [
      "11b2",
      "14b3"
    ]
  },
  {
    "code": "1cfca",
    "name": "Starigrad",
    "updated_at": "2016-02-09T09:32:29.133804Z",
    "country": "hr",
    "parent": null,
    "longitude": 15.4430999755859,
    "latitude": 44.293098449707,
    "regions": [
      "15fb"
    ]
  },
  {
    "code": "1cfc9",
    "name": "Starigrad",
    "updated_at": "2014-09-22T21:36:26.609849Z",
    "country": "hr",
    "parent": null,
    "longitude": 14.8832998275757,
    "latitude": 44.7966995239258,
    "regions": []
  },
  {
    "code": "1cfc8",
    "name": "Stari Trg pri Ložu",
    "updated_at": "2014-09-22T21:36:26.588046Z",
    "country": "si",
    "parent": null,
    "longitude": 14.4694004058838,
    "latitude": 45.7127990722656,
    "regions": []
  },
  {
    "code": "1cfc7",
    "name": "Starše",
    "updated_at": "2014-09-22T21:36:26.561913Z",
    "country": "si",
    "parent": null,
    "longitude": 15.7672004699707,
    "latitude": 46.4658012390137,
    "regions": [
      "1244"
    ]
  },
  {
    "code": "1cfc6",
    "name": "Stenje",
    "updated_at": "2014-09-22T21:36:26.534648Z",
    "country": "mk",
    "parent": null,
    "longitude": 20.9167003631592,
    "latitude": 40.9333000183105,
    "regions": []
  },
  {
    "code": "1cfc5",
    "name": "Štikovica",
    "updated_at": "2014-09-22T21:36:26.502006Z",
    "country": "hr",
    "parent": null,
    "longitude": 18.0506000518799,
    "latitude": 42.6869010925293,
    "regions": [
      "1488"
    ]
  },
  {
    "code": "1cfc4",
    "name": "Štinjan",
    "updated_at": "2014-09-22T21:36:26.469789Z",
    "country": "hr",
    "parent": null,
    "longitude": 13.8147001266479,
    "latitude": 44.8936004638672,
    "regions": [
      "1195"
    ]
  },
  {
    "code": "1cfc3",
    "name": "Stiplia",
    "updated_at": "2014-09-22T21:36:26.445500Z",
    "country": "mk",
    "parent": null,
    "longitude": 22.19580078125,
    "latitude": 41.7458000183105,
    "regions": []
  },
  {
    "code": "1cfc2",
    "name": "Stobreč",
    "updated_at": "2014-09-22T21:36:26.430495Z",
    "country": "hr",
    "parent": null,
    "longitude": 16.5221996307373,
    "latitude": 43.502498626709,
    "regions": [
      "14b3"
    ]
  },
  {
    "code": "1cfc1",
    "name": "Stomorska",
    "updated_at": "2014-09-22T21:36:26.395146Z",
    "country": "hr",
    "parent": null,
    "longitude": 16.3516998291016,
    "latitude": 43.3699989318848,
    "regions": [
      "14b3",
      "1614"
    ]
  },
  {
    "code": "1cfc0",
    "name": "Ston",
    "updated_at": "2014-09-22T21:36:26.375878Z",
    "country": "hr",
    "parent": null,
    "longitude": 17.6963996887207,
    "latitude": 42.8386001586914,
    "regions": [
      "1488"
    ]
  },
  {
    "code": "1cfbf",
    "name": "Strmac",
    "updated_at": "2014-09-22T21:36:26.305299Z",
    "country": "hr",
    "parent": null,
    "longitude": 14.1300001144409,
    "latitude": 45.1178016662598,
    "regions": [
      "1195"
    ]
  },
  {
    "code": "1cfbe",
    "name": "Struga",
    "updated_at": "2014-09-22T21:36:26.279666Z",
    "country": "mk",
    "parent": null,
    "longitude": 20.6760997772217,
    "latitude": 41.1781005859375,
    "regions": []
  },
  {
    "code": "1cfbd",
    "name": "Strumica",
    "updated_at": "2014-09-22T21:36:26.244082Z",
    "country": "mk",
    "parent": null,
    "longitude": 22.6432991027832,
    "latitude": 41.4375,
    "regions": []
  },
  {
    "code": "1cfbc",
    "name": "Strunjan",
    "updated_at": "2014-09-22T21:36:26.212899Z",
    "country": "si",
    "parent": null,
    "longitude": 13.6056003570557,
    "latitude": 45.5250015258789,
    "regions": []
  },
  {
    "code": "1cfbb",
    "name": "Subotica",
    "updated_at": "2014-09-22T21:36:26.157239Z",
    "country": "rs",
    "parent": null,
    "longitude": 19.6667003631592,
    "latitude": 46.0999984741211,
    "regions": [
      "1347"
    ]
  },
  {
    "code": "1cfba",
    "name": "Sućuraj",
    "updated_at": "2014-09-22T21:36:26.140314Z",
    "country": "hr",
    "parent": null,
    "longitude": 17.1861000061035,
    "latitude": 43.125301361084,
    "regions": [
      "11b2",
      "14b3"
    ]
  },
  {
    "code": "1cfb9",
    "name": "Suđurađ",
    "updated_at": "2014-09-22T21:36:26.121363Z",
    "country": "hr",
    "parent": null,
    "longitude": 17.9106006622314,
    "latitude": 42.7118988037109,
    "regions": [
      "1227",
      "1454",
      "1488"
    ]
  },
  {
    "code": "1cfb8",
    "name": "Sukošan",
    "updated_at": "2014-09-22T21:36:26.099843Z",
    "country": "hr",
    "parent": null,
    "longitude": 15.3166999816895,
    "latitude": 44.0499992370605,
    "regions": [
      "15fb"
    ]
  },
  {
    "code": "1cfb7",
    "name": "Sumartin",
    "updated_at": "2014-09-22T21:36:26.071838Z",
    "country": "hr",
    "parent": null,
    "longitude": 16.8756008148193,
    "latitude": 43.2849998474121,
    "regions": [
      "11b1",
      "14b3"
    ]
  },
  {
    "code": "1cfb6",
    "name": "Šumber",
    "updated_at": "2014-09-22T21:36:26.044316Z",
    "country": "hr",
    "parent": null,
    "longitude": 14.0775003433228,
    "latitude": 45.1671981811523,
    "regions": [
      "1195"
    ]
  },
  {
    "code": "1cfb5",
    "name": "Supetar",
    "updated_at": "2014-09-22T21:36:26.013578Z",
    "country": "hr",
    "parent": null,
    "longitude": 16.5508003234863,
    "latitude": 43.3842010498047,
    "regions": [
      "11b1",
      "14b3"
    ]
  },
  {
    "code": "1cfb4",
    "name": "Supetarska Draga",
    "updated_at": "2014-09-22T21:36:25.983727Z",
    "country": "hr",
    "parent": null,
    "longitude": 14.726331,
    "latitude": 44.803525,
    "regions": [
      "1226",
      "1247"
    ]
  },
  {
    "code": "1cfb3",
    "name": "Susak",
    "updated_at": "2014-09-22T21:36:25.949845Z",
    "country": "hr",
    "parent": null,
    "longitude": 14.3028001785278,
    "latitude": 44.5099983215332,
    "regions": [
      "1247"
    ]
  },
  {
    "code": "1cfb2",
    "name": "Sušćepan",
    "updated_at": "2014-09-22T21:36:25.931029Z",
    "country": "me",
    "parent": null,
    "longitude": 18.5125007629395,
    "latitude": 42.4681015014648,
    "regions": []
  },
  {
    "code": "1cfb1",
    "name": "Sutivan",
    "updated_at": "2014-09-22T21:36:25.897920Z",
    "country": "hr",
    "parent": null,
    "longitude": 16.476900100708,
    "latitude": 43.385799407959,
    "regions": [
      "11b1",
      "14b3"
    ]
  },
  {
    "code": "1cfb0",
    "name": "Sutomišćica",
    "updated_at": "2014-09-22T21:36:25.878768Z",
    "country": "hr",
    "parent": null,
    "longitude": 15.1756000518799,
    "latitude": 44.0956001281738,
    "regions": [
      "13e2",
      "15fb"
    ]
  },
  {
    "code": "1cfaf",
    "name": "Sutomore",
    "updated_at": "2014-09-22T21:36:25.859410Z",
    "country": "me",
    "parent": null,
    "longitude": 19.0466995239258,
    "latitude": 42.1427993774414,
    "regions": [
      "15b2"
    ]
  },
  {
    "code": "1cfae",
    "name": "Sveta Nedelja",
    "updated_at": "2014-09-22T21:36:25.790499Z",
    "country": "hr",
    "parent": null,
    "longitude": 16.5893993377686,
    "latitude": 43.1363983154297,
    "regions": [
      "11b2",
      "14b3"
    ]
  },
  {
    "code": "1cfad",
    "name": "Sveti Anton",
    "updated_at": "2014-09-22T21:36:25.758895Z",
    "country": "hr",
    "parent": null,
    "longitude": 14.521900177002,
    "latitude": 45.0997009277344,
    "regions": [
      "11b0",
      "1247"
    ]
  },
  {
    "code": "1cfac",
    "name": "Sveti Martin na Muri",
    "updated_at": "2014-09-22T21:36:25.725397Z",
    "country": "hr",
    "parent": null,
    "longitude": 16.375,
    "latitude": 46.5269012451172,
    "regions": [
      "1366"
    ]
  },
  {
    "code": "1cfab",
    "name": "Sveti Nikola",
    "updated_at": "2014-09-22T21:36:25.695286Z",
    "country": "me",
    "parent": null,
    "longitude": 19.375,
    "latitude": 41.8807983398438,
    "regions": []
  },
  {
    "code": "1cfaa",
    "name": "Sveti Stefan",
    "updated_at": "2014-09-22T21:36:25.678595Z",
    "country": "me",
    "parent": null,
    "longitude": 18.8913993835449,
    "latitude": 42.2560997009277,
    "regions": [
      "161b"
    ]
  },
  {
    "code": "1cfa9",
    "name": "Svetvinčenat",
    "updated_at": "2014-09-22T21:36:25.643634Z",
    "country": "hr",
    "parent": null,
    "longitude": 13.8836002349854,
    "latitude": 45.0881004333496,
    "regions": [
      "1195"
    ]
  },
  {
    "code": "1cfa8",
    "name": "Svib",
    "updated_at": "2014-09-22T21:36:25.625746Z",
    "country": "hr",
    "parent": null,
    "longitude": 16.9631004333496,
    "latitude": 43.551700592041,
    "regions": [
      "14b3"
    ]
  },
  {
    "code": "1cfa7",
    "name": "Svinišće",
    "updated_at": "2014-09-22T21:36:25.608125Z",
    "country": "hr",
    "parent": null,
    "longitude": 16.7667007446289,
    "latitude": 43.4333000183105,
    "regions": [
      "14b3"
    ]
  },
  {
    "code": "1cfa6",
    "name": "Tar",
    "updated_at": "2014-09-22T21:36:25.583133Z",
    "country": "hr",
    "parent": null,
    "longitude": 13.6253004074097,
    "latitude": 45.3008003234863,
    "regions": [
      "1195"
    ]
  },
  {
    "code": "1cfa5",
    "name": "Temerin",
    "updated_at": "2014-09-22T21:36:25.555464Z",
    "country": "rs",
    "parent": null,
    "longitude": 19.8892002105713,
    "latitude": 45.4085998535156,
    "regions": [
      "1347"
    ]
  },
  {
    "code": "1cfa4",
    "name": "Teslić",
    "updated_at": "2014-09-22T21:36:25.499805Z",
    "country": "ba",
    "parent": null,
    "longitude": 17.8596992492676,
    "latitude": 44.6063995361328,
    "regions": []
  },
  {
    "code": "1cfa3",
    "name": "Tetovo",
    "updated_at": "2014-09-22T21:36:25.469059Z",
    "country": "mk",
    "parent": null,
    "longitude": 20.971399307251,
    "latitude": 42.0106010437012,
    "regions": []
  },
  {
    "code": "1cfa2",
    "name": "Tisno",
    "updated_at": "2014-09-22T21:36:25.442159Z",
    "country": "hr",
    "parent": null,
    "longitude": 15.6433000564575,
    "latitude": 43.80419921875,
    "regions": [
      "15fc"
    ]
  },
  {
    "code": "1cfa1",
    "name": "Tinjan",
    "updated_at": "2014-09-22T21:36:25.423579Z",
    "country": "hr",
    "parent": null,
    "longitude": 13.8394002914429,
    "latitude": 45.2181015014648,
    "regions": [
      "1195"
    ]
  },
  {
    "code": "1cfa0",
    "name": "Korenica",
    "updated_at": "2014-09-22T21:36:25.404888Z",
    "country": "hr",
    "parent": null,
    "longitude": 15.7096996307373,
    "latitude": 44.7439002990723,
    "regions": [
      "123e"
    ]
  },
  {
    "code": "1cf9f",
    "name": "Velenje",
    "updated_at": "2014-09-22T21:36:25.387097Z",
    "country": "si",
    "parent": null,
    "longitude": 15.1103000640869,
    "latitude": 46.3591995239258,
    "regions": [
      "123b"
    ]
  },
  {
    "code": "1cf9e",
    "name": "Veles",
    "updated_at": "2014-09-22T21:36:25.371413Z",
    "country": "mk",
    "parent": null,
    "longitude": 21.7756004333496,
    "latitude": 41.7155990600586,
    "regions": []
  },
  {
    "code": "1cf9d",
    "name": "Tivat",
    "updated_at": "2014-09-22T21:36:25.354829Z",
    "country": "me",
    "parent": null,
    "longitude": 18.6961002349854,
    "latitude": 42.4364013671875,
    "regions": [
      "161e"
    ]
  },
  {
    "code": "1cf9c",
    "name": "Tkon",
    "updated_at": "2014-09-22T21:36:25.328892Z",
    "country": "hr",
    "parent": null,
    "longitude": 15.4167003631592,
    "latitude": 43.9333000183105,
    "regions": [
      "15fb"
    ]
  },
  {
    "code": "1cf9b",
    "name": "Tolmin",
    "updated_at": "2014-09-22T21:36:25.302684Z",
    "country": "si",
    "parent": null,
    "longitude": 13.7361001968384,
    "latitude": 46.1864013671875,
    "regions": []
  },
  {
    "code": "1cf9a",
    "name": "Topola",
    "updated_at": "2014-09-22T21:36:25.277011Z",
    "country": "rs",
    "parent": null,
    "longitude": 20.6825008392334,
    "latitude": 44.2541999816895,
    "regions": [
      "1367"
    ]
  },
  {
    "code": "1cf99",
    "name": "Topolšica",
    "updated_at": "2014-09-22T21:36:25.217205Z",
    "country": "si",
    "parent": null,
    "longitude": 15.0186004638672,
    "latitude": 46.4033012390137,
    "regions": [
      "123b"
    ]
  },
  {
    "code": "1cf98",
    "name": "Topusko",
    "updated_at": "2014-09-22T21:36:25.193771Z",
    "country": "hr",
    "parent": null,
    "longitude": 15.9722003936768,
    "latitude": 45.293098449707,
    "regions": [
      "135e"
    ]
  },
  {
    "code": "1cf97",
    "name": "Trakošćan",
    "updated_at": "2014-09-22T21:36:25.176335Z",
    "country": "hr",
    "parent": null,
    "longitude": 15.9485998153687,
    "latitude": 46.25830078125,
    "regions": [
      "1318"
    ]
  },
  {
    "code": "1cf96",
    "name": "Travnik",
    "updated_at": "2014-09-22T21:36:25.159210Z",
    "country": "ba",
    "parent": null,
    "longitude": 17.6706008911133,
    "latitude": 44.2266998291016,
    "regions": []
  },
  {
    "code": "1cf95",
    "name": "Trbounje",
    "updated_at": "2014-09-22T21:36:25.142238Z",
    "country": "hr",
    "parent": null,
    "longitude": 16.1189002990723,
    "latitude": 43.894401550293,
    "regions": [
      "15fc"
    ]
  },
  {
    "code": "1cf94",
    "name": "Trbovlje",
    "updated_at": "2014-09-22T21:36:25.123083Z",
    "country": "si",
    "parent": null,
    "longitude": 15.0532999038696,
    "latitude": 46.1549987792969,
    "regions": [
      "1245"
    ]
  },
  {
    "code": "1cf93",
    "name": "Trebelno",
    "updated_at": "2014-09-22T21:36:25.104748Z",
    "country": "si",
    "parent": null,
    "longitude": 15.1499996185303,
    "latitude": 45.9166984558105,
    "regions": []
  },
  {
    "code": "1cf92",
    "name": "Trebinje",
    "updated_at": "2014-09-22T21:36:25.079233Z",
    "country": "ba",
    "parent": null,
    "longitude": 18.3442001342773,
    "latitude": 42.7118988037109,
    "regions": []
  },
  {
    "code": "1cf91",
    "name": "Trebnje",
    "updated_at": "2014-09-22T21:36:25.055969Z",
    "country": "si",
    "parent": null,
    "longitude": 15.0216999053955,
    "latitude": 45.9042015075684,
    "regions": [
      "11cc"
    ]
  },
  {
    "code": "1cf90",
    "name": "Trget",
    "updated_at": "2014-09-22T21:36:25.028813Z",
    "country": "hr",
    "parent": null,
    "longitude": 14.0560998916626,
    "latitude": 45.0224990844727,
    "regions": [
      "1195"
    ]
  },
  {
    "code": "1cf8f",
    "name": "Tribalj",
    "updated_at": "2014-09-22T21:36:24.963108Z",
    "country": "hr",
    "parent": null,
    "longitude": 14.6786003112793,
    "latitude": 45.2214012145996,
    "regions": [
      "1247"
    ]
  },
  {
    "code": "1cf8e",
    "name": "Tribanj-Krušćica",
    "updated_at": "2014-09-22T21:36:24.942440Z",
    "country": "hr",
    "parent": null,
    "longitude": 15.3183002471924,
    "latitude": 44.3516998291016,
    "regions": []
  },
  {
    "code": "1cf8d",
    "name": "Tribunj",
    "updated_at": "2014-09-22T21:36:24.925174Z",
    "country": "hr",
    "parent": null,
    "longitude": 15.75,
    "latitude": 43.75,
    "regions": [
      "15fc"
    ]
  },
  {
    "code": "1cf8c",
    "name": "Trilj",
    "updated_at": "2014-09-22T21:36:24.906640Z",
    "country": "hr",
    "parent": null,
    "longitude": 16.7241992950439,
    "latitude": 43.6183013916016,
    "regions": [
      "14b3"
    ]
  },
  {
    "code": "1cf8b",
    "name": "Trnbusi",
    "updated_at": "2014-09-22T21:36:24.887552Z",
    "country": "hr",
    "parent": null,
    "longitude": 16.7833003997803,
    "latitude": 43.4832992553711,
    "regions": [
      "14b3"
    ]
  },
  {
    "code": "1cf8a",
    "name": "Trogir",
    "updated_at": "2014-09-22T21:36:24.870299Z",
    "country": "hr",
    "parent": null,
    "longitude": 16.2512509105727,
    "latitude": 43.5170074949168,
    "regions": [
      "1225",
      "14b3"
    ]
  },