[
  {
    "code": "14865",
    "name": "Gellinghausen",
    "updated_at": "2014-09-22T21:16:03.224174Z",
    "country": "de",
    "parent": null,
    "longitude": 8.35000038146973,
    "latitude": 51.2332992553711,
    "regions": [
      "104a"
    ]
  },
  {
    "code": "14864",
    "name": "Gelnhausen",
    "updated_at": "2014-09-22T21:16:03.198746Z",
    "country": "de",
    "parent": null,
    "longitude": 9.18332958221436,
    "latitude": 50.2000007629395,
    "regions": [
      "1047"
    ]
  },
  {
    "code": "14863",
    "name": "Gelsenkirchen",
    "updated_at": "2014-09-22T21:16:03.166146Z",
    "country": "de",
    "parent": null,
    "longitude": 7.05000019073486,
    "latitude": 51.5167007446289,
    "regions": [
      "104a"
    ]
  },
  {
    "code": "14862",
    "name": "Gelting",
    "updated_at": "2014-09-22T21:16:03.123638Z",
    "country": "de",
    "parent": null,
    "longitude": 9.89999961853027,
    "latitude": 54.75,
    "regions": [
      "104e"
    ]
  },
  {
    "code": "14861",
    "name": "Geltow",
    "updated_at": "2014-09-22T21:16:03.093107Z",
    "country": "de",
    "parent": null,
    "longitude": 12.9833002090454,
    "latitude": 52.36669921875,
    "regions": [
      "1046"
    ]
  },
  {
    "code": "14860",
    "name": "Gemmrigheim",
    "updated_at": "2014-09-22T21:16:03.073928Z",
    "country": "de",
    "parent": null,
    "longitude": 9.15555953979492,
    "latitude": 49.0283012390137,
    "regions": [
      "1044"
    ]
  },
  {
    "code": "1485f",
    "name": "Gemünden",
    "updated_at": "2014-09-22T21:16:03.051784Z",
    "country": "de",
    "parent": null,
    "longitude": 7.46667003631592,
    "latitude": 49.9000015258789,
    "regions": [
      "104b"
    ]
  },
  {
    "code": "1485e",
    "name": "Gemünden",
    "updated_at": "2014-09-22T21:16:03.033434Z",
    "country": "de",
    "parent": null,
    "longitude": 9.69999980926514,
    "latitude": 50.0499992370605,
    "regions": [
      "1045"
    ]
  },
  {
    "code": "1485d",
    "name": "Gemünden",
    "updated_at": "2014-09-22T21:16:03.015975Z",
    "country": "de",
    "parent": null,
    "longitude": 8.41666984558105,
    "latitude": 50.36669921875,
    "regions": [
      "1047"
    ]
  },
  {
    "code": "1485c",
    "name": "Gengenbach",
    "updated_at": "2014-09-22T21:16:02.990185Z",
    "country": "de",
    "parent": null,
    "longitude": 8.01667022705078,
    "latitude": 48.4000015258789,
    "regions": [
      "1044"
    ]
  },
  {
    "code": "1485b",
    "name": "Genshagen",
    "updated_at": "2014-09-22T21:16:02.962235Z",
    "country": "de",
    "parent": null,
    "longitude": 13.3166999816895,
    "latitude": 52.3166999816895,
    "regions": [
      "1046"
    ]
  },
  {
    "code": "1485a",
    "name": "Gensingen",
    "updated_at": "2014-09-22T21:16:02.935981Z",
    "country": "de",
    "parent": null,
    "longitude": 7.93333005905151,
    "latitude": 49.9000015258789,
    "regions": [
      "104b"
    ]
  },
  {
    "code": "14859",
    "name": "Genthin",
    "updated_at": "2014-09-22T21:16:02.899506Z",
    "country": "de",
    "parent": null,
    "longitude": 12.1667003631592,
    "latitude": 52.4000015258789,
    "regions": [
      "104d"
    ]
  },
  {
    "code": "14858",
    "name": "Georgenthal",
    "updated_at": "2014-09-22T21:16:02.866502Z",
    "country": "de",
    "parent": null,
    "longitude": 8.14999961853027,
    "latitude": 50.1833000183105,
    "regions": [
      "1047"
    ]
  },
  {
    "code": "14857",
    "name": "Georgenthal",
    "updated_at": "2014-09-22T21:16:02.839596Z",
    "country": "de",
    "parent": null,
    "longitude": 10.6667003631592,
    "latitude": 50.8166999816895,
    "regions": [
      "104f"
    ]
  },
  {
    "code": "14856",
    "name": "Georgsdorf",
    "updated_at": "2014-09-22T21:16:02.822289Z",
    "country": "de",
    "parent": null,
    "longitude": 7.08333015441895,
    "latitude": 52.5666999816895,
    "regions": [
      "1048"
    ]
  },
  {
    "code": "14855",
    "name": "Georgsmarienhütte",
    "updated_at": "2014-09-22T21:16:02.805078Z",
    "country": "de",
    "parent": null,
    "longitude": 8.05000019073486,
    "latitude": 52.2000007629395,
    "regions": [
      "1048"
    ]
  },
  {
    "code": "14854",
    "name": "Gera",
    "updated_at": "2014-09-22T21:16:02.787166Z",
    "country": "de",
    "parent": null,
    "longitude": 12.0832996368408,
    "latitude": 50.86669921875,
    "regions": [
      "104f",
      "116f"
    ]
  },
  {
    "code": "14853",
    "name": "Geraberg",
    "updated_at": "2014-09-22T21:16:02.769212Z",
    "country": "de",
    "parent": null,
    "longitude": 10.8500003814697,
    "latitude": 50.7332992553711,
    "regions": [
      "104f"
    ]
  },
  {
    "code": "14852",
    "name": "Geretsried",
    "updated_at": "2014-09-22T21:16:02.751464Z",
    "country": "de",
    "parent": null,
    "longitude": 11.4666996002197,
    "latitude": 47.86669921875,
    "regions": [
      "1045"
    ]
  },
  {
    "code": "14851",
    "name": "Gerlingen",
    "updated_at": "2014-09-22T21:16:02.723518Z",
    "country": "de",
    "parent": null,
    "longitude": 9.06667041778564,
    "latitude": 48.7999992370605,
    "regions": [
      "1044"
    ]
  },
  {
    "code": "14850",
    "name": "Germering",
    "updated_at": "2014-09-22T21:16:02.695522Z",
    "country": "de",
    "parent": null,
    "longitude": 11.3667001724243,
    "latitude": 48.13330078125,
    "regions": [
      "1045"
    ]
  },
  {
    "code": "1484f",
    "name": "Germersheim",
    "updated_at": "2014-09-22T21:16:02.669989Z",
    "country": "de",
    "parent": null,
    "longitude": 8.36388969421387,
    "latitude": 49.2230987548828,
    "regions": [
      "104b"
    ]
  },
  {
    "code": "1484e",
    "name": "Gernlinden",
    "updated_at": "2014-09-22T21:16:02.637001Z",
    "country": "de",
    "parent": null,
    "longitude": 11.3000001907349,
    "latitude": 48.2167015075684,
    "regions": [
      "1045"
    ]
  },
  {
    "code": "1484d",
    "name": "Gernrode - Harz",
    "updated_at": "2014-09-22T21:16:02.603816Z",
    "country": "de",
    "parent": null,
    "longitude": 11.1438999176025,
    "latitude": 51.7244987487793,
    "regions": [
      "104d"
    ]
  },
  {
    "code": "1484c",
    "name": "Gernsbach",
    "updated_at": "2014-09-22T21:16:02.577946Z",
    "country": "de",
    "parent": null,
    "longitude": 8.33333015441895,
    "latitude": 48.7667007446289,
    "regions": [
      "1044"
    ]
  },
  {
    "code": "1484b",
    "name": "Gernsheim",
    "updated_at": "2014-09-22T21:16:02.559134Z",
    "country": "de",
    "parent": null,
    "longitude": 8.49582958221436,
    "latitude": 49.7599983215332,
    "regions": [
      "1047"
    ]
  },
  {
    "code": "1484a",
    "name": "Gerolstein",
    "updated_at": "2014-09-22T21:16:02.540351Z",
    "country": "de",
    "parent": null,
    "longitude": 6.66666984558105,
    "latitude": 50.2167015075684,
    "regions": [
      "104b"
    ]
  },
  {
    "code": "14849",
    "name": "Gerolzhofen",
    "updated_at": "2014-09-22T21:16:02.521161Z",
    "country": "de",
    "parent": null,
    "longitude": 10.3500003814697,
    "latitude": 49.9000015258789,
    "regions": [
      "1045"
    ]
  },
  {
    "code": "14848",
    "name": "Gersbach",
    "updated_at": "2014-09-22T21:16:02.501919Z",
    "country": "de",
    "parent": null,
    "longitude": 7.93333005905151,
    "latitude": 47.7000007629395,
    "regions": [
      "1044"
    ]
  },
  {
    "code": "14847",
    "name": "Gersfeld",
    "updated_at": "2014-09-22T21:16:02.482396Z",
    "country": "de",
    "parent": null,
    "longitude": 9.94999980926514,
    "latitude": 50.4500007629395,
    "regions": [
      "1047"
    ]
  },
  {
    "code": "14846",
    "name": "Gerstenberg",
    "updated_at": "2014-09-22T21:16:02.456892Z",
    "country": "de",
    "parent": null,
    "longitude": 12.4333000183105,
    "latitude": 51.0332984924316,
    "regions": [
      "104f",
      "116f"
    ]
  },
  {
    "code": "14845",
    "name": "Gersthofen",
    "updated_at": "2014-09-22T21:16:02.428958Z",
    "country": "de",
    "parent": null,
    "longitude": 10.8832998275757,
    "latitude": 48.4166984558105,
    "regions": [
      "1045"
    ]
  },
  {
    "code": "14844",
    "name": "Gerswalde",
    "updated_at": "2014-09-22T21:16:02.397289Z",
    "country": "de",
    "parent": null,
    "longitude": 13.7666997909546,
    "latitude": 53.1666984558105,
    "regions": [
      "1046"
    ]
  },
  {
    "code": "14843",
    "name": "Gerzen",
    "updated_at": "2014-09-22T21:16:02.364292Z",
    "country": "de",
    "parent": null,
    "longitude": 12.4167003631592,
    "latitude": 48.5167007446289,
    "regions": [
      "1045"
    ]
  },
  {
    "code": "14842",
    "name": "Gescher",
    "updated_at": "2014-09-22T21:16:02.329954Z",
    "country": "de",
    "parent": null,
    "longitude": 7.01667022705078,
    "latitude": 51.9500007629395,
    "regions": [
      "104a"
    ]
  },
  {
    "code": "14841",
    "name": "Geschwenda",
    "updated_at": "2014-09-22T21:16:02.304450Z",
    "country": "de",
    "parent": null,
    "longitude": 10.8332996368408,
    "latitude": 50.7332992553711,
    "regions": [
      "104f"
    ]
  },
  {
    "code": "14840",
    "name": "Geseke",
    "updated_at": "2014-09-22T21:16:02.287096Z",
    "country": "de",
    "parent": null,
    "longitude": 8.51667022705078,
    "latitude": 51.6500015258789,
    "regions": [
      "104a"
    ]
  },
  {
    "code": "1483f",
    "name": "Gevelsberg",
    "updated_at": "2014-09-22T21:16:02.269813Z",
    "country": "de",
    "parent": null,
    "longitude": 7.33333015441895,
    "latitude": 51.3166999816895,
    "regions": [
      "104a"
    ]
  },
  {
    "code": "1483e",
    "name": "Geversdorf",
    "updated_at": "2014-09-22T21:16:02.251851Z",
    "country": "de",
    "parent": null,
    "longitude": 9.08333015441895,
    "latitude": 53.7999992370605,
    "regions": []
  },
  {
    "code": "1483d",
    "name": "Geyer",
    "updated_at": "2014-09-22T21:16:02.233951Z",
    "country": "de",
    "parent": null,
    "longitude": 12.9333000183105,
    "latitude": 50.63330078125,
    "regions": [
      "116f"
    ]
  },
  {
    "code": "1483c",
    "name": "Giebelstadt",
    "updated_at": "2014-09-22T21:16:02.210831Z",
    "country": "de",
    "parent": null,
    "longitude": 9.94777965545654,
    "latitude": 49.6542015075684,
    "regions": [
      "1045"
    ]
  },
  {
    "code": "1483b",
    "name": "Giengen an der Brenz",
    "updated_at": "2014-09-22T21:16:02.181738Z",
    "country": "de",
    "parent": null,
    "longitude": 10.25,
    "latitude": 48.61669921875,
    "regions": [
      "1044"
    ]
  },
  {
    "code": "1483a",
    "name": "Gierstädt",
    "updated_at": "2014-09-22T21:16:02.152218Z",
    "country": "de",
    "parent": null,
    "longitude": 10.8332996368408,
    "latitude": 51.0499992370605,
    "regions": [
      "104f"
    ]
  },
  {
    "code": "14839",
    "name": "Gießen",
    "updated_at": "2014-09-22T21:16:02.122369Z",
    "country": "de",
    "parent": null,
    "longitude": 8.64999961853027,
    "latitude": 50.5833015441895,
    "regions": [
      "1047"
    ]
  },
  {
    "code": "14838",
    "name": "Gießübel",
    "updated_at": "2014-09-22T21:16:02.086083Z",
    "country": "de",
    "parent": null,
    "longitude": 10.9167003631592,
    "latitude": 50.5332984924316,
    "regions": [
      "104f"
    ]
  },
  {
    "code": "14837",
    "name": "Gifhorn",
    "updated_at": "2014-09-22T21:16:02.051800Z",
    "country": "de",
    "parent": null,
    "longitude": 10.5500001907349,
    "latitude": 52.4832992553711,
    "regions": [
      "1048"
    ]
  },
  {
    "code": "14836",
    "name": "Gilching",
    "updated_at": "2014-09-22T21:16:02.031730Z",
    "country": "de",
    "parent": null,
    "longitude": 11.3000001907349,
    "latitude": 48.11669921875,
    "regions": [
      "1045"
    ]
  },
  {
    "code": "14835",
    "name": "Gillenbeuren",
    "updated_at": "2014-09-22T21:16:02.014103Z",
    "country": "de",
    "parent": null,
    "longitude": 7.01667022705078,
    "latitude": 50.1500015258789,
    "regions": [
      "104b"
    ]
  },
  {
    "code": "14834",
    "name": "Gillenfeld",
    "updated_at": "2014-09-22T21:16:01.995941Z",
    "country": "de",
    "parent": null,
    "longitude": 6.90000009536743,
    "latitude": 50.11669921875,
    "regions": [
      "104b"
    ]
  },
  {
    "code": "14833",
    "name": "Gilserberg",
    "updated_at": "2014-09-22T21:16:01.977745Z",
    "country": "de",
    "parent": null,
    "longitude": 9.06667041778564,
    "latitude": 50.9500007629395,
    "regions": [
      "1047"
    ]
  },
  {
    "code": "14832",
    "name": "Gingst",
    "updated_at": "2014-09-22T21:16:01.959734Z",
    "country": "de",
    "parent": null,
    "longitude": 13.25,
    "latitude": 54.4500007629395,
    "regions": [
      "1049",
      "1175"
    ]
  },
  {
    "code": "14831",
    "name": "Ginsheim-Gustavsburg",
    "updated_at": "2014-09-22T21:16:01.934146Z",
    "country": "de",
    "parent": null,
    "longitude": 8.34249973297119,
    "latitude": 49.9858016967773,
    "regions": [
      "1047"
    ]
  },
  {
    "code": "14830",
    "name": "Girod",
    "updated_at": "2014-09-22T21:16:01.905447Z",
    "country": "de",
    "parent": null,
    "longitude": 7.91666984558105,
    "latitude": 50.4500007629395,
    "regions": [
      "104b"
    ]
  },
  {
    "code": "1482f",
    "name": "Gischow",
    "updated_at": "2014-09-22T21:16:01.876844Z",
    "country": "de",
    "parent": null,
    "longitude": 12.0166997909546,
    "latitude": 53.4333000183105,
    "regions": []
  },
  {
    "code": "1482e",
    "name": "Gittersdorf",
    "updated_at": "2014-09-22T21:16:01.843077Z",
    "country": "de",
    "parent": null,
    "longitude": 9.63333034515381,
    "latitude": 50.88330078125,
    "regions": [
      "1047"
    ]
  },
  {
    "code": "1482d",
    "name": "Gladbeck",
    "updated_at": "2014-09-22T21:16:01.805247Z",
    "country": "de",
    "parent": null,
    "longitude": 6.98332977294922,
    "latitude": 51.5666999816895,
    "regions": [
      "104a"
    ]
  },
  {
    "code": "1482c",
    "name": "Gladenbach",
    "updated_at": "2014-09-22T21:16:01.776705Z",
    "country": "de",
    "parent": null,
    "longitude": 8.56667041778564,
    "latitude": 50.7667007446289,
    "regions": [
      "1047"
    ]
  },
  {
    "code": "1482b",
    "name": "Glashagen",
    "updated_at": "2014-09-22T21:16:01.757743Z",
    "country": "de",
    "parent": null,
    "longitude": 11.8667001724243,
    "latitude": 54.0833015441895,
    "regions": [
      "1049"
    ]
  },
  {
    "code": "1482a",
    "name": "Glashütte",
    "updated_at": "2014-09-22T21:16:01.739813Z",
    "country": "de",
    "parent": null,
    "longitude": 8.25,
    "latitude": 47.8333015441895,
    "regions": [
      "1044"
    ]
  },
  {
    "code": "14829",
    "name": "Glashütten",
    "updated_at": "2014-09-22T21:16:01.720364Z",
    "country": "de",
    "parent": null,
    "longitude": 8.39999961853027,
    "latitude": 50.2167015075684,
    "regions": [
      "1047"
    ]
  },
  {
    "code": "14828",
    "name": "Glatt",
    "updated_at": "2014-09-22T21:16:01.700453Z",
    "country": "de",
    "parent": null,
    "longitude": 8.63333034515381,
    "latitude": 48.38330078125,
    "regions": [
      "1044"
    ]
  },
  {
    "code": "14827",
    "name": "Glauburg",
    "updated_at": "2014-09-22T21:16:01.672845Z",
    "country": "de",
    "parent": null,
    "longitude": 9.0,
    "latitude": 50.3166999816895,
    "regions": [
      "1047"
    ]
  },
  {
    "code": "14826",
    "name": "Glauchau",
    "updated_at": "2014-09-22T21:16:01.645033Z",
    "country": "de",
    "parent": null,
    "longitude": 12.5333003997803,
    "latitude": 50.8166999816895,
    "regions": [
      "116f"
    ]
  },
  {
    "code": "14825",
    "name": "Gleidorf",
    "updated_at": "2014-09-22T21:16:01.615726Z",
    "country": "de",
    "parent": null,
    "longitude": 8.30000019073486,
    "latitude": 51.1666984558105,
    "regions": [
      "104a"
    ]
  },
  {
    "code": "14824",
    "name": "Gleima",
    "updated_at": "2014-09-22T21:16:01.583485Z",
    "country": "de",
    "parent": null,
    "longitude": 11.5333003997803,
    "latitude": 50.5332984924316,
    "regions": [
      "104f"
    ]
  },
  {
    "code": "14823",
    "name": "Gleißenberg",
    "updated_at": "2014-09-22T21:16:01.549391Z",
    "country": "de",
    "parent": null,
    "longitude": 12.7333002090454,
    "latitude": 49.3166999816895,
    "regions": [
      "1045"
    ]
  },
  {
    "code": "14822",
    "name": "Gleiszellen-Gleishorbach",
    "updated_at": "2014-09-22T21:16:01.524407Z",
    "country": "de",
    "parent": null,
    "longitude": 8.00582981109619,
    "latitude": 49.1260986328125,
    "regions": [
      "104b"
    ]
  },
  {
    "code": "14821",
    "name": "Glesien",
    "updated_at": "2014-09-22T21:16:01.506778Z",
    "country": "de",
    "parent": null,
    "longitude": 12.2333002090454,
    "latitude": 51.4500007629395,
    "regions": [
      "116f"
    ]
  },
  {
    "code": "14820",
    "name": "Glienicke",
    "updated_at": "2014-09-22T21:16:01.488589Z",
    "country": "de",
    "parent": null,
    "longitude": 13.3332996368408,
    "latitude": 52.63330078125,
    "regions": [
      "1046"
    ]
  },
  {
    "code": "1481f",
    "name": "Glienig",
    "updated_at": "2014-09-22T21:16:01.470505Z",
    "country": "de",
    "parent": null,
    "longitude": 13.4499998092651,
    "latitude": 51.9500007629395,
    "regions": [
      "1046"
    ]
  },
  {
    "code": "1481e",
    "name": "Glindenberg",
    "updated_at": "2014-09-22T21:16:01.451847Z",
    "country": "de",
    "parent": null,
    "longitude": 11.6833000183105,
    "latitude": 52.2332992553711,
    "regions": [
      "104d"
    ]
  },
  {
    "code": "1481d",
    "name": "Glindow",
    "updated_at": "2014-09-22T21:16:01.433624Z",
    "country": "de",
    "parent": null,
    "longitude": 12.9167003631592,
    "latitude": 52.36669921875,
    "regions": [
      "1046"
    ]
  },
  {
    "code": "1481c",
    "name": "Glonn",
    "updated_at": "2014-09-22T21:16:01.407389Z",
    "country": "de",
    "parent": null,
    "longitude": 11.8667001724243,
    "latitude": 47.9832992553711,
    "regions": [
      "1045"
    ]
  },
  {
    "code": "1481b",
    "name": "Glowe",
    "updated_at": "2014-09-22T21:16:01.381334Z",
    "country": "de",
    "parent": null,
    "longitude": 13.4833002090454,
    "latitude": 54.5666999816895,
    "regions": [
      "1049",
      "1175"
    ]
  },
  {
    "code": "1481a",
    "name": "Glücksburg",
    "updated_at": "2014-09-22T21:16:01.351141Z",
    "country": "de",
    "parent": null,
    "longitude": 9.55000019073486,
    "latitude": 54.8333015441895,
    "regions": [
      "104e"
    ]
  },
  {
    "code": "14819",
    "name": "Glückstadt",
    "updated_at": "2014-09-22T21:16:01.318523Z",
    "country": "de",
    "parent": null,
    "longitude": 9.41666984558105,
    "latitude": 53.7832984924316,
    "regions": [
      "104e"
    ]
  },
  {
    "code": "14818",
    "name": "Gmund am Tegernsee",
    "updated_at": "2014-09-22T21:16:01.282886Z",
    "country": "de",
    "parent": null,
    "longitude": 11.7333002090454,
    "latitude": 47.75,
    "regions": [
      "1045"
    ]
  },
  {
    "code": "14817",
    "name": "Gnarrenburg",
    "updated_at": "2014-09-22T21:16:01.258649Z",
    "country": "de",
    "parent": null,
    "longitude": 9.0,
    "latitude": 53.38330078125,
    "regions": [
      "1048"
    ]
  },
  {
    "code": "14816",
    "name": "Gneven",
    "updated_at": "2014-09-22T21:16:01.239668Z",
    "country": "de",
    "parent": null,
    "longitude": 11.5666999816895,
    "latitude": 53.63330078125,
    "regions": [
      "1049"
    ]
  },
  {
    "code": "14815",
    "name": "Gnevsdorf",
    "updated_at": "2014-09-22T21:16:01.220631Z",
    "country": "de",
    "parent": null,
    "longitude": 12.2166996002197,
    "latitude": 53.4000015258789,
    "regions": [
      "1049"
    ]
  },
  {
    "code": "14814",
    "name": "Gnewitz",
    "updated_at": "2014-09-22T21:16:01.198903Z",
    "country": "de",
    "parent": null,
    "longitude": 13.2833003997803,
    "latitude": 53.2832984924316,
    "regions": []
  },
  {
    "code": "14813",
    "name": "Gnotzheim",
    "updated_at": "2014-09-22T21:16:01.179079Z",
    "country": "de",
    "parent": null,
    "longitude": 10.7166996002197,
    "latitude": 49.0666999816895,
    "regions": [
      "1045"
    ]
  },
  {
    "code": "14812",
    "name": "Goch",
    "updated_at": "2014-09-22T21:16:01.156587Z",
    "country": "de",
    "parent": null,
    "longitude": 6.16666984558105,
    "latitude": 51.6666984558105,
    "regions": [
      "104a"
    ]
  },
  {
    "code": "14811",
    "name": "Göda",
    "updated_at": "2014-09-22T21:16:01.130430Z",
    "country": "de",
    "parent": null,
    "longitude": 14.3166999816895,
    "latitude": 51.1833000183105,
    "regions": [
      "116f"
    ]
  },
  {
    "code": "14810",
    "name": "Godensholt",
    "updated_at": "2014-09-22T21:16:01.104728Z",
    "country": "de",
    "parent": null,
    "longitude": 7.81666994094849,
    "latitude": 53.1666984558105,
    "regions": [
      "1048"
    ]
  },
  {
    "code": "1480f",
    "name": "Gögglingen",
    "updated_at": "2014-09-22T21:16:01.068411Z",
    "country": "de",
    "parent": null,
    "longitude": 9.93332958221436,
    "latitude": 48.3333015441895,
    "regions": [
      "1044"
    ]
  },
  {
    "code": "1480e",
    "name": "Göhren-Lebbin",
    "updated_at": "2014-09-22T21:16:01.039141Z",
    "country": "de",
    "parent": null,
    "longitude": 12.4833002090454,
    "latitude": 53.4832992553711,
    "regions": [
      "1049"
    ]
  },
  {
    "code": "1480d",
    "name": "Goldbach",
    "updated_at": "2014-09-22T21:16:01.002980Z",
    "country": "de",
    "parent": null,
    "longitude": 9.1863899230957,
    "latitude": 49.988899230957,
    "regions": [
      "1045"
    ]
  },
  {
    "code": "1480c",
    "name": "Goldberg",
    "updated_at": "2014-09-22T21:16:00.985577Z",
    "country": "de",
    "parent": null,
    "longitude": 12.0832996368408,
    "latitude": 53.5833015441895,
    "regions": [
      "1049"
    ]
  },
  {
    "code": "1480b",
    "name": "Goldenbek",
    "updated_at": "2014-09-22T21:16:00.968045Z",
    "country": "de",
    "parent": null,
    "longitude": 10.4833002090454,
    "latitude": 53.9333000183105,
    "regions": [
      "104e"
    ]
  },
  {
    "code": "1480a",
    "name": "Goldisthal",
    "updated_at": "2014-09-22T21:16:00.950294Z",
    "country": "de",
    "parent": null,
    "longitude": 11.0,
    "latitude": 50.5167007446289,
    "regions": [
      "104f"
    ]
  },
  {
    "code": "14809",
    "name": "Goldkronach",
    "updated_at": "2014-09-22T21:16:00.932352Z",
    "country": "de",
    "parent": null,
    "longitude": 11.6833000183105,
    "latitude": 50.0167007446289,
    "regions": [
      "1045"
    ]
  },
  {
    "code": "14808",
    "name": "Göllingen",
    "updated_at": "2014-09-22T21:16:00.914405Z",
    "country": "de",
    "parent": null,
    "longitude": 11.0166997909546,
    "latitude": 51.3499984741211,
    "regions": [
      "104f"
    ]
  },
  {
    "code": "14807",
    "name": "Gollwitz",
    "updated_at": "2014-09-22T21:16:00.888466Z",
    "country": "de",
    "parent": null,
    "longitude": 11.4833002090454,
    "latitude": 54.0167007446289,
    "regions": [
      "1049"
    ]
  },
  {
    "code": "14806",
    "name": "Golßen",
    "updated_at": "2014-09-22T21:16:00.860636Z",
    "country": "de",
    "parent": null,
    "longitude": 13.6000003814697,
    "latitude": 51.9667015075684,
    "regions": [
      "1046"
    ]
  },
  {
    "code": "14805",
    "name": "Gomadingen",
    "updated_at": "2014-09-22T21:16:00.834007Z",
    "country": "de",
    "parent": null,
    "longitude": 9.39999961853027,
    "latitude": 48.4000015258789,
    "regions": [
      "1044"
    ]
  },
  {
    "code": "14804",
    "name": "Gomaringen",
    "updated_at": "2014-09-22T21:16:00.799417Z",
    "country": "de",
    "parent": null,
    "longitude": 9.11666965484619,
    "latitude": 48.4500007629395,
    "regions": [
      "1044"
    ]
  },
  {
    "code": "14803",
    "name": "Gommern",
    "updated_at": "2014-09-22T21:16:00.763919Z",
    "country": "de",
    "parent": null,
    "longitude": 11.8332996368408,
    "latitude": 52.0666999816895,
    "regions": [
      "104d"
    ]
  },
  {
    "code": "14802",
    "name": "Gondelsheim",
    "updated_at": "2014-09-22T21:16:00.717972Z",
    "country": "de",
    "parent": null,
    "longitude": 8.65832996368408,
    "latitude": 49.0592002868652,
    "regions": [
      "1044"
    ]
  },
  {
    "code": "14801",
    "name": "Gondenbrett",
    "updated_at": "2014-09-22T21:16:00.699161Z",
    "country": "de",
    "parent": null,
    "longitude": 6.41666984558105,
    "latitude": 50.2332992553711,
    "regions": [
      "104b"
    ]
  },
  {
    "code": "14800",
    "name": "Gondorf",
    "updated_at": "2014-09-22T21:16:00.680473Z",
    "country": "de",
    "parent": null,
    "longitude": 6.61667013168335,
    "latitude": 49.9667015075684,
    "regions": [
      "104b"
    ]
  },
  {
    "code": "147ff",
    "name": "Gönnersdorf",
    "updated_at": "2014-09-22T21:16:00.662265Z",
    "country": "de",
    "parent": null,
    "longitude": 6.59999990463257,
    "latitude": 50.3333015441895,
    "regions": [
      "104b"
    ]
  },
  {
    "code": "147fe",
    "name": "Gonterskirchen",
    "updated_at": "2014-09-22T21:16:00.644070Z",
    "country": "de",
    "parent": null,
    "longitude": 9.01667022705078,
    "latitude": 50.5167007446289,
    "regions": [
      "1047"
    ]
  },
  {
    "code": "147fd",
    "name": "Göppingen",
    "updated_at": "2014-09-22T21:16:00.617752Z",
    "country": "de",
    "parent": null,
    "longitude": 9.66666984558105,
    "latitude": 48.7000007629395,
    "regions": [
      "1044"
    ]
  },
  {
    "code": "147fc",
    "name": "Görgeshausen",
    "updated_at": "2014-09-22T21:16:00.590184Z",
    "country": "de",
    "parent": null,
    "longitude": 7.94999980926514,
    "latitude": 50.4166984558105,
    "regions": [
      "104b"
    ]
  },
  {
    "code": "147fb",
    "name": "Görisried",
    "updated_at": "2014-09-22T21:16:00.562607Z",
    "country": "de",
    "parent": null,
    "longitude": 10.5,
    "latitude": 47.7000007629395,
    "regions": [
      "1045"
    ]
  },
  {
    "code": "147fa",
    "name": "Görlitz",
    "updated_at": "2014-09-22T21:16:00.528868Z",
    "country": "de",
    "parent": null,
    "longitude": 14.990875,
    "latitude": 51.156847,
    "regions": [
      "116f"
    ]
  },
  {
    "code": "147f9",
    "name": "Görne",
    "updated_at": "2014-09-22T21:16:00.493188Z",
    "country": "de",
    "parent": null,
    "longitude": 12.5166997909546,
    "latitude": 52.7000007629395,
    "regions": [
      "1046"
    ]
  },
  {
    "code": "147f8",
    "name": "Goseck",
    "updated_at": "2014-09-22T21:16:00.466098Z",
    "country": "de",
    "parent": null,
    "longitude": 11.8667001724243,
    "latitude": 51.2000007629395,
    "regions": [
      "104d"
    ]
  },
  {
    "code": "147f7",
    "name": "Gosen",
    "updated_at": "2014-09-22T21:16:00.448090Z",
    "country": "de",
    "parent": null,
    "longitude": 13.7166996002197,
    "latitude": 52.4000015258789,
    "regions": [
      "1046",
      "10ea"
    ]
  },
  {
    "code": "147f6",
    "name": "Goslar",
    "updated_at": "2014-09-22T21:16:00.430584Z",
    "country": "de",
    "parent": null,
    "longitude": 10.4333000183105,
    "latitude": 51.9000015258789,
    "regions": [
      "1048"
    ]
  },
  {
    "code": "147f5",
    "name": "Gößlow",
    "updated_at": "2014-09-22T21:16:00.411708Z",
    "country": "de",
    "parent": null,
    "longitude": 11.1332998275757,
    "latitude": 53.3333015441895,
    "regions": [
      "1049"
    ]
  },
  {
    "code": "147f4",
    "name": "Gößweinstein",
    "updated_at": "2014-09-22T21:16:00.393275Z",
    "country": "de",
    "parent": null,
    "longitude": 11.3332996368408,
    "latitude": 49.7667007446289,
    "regions": [
      "1045"
    ]
  },
  {
    "code": "147f3",
    "name": "Gotha",
    "updated_at": "2014-09-22T21:16:00.373387Z",
    "country": "de",
    "parent": null,
    "longitude": 10.7166996002197,
    "latitude": 50.9500007629395,
    "regions": [
      "104f"
    ]
  },
  {
    "code": "147f2",
    "name": "Gottenheim",
    "updated_at": "2014-09-22T21:16:00.349838Z",
    "country": "de",
    "parent": null,
    "longitude": 7.73332977294922,
    "latitude": 48.0499992370605,
    "regions": [
      "1044"
    ]
  },
  {
    "code": "147f1",
    "name": "Gotthun",
    "updated_at": "2014-09-22T21:16:00.323563Z",
    "country": "de",
    "parent": null,
    "longitude": 12.6000003814697,
    "latitude": 53.4166984558105,
    "regions": [
      "1049"
    ]
  },
  {
    "code": "147f0",
    "name": "Göttingen",
    "updated_at": "2014-09-22T21:16:00.295036Z",
    "country": "de",
    "parent": null,
    "longitude": 9.93332958221436,
    "latitude": 51.5332984924316,
    "regions": [
      "1048"
    ]
  },
  {
    "code": "147ef",
    "name": "Gottsdorf",
    "updated_at": "2014-09-22T21:16:00.260541Z",
    "country": "de",
    "parent": null,
    "longitude": 13.7333002090454,
    "latitude": 48.5332984924316,
    "regions": [
      "1045"
    ]
  },
  {
    "code": "147ee",
    "name": "Grabau",
    "updated_at": "2014-09-22T21:16:00.204131Z",
    "country": "de",
    "parent": null,
    "longitude": 10.2833003997803,
    "latitude": 53.7999992370605,
    "regions": [
      "104e"
    ]
  },
  {
    "code": "147ed",
    "name": "Grabenstätt",
    "updated_at": "2014-09-22T21:16:00.186712Z",
    "country": "de",
    "parent": null,
    "longitude": 12.5500001907349,
    "latitude": 47.8499984741211,
    "regions": [
      "1045"
    ]
  },
  {
    "code": "147ec",
    "name": "Grabow",
    "updated_at": "2014-09-22T21:16:00.168633Z",
    "country": "de",
    "parent": null,
    "longitude": 11.5666999816895,
    "latitude": 53.2832984924316,
    "regions": [
      "1049"
    ]
  },
  {
    "code": "147eb",
    "name": "Gräfelfing",
    "updated_at": "2014-09-22T21:16:00.150422Z",
    "country": "de",
    "parent": null,
    "longitude": 11.4499998092651,
    "latitude": 48.0999984741211,
    "regions": [
      "1045"
    ]
  },
  {
    "code": "147ea",
    "name": "Grafenau",
    "updated_at": "2014-09-22T21:16:00.132551Z",
    "country": "de",
    "parent": null,
    "longitude": 13.3999996185303,
    "latitude": 48.8499984741211,
    "regions": [
      "1045"
    ]
  },
  {
    "code": "147e9",
    "name": "Grafenhausen",
    "updated_at": "2014-09-22T21:16:00.111549Z",
    "country": "de",
    "parent": null,
    "longitude": 8.26667022705078,
    "latitude": 47.7667007446289,
    "regions": [
      "1044"
    ]
  },
  {
    "code": "147e8",
    "name": "Gräfenroda",
    "updated_at": "2014-09-22T21:16:00.082830Z",
    "country": "de",
    "parent": null,
    "longitude": 10.8000001907349,
    "latitude": 50.75,
    "regions": [
      "104f"
    ]
  },
  {
    "code": "147e7",
    "name": "Gräfensteinberg",
    "updated_at": "2014-09-22T21:16:00.055764Z",
    "country": "de",
    "parent": null,
    "longitude": 10.8166999816895,
    "latitude": 49.1666984558105,
    "regions": [
      "1045"
    ]
  },
  {
    "code": "147e6",
    "name": "Gräfenthal",
    "updated_at": "2014-09-22T21:16:00.025923Z",
    "country": "de",
    "parent": null,
    "longitude": 11.3000001907349,
    "latitude": 50.5332984924316,
    "regions": [
      "104f"
    ]
  },
  {
    "code": "147e5",
    "name": "Grafenwiesen",
    "updated_at": "2014-09-22T21:15:59.996201Z",
    "country": "de",
    "parent": null,
    "longitude": 12.8832998275757,
    "latitude": 49.2000007629395,
    "regions": [
      "1045"
    ]
  },
  {
    "code": "147e4",
    "name": "Grafing",
    "updated_at": "2014-09-22T21:15:59.961855Z",
    "country": "de",
    "parent": null,
    "longitude": 11.9666996002197,
    "latitude": 48.0499992370605,
    "regions": [
      "1045"
    ]
  },
  {
    "code": "147e3",
    "name": "Grafrath",
    "updated_at": "2014-09-22T21:15:59.920412Z",
    "country": "de",
    "parent": null,
    "longitude": 11.1667003631592,
    "latitude": 48.11669921875,
    "regions": [
      "1045"
    ]
  },
  {
    "code": "147e2",
    "name": "Grainau",
    "updated_at": "2014-09-22T21:15:59.901446Z",
    "country": "de",
    "parent": null,
    "longitude": 11.0166997909546,
    "latitude": 47.4832992553711,
    "regions": [
      "1045"
    ]
  },
  {
    "code": "147e1",
    "name": "Grainet",
    "updated_at": "2014-09-22T21:15:59.882213Z",
    "country": "de",
    "parent": null,
    "longitude": 13.6499996185303,
    "latitude": 48.7999992370605,
    "regions": [
      "1045"
    ]
  },
  {
    "code": "147e0",
    "name": "Gramkow",
    "updated_at": "2014-09-22T21:15:59.842275Z",
    "country": "de",
    "parent": null,
    "longitude": 11.3166999816895,
    "latitude": 53.9166984558105,
    "regions": [
      "1049"
    ]
  },
  {
    "code": "147df",
    "name": "Granzow",
    "updated_at": "2014-09-22T21:15:59.791630Z",
    "country": "de",
    "parent": null,
    "longitude": 12.8166999816895,
    "latitude": 53.2999992370605,
    "regions": [
      "1049"
    ]
  },
  {
    "code": "147de",
    "name": "Grapperhausen",
    "updated_at": "2014-09-22T21:15:59.761997Z",
    "country": "de",
    "parent": null,
    "longitude": 8.10000038146973,
    "latitude": 52.5332984924316,
    "regions": [
      "1048"
    ]
  },
  {
    "code": "147dd",
    "name": "Grasberg",
    "updated_at": "2014-09-22T21:15:59.727141Z",
    "country": "de",
    "parent": null,
    "longitude": 8.98332977294922,
    "latitude": 53.1833000183105,
    "regions": [
      "1048"
    ]
  },
  {
    "code": "147dc",
    "name": "Grasbrunn",
    "updated_at": "2014-09-22T21:15:59.692896Z",
    "country": "de",
    "parent": null,
    "longitude": 11.75,
    "latitude": 48.0833015441895,
    "regions": [
      "1045"
    ]
  },
  {
    "code": "147db",
    "name": "Grassau",
    "updated_at": "2014-09-22T21:15:59.670872Z",
    "country": "de",
    "parent": null,
    "longitude": 12.4499998092651,
    "latitude": 47.7832984924316,
    "regions": [
      "1045"
    ]
  },
  {
    "code": "147da",
    "name": "Grattersdorf",
    "updated_at": "2014-09-22T21:15:59.651931Z",
    "country": "de",
    "parent": null,
    "longitude": 13.1499996185303,
    "latitude": 48.7999992370605,
    "regions": [
      "1045"
    ]
  },
  {
    "code": "147d9",
    "name": "Grebendorf",
    "updated_at": "2014-09-22T21:15:59.632976Z",
    "country": "de",
    "parent": null,
    "longitude": 10.0666999816895,
    "latitude": 51.2000007629395,
    "regions": [
      "1047"
    ]
  },
  {
    "code": "147d8",
    "name": "Greding",
    "updated_at": "2014-09-22T21:15:59.613656Z",
    "country": "de",
    "parent": null,
    "longitude": 11.3613996505737,
    "latitude": 49.0483016967773,
    "regions": [
      "1045"
    ]
  },
  {
    "code": "147d7",
    "name": "Greetsiel",
    "updated_at": "2014-09-22T21:15:59.596161Z",
    "country": "de",
    "parent": null,
    "longitude": 7.09999990463257,
    "latitude": 53.5,
    "regions": [
      "1048"
    ]
  },
  {
    "code": "147d6",
    "name": "Grefrath",
    "updated_at": "2014-09-22T21:15:59.573371Z",
    "country": "de",
    "parent": null,
    "longitude": 6.31666994094849,
    "latitude": 51.2999992370605,
    "regions": [
      "104a"
    ]
  },
  {
    "code": "147d5",
    "name": "Greifswald",
    "updated_at": "2014-09-22T21:15:59.516594Z",
    "country": "de",
    "parent": null,
    "longitude": 13.3832998275757,
    "latitude": 54.0999984741211,
    "regions": [
      "1049"
    ]
  },
  {
    "code": "147d4",
    "name": "Greilsberg",
    "updated_at": "2014-09-22T21:15:59.484425Z",
    "country": "de",
    "parent": null,
    "longitude": 12.3000001907349,
    "latitude": 48.7332992553711,
    "regions": [
      "1045"
    ]
  },
  {
    "code": "147d3",
    "name": "Greiz",
    "updated_at": "2014-09-22T21:15:59.421962Z",
    "country": "de",
    "parent": null,
    "longitude": 12.1999998092651,
    "latitude": 50.6500015258789,
    "regions": [
      "104f",
      "116f"
    ]
  },
  {
    "code": "147d2",
    "name": "Gremersdorf",
    "updated_at": "2014-09-22T21:15:59.399070Z",
    "country": "de",
    "parent": null,
    "longitude": 12.8667001724243,
    "latitude": 54.11669921875,
    "regions": [
      "1049"
    ]
  },
  {
    "code": "147d1",
    "name": "Gremersdorf",
    "updated_at": "2014-09-22T21:15:59.381548Z",
    "country": "de",
    "parent": null,
    "longitude": 10.9333000183105,
    "latitude": 54.3333015441895,
    "regions": [
      "104e"
    ]
  },
  {
    "code": "147d0",
    "name": "Gremmelin",
    "updated_at": "2014-09-22T21:15:59.363056Z",
    "country": "de",
    "parent": null,
    "longitude": 12.3166999816895,
    "latitude": 53.7999992370605,
    "regions": [
      "1049"
    ]
  },
  {
    "code": "147cf",
    "name": "Gremmelsbach",
    "updated_at": "2014-09-22T21:15:59.344792Z",
    "country": "de",
    "parent": null,
    "longitude": 8.26667022705078,
    "latitude": 48.1500015258789,
    "regions": []
  },
  {
    "code": "147ce",
    "name": "Gremsdorf",
    "updated_at": "2014-09-22T21:15:59.326518Z",
    "country": "de",
    "parent": null,
    "longitude": 10.8332996368408,
    "latitude": 49.7000007629395,
    "regions": [
      "1045"
    ]
  },
  {
    "code": "147cd",
    "name": "Grenzach-Wyhlen",
    "updated_at": "2014-09-22T21:15:59.302214Z",
    "country": "de",
    "parent": null,
    "longitude": 7.68333005905151,
    "latitude": 47.5499992370605,
    "regions": [
      "1044"
    ]
  },
  {
    "code": "147cc",
    "name": "Grethem",
    "updated_at": "2014-09-22T21:15:59.274565Z",
    "country": "de",
    "parent": null,
    "longitude": 9.58333015441895,
    "latitude": 52.7167015075684,
    "regions": [
      "1048"
    ]
  },
  {
    "code": "147cb",
    "name": "Greven",
    "updated_at": "2014-09-22T21:15:59.246096Z",
    "country": "de",
    "parent": null,
    "longitude": 7.61667013168335,
    "latitude": 52.0999984741211,
    "regions": [
      "104a"
    ]
  },
  {
    "code": "147ca",
    "name": "Grevenbroich",
    "updated_at": "2014-09-22T21:15:59.216930Z",
    "country": "de",
    "parent": null,
    "longitude": 6.58332109451294,
    "latitude": 51.0911865234375,
    "regions": [
      "104a"
    ]
  },
  {
    "code": "147c9",
    "name": "Grevenkrug",
    "updated_at": "2014-09-22T21:15:59.182879Z",
    "country": "de",
    "parent": null,
    "longitude": 10.0166997909546,
    "latitude": 54.2167015075684,
    "regions": [
      "104e"
    ]
  },
  {
    "code": "147c8",
    "name": "Grevenstein",
    "updated_at": "2014-09-22T21:15:59.148237Z",
    "country": "de",
    "parent": null,
    "longitude": 8.13333034515381,
    "latitude": 51.2999992370605,
    "regions": [
      "104a"
    ]
  },
  {
    "code": "147c7",
    "name": "Grevesmühlen",
    "updated_at": "2014-09-22T21:15:59.129089Z",
    "country": "de",
    "parent": null,
    "longitude": 11.1833000183105,
    "latitude": 53.86669921875,
    "regions": [
      "1049"
    ]
  },
  {
    "code": "147c6",
    "name": "Bad Griesbach",
    "updated_at": "2014-09-22T21:15:59.110072Z",
    "country": "de",
    "parent": null,
    "longitude": 13.1999998092651,
    "latitude": 48.4500007629395,
    "regions": [
      "1045"
    ]
  },
  {
    "code": "147c5",
    "name": "Griesheim",
    "updated_at": "2014-09-22T21:15:59.090750Z",
    "country": "de",
    "parent": null,
    "longitude": 8.57528018951416,
    "latitude": 49.8628005981445,
    "regions": [
      "1047"
    ]
  },
  {
    "code": "147c4",
    "name": "Grimma",
    "updated_at": "2014-09-22T21:15:59.071291Z",
    "country": "de",
    "parent": null,
    "longitude": 12.7166996002197,
    "latitude": 51.2332992553711,
    "regions": [
      "116f"
    ]
  },
  {
    "code": "147c3",
    "name": "Grimmen",
    "updated_at": "2014-09-22T21:15:59.051884Z",
    "country": "de",
    "parent": null,
    "longitude": 13.0500001907349,
    "latitude": 54.0999984741211,
    "regions": [
      "1049"
    ]
  },
  {
    "code": "147c2",
    "name": "Gristow",
    "updated_at": "2014-09-22T21:15:59.028327Z",
    "country": "de",
    "parent": null,
    "longitude": 13.3332996368408,
    "latitude": 54.1666984558105,
    "regions": [
      "1049"
    ]
  },
  {
    "code": "147c1",
    "name": "Gröbenzell",
    "updated_at": "2014-09-22T21:15:59.004352Z",
    "country": "de",
    "parent": null,
    "longitude": 11.3667001724243,
    "latitude": 48.2000007629395,
    "regions": [
      "1045"
    ]
  },
  {
    "code": "147c0",
    "name": "Gröditz",
    "updated_at": "2014-09-22T21:15:58.943356Z",
    "country": "de",
    "parent": null,
    "longitude": 13.4499998092651,
    "latitude": 51.4166984558105,
    "regions": [
      "116f"
    ]
  },
  {
    "code": "147bf",
    "name": "Grömitz",
    "updated_at": "2014-09-22T21:15:58.908197Z",
    "country": "de",
    "parent": null,
    "longitude": 10.9666996002197,
    "latitude": 54.1500015258789,
    "regions": [
      "104e"
    ]
  },
  {
    "code": "147be",
    "name": "Gronau",
    "updated_at": "2014-09-22T21:15:58.877664Z",
    "country": "de",
    "parent": null,
    "longitude": 9.78332996368408,
    "latitude": 52.0833015441895,
    "regions": [
      "1048"
    ]
  },
  {
    "code": "147bd",
    "name": "Gronau",
    "updated_at": "2014-09-22T21:15:58.860461Z",
    "country": "de",
    "parent": null,
    "longitude": 7.03332996368408,
    "latitude": 52.2000007629395,
    "regions": [
      "104a"
    ]
  },
  {
    "code": "147bc",
    "name": "Grönebach",
    "updated_at": "2014-09-22T21:15:58.842818Z",
    "country": "de",
    "parent": null,
    "longitude": 8.55000019073486,
    "latitude": 51.2332992553711,
    "regions": [
      "104a"
    ]
  },
  {
    "code": "147bb",
    "name": "Grönenbach",
    "updated_at": "2014-09-22T21:15:58.824797Z",
    "country": "de",
    "parent": null,
    "longitude": 10.2166996002197,
    "latitude": 47.88330078125,
    "regions": [
      "1045"
    ]
  },
  {
    "code": "147ba",
    "name": "Groschlattengrün",
    "updated_at": "2014-09-22T21:15:58.807122Z",
    "country": "de",
    "parent": null,
    "longitude": 12.1498003005981,
    "latitude": 49.9738998413086,
    "regions": [
      "1045"
    ]
  },
  {
    "code": "147b9",
    "name": "Großalmerode",
    "updated_at": "2014-09-22T21:15:58.788927Z",
    "country": "de",
    "parent": null,
    "longitude": 9.78332996368408,
    "latitude": 51.2667007446289,
    "regions": [
      "1047"
    ]
  },
  {
    "code": "147b8",
    "name": "Großbeeren",
    "updated_at": "2014-09-22T21:15:58.761070Z",
    "country": "de",
    "parent": null,
    "longitude": 13.3332996368408,
    "latitude": 52.36669921875,
    "regions": [
      "1046"
    ]
  },
  {
    "code": "147b7",
    "name": "Groß Behnitz",
    "updated_at": "2014-09-22T21:15:58.733069Z",
    "country": "de",
    "parent": null,
    "longitude": 12.7333002090454,
    "latitude": 52.5833015441895,
    "regions": [
      "1046"
    ]
  },
  {
    "code": "147b6",
    "name": "Großbettlingen",
    "updated_at": "2014-09-22T21:15:58.701112Z",
    "country": "de",
    "parent": null,
    "longitude": 9.30000019073486,
    "latitude": 48.5999984741211,
    "regions": [
      "1044"
    ]
  },
  {
    "code": "147b5",
    "name": "Großbottwar",
    "updated_at": "2014-09-22T21:15:58.663382Z",
    "country": "de",
    "parent": null,
    "longitude": 9.29249954223633,
    "latitude": 49.002498626709,
    "regions": [
      "1044"
    ]
  },
  {
    "code": "147b4",
    "name": "Großbundenbach",
    "updated_at": "2014-09-22T21:15:58.645559Z",
    "country": "de",
    "parent": null,
    "longitude": 7.41666984558105,
    "latitude": 49.2999992370605,
    "regions": [
      "104b"
    ]
  },
  {
    "code": "147b3",
    "name": "Großburgwedel",
    "updated_at": "2014-09-22T21:15:58.627878Z",
    "country": "de",
    "parent": null,
    "longitude": 9.85000038146973,
    "latitude": 52.5,
    "regions": [
      "1048"
    ]
  },
  {
    "code": "147b2",
    "name": "Grosselfingen",
    "updated_at": "2014-09-22T21:15:58.573405Z",
    "country": "de",
    "parent": null,
    "longitude": 8.88333034515381,
    "latitude": 48.3333015441895,
    "regions": []
  },
  {
    "code": "147b1",
    "name": "Großenbrode",
    "updated_at": "2014-09-22T21:15:58.550595Z",
    "country": "de",
    "parent": null,
    "longitude": 11.0832996368408,
    "latitude": 54.38330078125,
    "regions": [
      "104e"
    ]
  },
  {
    "code": "147b0",
    "name": "Großenging",
    "updated_at": "2014-09-22T21:15:58.522810Z",
    "country": "de",
    "parent": null,
    "longitude": 7.83333015441895,
    "latitude": 52.8333015441895,
    "regions": [
      "1048"
    ]
  },
  {
    "code": "147af",
    "name": "Großenkneten",
    "updated_at": "2014-09-22T21:15:58.494367Z",
    "country": "de",
    "parent": null,
    "longitude": 8.26667022705078,
    "latitude": 52.9500007629395,
    "regions": [
      "1048"
    ]
  },
  {
    "code": "147ae",
    "name": "Großenlüder",
    "updated_at": "2014-09-22T21:15:58.460725Z",
    "country": "de",
    "parent": null,
    "longitude": 9.53332996368408,
    "latitude": 50.5833015441895,
    "regions": [
      "1047"
    ]
  },
  {
    "code": "147ad",
    "name": "Großenseebach",
    "updated_at": "2014-09-22T21:15:58.426436Z",
    "country": "de",
    "parent": null,
    "longitude": 10.8832998275757,
    "latitude": 49.6500015258789,
    "regions": [
      "1045"
    ]
  },
  {
    "code": "147ac",
    "name": "Groß-Gerau",
    "updated_at": "2014-09-22T21:15:58.375386Z",
    "country": "de",
    "parent": null,
    "longitude": 8.49361038208008,
    "latitude": 49.923900604248,
    "regions": [
      "1047"
    ]
  },
  {
    "code": "147ab",
    "name": "Groß Grönau",
    "updated_at": "2014-09-22T21:15:58.356467Z",
    "country": "de",
    "parent": null,
    "longitude": 10.75,
    "latitude": 53.7999992370605,
    "regions": [
      "104e"
    ]
  },
  {
    "code": "147aa",
    "name": "Großgundertshausen",
    "updated_at": "2014-09-22T21:15:58.337018Z",
    "country": "de",
    "parent": null,
    "longitude": 11.8332996368408,
    "latitude": 48.61669921875,
    "regions": [
      "1045"
    ]
  },
  {
    "code": "147a9",
    "name": "Großharrie",
    "updated_at": "2014-09-22T21:15:58.317355Z",
    "country": "de",
    "parent": null,
    "longitude": 10.0500001907349,
    "latitude": 54.11669921875,
    "regions": [
      "104e"
    ]
  },
  {
    "code": "147a8",
    "name": "Großharthau",
    "updated_at": "2014-09-22T21:15:58.297111Z",
    "country": "de",
    "parent": null,
    "longitude": 14.1000003814697,
    "latitude": 51.11669921875,
    "regions": [
      "116f"
    ]
  },
  {
    "code": "147a7",
    "name": "Großhartpenning",
    "updated_at": "2014-09-22T21:15:58.274177Z",
    "country": "de",
    "parent": null,
    "longitude": 11.6833000183105,
    "latitude": 47.8499984741211,
    "regions": [
      "1045"
    ]
  },
  {
    "code": "147a6",
    "name": "Großheirath",
    "updated_at": "2014-09-22T21:15:58.221263Z",
    "country": "de",
    "parent": null,
    "longitude": 10.9499998092651,
    "latitude": 50.1833000183105,
    "regions": [
      "1045"
    ]
  },
  {
    "code": "147a5",
    "name": "Großhennersdorf",
    "updated_at": "2014-09-22T21:15:58.186801Z",
    "country": "de",
    "parent": null,
    "longitude": 14.7833003997803,
    "latitude": 50.9832992553711,
    "regions": [
      "116f"
    ]
  },
  {
    "code": "147a4",
    "name": "Großheubach",
    "updated_at": "2014-09-22T21:15:58.153473Z",
    "country": "de",
    "parent": null,
    "longitude": 9.22527980804443,
    "latitude": 49.7271995544434,
    "regions": [
      "1045"
    ]
  },
  {
    "code": "147a3",
    "name": "Großjena",
    "updated_at": "2014-09-22T21:15:58.122779Z",
    "country": "de",
    "parent": null,
    "longitude": 11.7833003997803,
    "latitude": 51.2000007629395,
    "regions": [
      "104d"
    ]
  },
  {
    "code": "147a2",
    "name": "Großkmehlen",
    "updated_at": "2014-09-22T21:15:58.086480Z",
    "country": "de",
    "parent": null,
    "longitude": 13.7333002090454,
    "latitude": 51.38330078125,
    "regions": [
      "1046"
    ]
  },
  {
    "code": "147a1",
    "name": "Groß Köhren",
    "updated_at": "2014-09-22T21:15:58.067987Z",
    "country": "de",
    "parent": null,
    "longitude": 8.58333015441895,
    "latitude": 52.88330078125,
    "regions": [
      "1048"
    ]
  },
  {
    "code": "147a0",
    "name": "Groß Köris",
    "updated_at": "2014-09-22T21:15:58.049791Z",
    "country": "de",
    "parent": null,
    "longitude": 13.6667003631592,
    "latitude": 52.1666984558105,
    "regions": [
      "1046"
    ]
  },
  {
    "code": "1479f",
    "name": "Groß Kreutz",
    "updated_at": "2014-09-22T21:15:58.009486Z",
    "country": "de",
    "parent": null,
    "longitude": 12.7833003997803,
    "latitude": 52.4000015258789,
    "regions": [
      "1046"
    ]
  },
  {
    "code": "1479e",
    "name": "Großlangenfeld",
    "updated_at": "2014-09-22T21:15:57.983395Z",
    "country": "de",
    "parent": null,
    "longitude": 6.25,
    "latitude": 50.2167015075684,
    "regions": [
      "104b"
    ]
  },
  {
    "code": "1479d",
    "name": "Großlangheim",
    "updated_at": "2014-09-22T21:15:57.957576Z",
    "country": "de",
    "parent": null,
    "longitude": 10.2333002090454,
    "latitude": 49.75,
    "regions": [
      "1045"
    ]
  },
  {
    "code": "1479c",
    "name": "Großliebringen",
    "updated_at": "2014-09-22T21:15:57.920562Z",
    "country": "de",
    "parent": null,
    "longitude": 11.1167001724243,
    "latitude": 50.75,
    "regions": [
      "104f"
    ]
  },
  {
    "code": "1479b",
    "name": "Großlittgen",
    "updated_at": "2014-09-22T21:15:57.885488Z",
    "country": "de",
    "parent": null,
    "longitude": 6.80000019073486,
    "latitude": 50.0332984924316,
    "regions": [
      "104b"
    ]
  },
  {
    "code": "1479a",
    "name": "Großmaischeid",
    "updated_at": "2014-09-22T21:15:57.855693Z",
    "country": "de",
    "parent": null,
    "longitude": 7.63332986831665,
    "latitude": 50.5,
    "regions": [
      "104b"
    ]
  },
  {
    "code": "14799",
    "name": "Groß Markow",
    "updated_at": "2014-09-22T21:15:57.836511Z",
    "country": "de",
    "parent": null,
    "longitude": 12.6999998092651,
    "latitude": 53.8333015441895,
    "regions": []
  },
  {
    "code": "14798",
    "name": "Groß Meckelsen",
    "updated_at": "2014-09-22T21:15:57.817052Z",
    "country": "de",
    "parent": null,
    "longitude": 9.44999980926514,
    "latitude": 53.2832984924316,
    "regions": [
      "1048"
    ]
  },
  {
    "code": "14797",
    "name": "Großmehring",
    "updated_at": "2014-09-22T21:15:57.797817Z",
    "country": "de",
    "parent": null,
    "longitude": 11.5333003997803,
    "latitude": 48.7667007446289,
    "regions": [
      "1045"
    ]
  },
  {
    "code": "14796",
    "name": "Groß Mohrdorf",
    "updated_at": "2014-09-22T21:15:57.778461Z",
    "country": "de",
    "parent": null,
    "longitude": 12.9499998092651,
    "latitude": 54.38330078125,
    "regions": []
  },
  {
    "code": "14795",
    "name": "Groß Nemerow",
    "updated_at": "2014-09-22T21:15:57.759058Z",
    "country": "de",
    "parent": null,
    "longitude": 13.2333002090454,
    "latitude": 53.4667015075684,
    "regions": [
      "1049"
    ]
  },
  {
    "code": "14794",
    "name": "Groß Neuendorf",
    "updated_at": "2014-09-22T21:15:57.734284Z",
    "country": "de",
    "parent": null,
    "longitude": 14.4167003631592,
    "latitude": 52.7000007629395,
    "regions": []
  },
  {
    "code": "14793",
    "name": "Großostheim",
    "updated_at": "2014-09-22T21:15:57.706115Z",
    "country": "de",
    "parent": null,
    "longitude": 9.08139038085938,
    "latitude": 49.9211006164551,
    "regions": [
      "1045"
    ]
  },
  {
    "code": "14792",
    "name": "Groß Plasten",
    "updated_at": "2014-09-22T21:15:57.643409Z",
    "country": "de",
    "parent": null,
    "longitude": 12.8500003814697,
    "latitude": 53.5499992370605,
    "regions": [
      "1049"
    ]
  },
  {
    "code": "14791",
    "name": "Großpösna",
    "updated_at": "2014-09-22T21:15:57.603560Z",
    "country": "de",
    "parent": null,
    "longitude": 12.5,
    "latitude": 51.2667007446289,
    "regions": [
      "116f"
    ]
  },
  {
    "code": "14790",
    "name": "Groß Potrems",
    "updated_at": "2014-09-22T21:15:57.576757Z",
    "country": "de",
    "parent": null,
    "longitude": 12.2666997909546,
    "latitude": 53.9832992553711,
    "regions": [
      "1049"
    ]
  },
  {
    "code": "1478f",
    "name": "Großräschen",
    "updated_at": "2014-09-22T21:15:57.559399Z",
    "country": "de",
    "parent": null,
    "longitude": 14.0,
    "latitude": 51.5833015441895,
    "regions": [
      "1046"
    ]
  },
  {
    "code": "1478e",
    "name": "Großrosseln",
    "updated_at": "2014-09-22T21:15:57.523812Z",
    "country": "de",
    "parent": null,
    "longitude": 6.84999990463257,
    "latitude": 49.2000007629395,
    "regions": [
      "104c"
    ]
  },
  {
    "code": "1478d",
    "name": "Großrückerswalde",
    "updated_at": "2014-09-22T21:15:57.503359Z",
    "country": "de",
    "parent": null,
    "longitude": 13.1167001724243,
    "latitude": 50.63330078125,
    "regions": [
      "116f"
    ]
  },
  {
    "code": "1478c",
    "name": "Groß Sarau",
    "updated_at": "2014-09-22T21:15:57.483438Z",
    "country": "de",
    "parent": null,
    "longitude": 10.7333002090454,
    "latitude": 53.7667007446289,
    "regions": [
      "104e"
    ]
  },
  {
    "code": "1478b",
    "name": "Großschirma",
    "updated_at": "2014-09-22T21:15:57.457171Z",
    "country": "de",
    "parent": null,
    "longitude": 13.2833003997803,
    "latitude": 50.9667015075684,
    "regions": [
      "116f"
    ]
  },
  {
    "code": "1478a",
    "name": "Groß Schneen",
    "updated_at": "2014-09-22T21:15:57.429473Z",
    "country": "de",
    "parent": null,
    "longitude": 9.93332958221436,
    "latitude": 51.4333000183105,
    "regions": [
      "1048"
    ]
  },
  {
    "code": "14789",
    "name": "Großschönau",
    "updated_at": "2014-09-22T21:15:57.397204Z",
    "country": "de",
    "parent": null,
    "longitude": 14.6833000183105,
    "latitude": 50.9000015258789,
    "regions": [
      "116f"
    ]
  },
  {
    "code": "14788",
    "name": "Groß Schwansee",
    "updated_at": "2014-09-22T21:15:57.361923Z",
    "country": "de",
    "parent": null,
    "longitude": 11.0166997909546,
    "latitude": 53.9832992553711,
    "regions": [
      "1049"
    ]
  },
  {
    "code": "14787",
    "name": "Groß Strömkendorf",
    "updated_at": "2014-09-22T21:15:57.325526Z",
    "country": "de",
    "parent": null,
    "longitude": 11.4833002090454,
    "latitude": 53.9832992553711,
    "regions": [
      "1049"
    ]
  },
  {
    "code": "14786",
    "name": "Groß-Umstadt",
    "updated_at": "2014-09-22T21:15:57.301271Z",
    "country": "de",
    "parent": null,
    "longitude": 8.9338903427124,
    "latitude": 49.8678016662598,
    "regions": [
      "1047"
    ]
  },
  {
    "code": "14785",
    "name": "Groß Vielen",
    "updated_at": "2014-09-22T21:15:57.259751Z",
    "country": "de",
    "parent": null,
    "longitude": 13.0333003997803,
    "latitude": 53.4832992553711,
    "regions": []
  },
  {
    "code": "14784",
    "name": "Großwallstadt",
    "updated_at": "2014-09-22T21:15:57.239691Z",
    "country": "de",
    "parent": null,
    "longitude": 9.16666984558105,
    "latitude": 49.88330078125,
    "regions": [
      "1045"
    ]
  },
  {
    "code": "14783",
    "name": "Großweil",
    "updated_at": "2014-09-22T21:15:57.220035Z",
    "country": "de",
    "parent": null,
    "longitude": 11.3000001907349,
    "latitude": 47.6833000183105,
    "regions": [
      "1045"
    ]
  },
  {
    "code": "14782",
    "name": "Groß Wittensee",
    "updated_at": "2014-09-22T21:15:57.196940Z",
    "country": "de",
    "parent": null,
    "longitude": 9.76667022705078,
    "latitude": 54.4000015258789,
    "regions": [
      "104e"
    ]
  },
  {
    "code": "14781",
    "name": "Groß Wüstenfelde",
    "updated_at": "2014-09-22T21:15:57.169064Z",
    "country": "de",
    "parent": null,
    "longitude": 12.5500001907349,
    "latitude": 53.88330078125,
    "regions": []
  },
  {
    "code": "14780",
    "name": "Groß Zicker",
    "updated_at": "2014-09-22T21:15:57.141833Z",
    "country": "de",
    "parent": null,
    "longitude": 13.6833000183105,
    "latitude": 54.2999992370605,
    "regions": [
      "1049",
      "1175"
    ]
  },
  {
    "code": "1477f",
    "name": "Großziethen",
    "updated_at": "2014-09-22T21:15:57.107191Z",
    "country": "de",
    "parent": null,
    "longitude": 13.4499998092651,
    "latitude": 52.4000015258789,
    "regions": [
      "1046"
    ]
  },
  {
    "code": "1477e",
    "name": "Groß-Zimmern",
    "updated_at": "2014-09-22T21:15:57.071647Z",
    "country": "de",
    "parent": null,
    "longitude": 8.83444023132324,
    "latitude": 49.8758010864258,
    "regions": [
      "1047"
    ]
  },
  {
    "code": "1477d",
    "name": "Grötzingen",
    "updated_at": "2014-09-22T21:15:57.037695Z",
    "country": "de",
    "parent": null,
    "longitude": 9.26667022705078,
    "latitude": 48.61669921875,
    "regions": [
      "1044"
    ]
  },
  {
    "code": "1477c",
    "name": "Grubnow",
    "updated_at": "2014-09-22T21:15:57.016895Z",
    "country": "de",
    "parent": null,
    "longitude": 13.3500003814697,
    "latitude": 54.5499992370605,
    "regions": [
      "1049",
      "1175"
    ]
  },
  {
    "code": "1477b",
    "name": "Gruibingen",
    "updated_at": "2014-09-22T21:15:56.995908Z",
    "country": "de",
    "parent": null,
    "longitude": 9.64999961853027,
    "latitude": 48.5999984741211,
    "regions": []
  },
  {
    "code": "1477a",
    "name": "Grünbach",
    "updated_at": "2014-09-22T21:15:56.973494Z",
    "country": "de",
    "parent": null,
    "longitude": 12.3667001724243,
    "latitude": 50.4500007629395,
    "regions": [
      "116f"
    ]
  },
  {
    "code": "14779",
    "name": "Grünberg",
    "updated_at": "2014-09-22T21:15:56.954272Z",
    "country": "de",
    "parent": null,
    "longitude": 8.94999980926514,
    "latitude": 50.5999984741211,
    "regions": [
      "1047"
    ]
  },
  {
    "code": "14778",
    "name": "Grund",
    "updated_at": "2014-09-22T21:15:56.934469Z",
    "country": "de",
    "parent": null,
    "longitude": 13.4666996002197,
    "latitude": 51.0,
    "regions": [
      "116f"
    ]
  },
  {
    "code": "14777",
    "name": "Grünenbach",
    "updated_at": "2014-09-22T21:15:56.907374Z",
    "country": "de",
    "parent": null,
    "longitude": 10.0166997909546,
    "latitude": 47.61669921875,
    "regions": [
      "1045"
    ]
  },
  {
    "code": "14776",
    "name": "Grünendeich",
    "updated_at": "2014-09-22T21:15:56.877111Z",
    "country": "de",
    "parent": null,
    "longitude": 9.60000038146973,
    "latitude": 53.5666999816895,
    "regions": [
      "1048"
    ]
  },
  {
    "code": "14775",
    "name": "Grünhaid",
    "updated_at": "2014-09-22T21:15:56.849632Z",
    "country": "de",
    "parent": null,
    "longitude": 12.1000003814697,
    "latitude": 50.2167015075684,
    "regions": [
      "1045"
    ]
  },
  {
    "code": "14774",
    "name": "Grünhain",
    "updated_at": "2014-09-22T21:15:56.812812Z",
    "country": "de",
    "parent": null,
    "longitude": 12.8166999816895,
    "latitude": 50.5833015441895,
    "regions": [
      "116f"
    ]
  },
  {
    "code": "14773",
    "name": "Grünheide",
    "updated_at": "2014-09-22T21:15:56.777505Z",
    "country": "de",
    "parent": null,
    "longitude": 13.8166999816895,
    "latitude": 52.4166984558105,
    "regions": [
      "1046"
    ]
  },
  {
    "code": "14772",
    "name": "Grünplan",
    "updated_at": "2014-09-22T21:15:56.748848Z",
    "country": "de",
    "parent": null,
    "longitude": 12.8832998275757,
    "latitude": 53.1833000183105,
    "regions": [
      "1046",
      "1049"
    ]
  },
  {
    "code": "14771",
    "name": "Grünsfeld",
    "updated_at": "2014-09-22T21:15:56.729547Z",
    "country": "de",
    "parent": null,
    "longitude": 9.74388980865479,
    "latitude": 49.6082992553711,
    "regions": [
      "1044"
    ]
  },
  {
    "code": "14770",
    "name": "Grünstadt",
    "updated_at": "2014-09-22T21:15:56.708940Z",
    "country": "de",
    "parent": null,
    "longitude": 8.16806030273438,
    "latitude": 49.5691986083984,
    "regions": [
      "104b"
    ]
  },
  {
    "code": "1476f",
    "name": "Grünwald",
    "updated_at": "2014-09-22T21:15:56.689197Z",
    "country": "de",
    "parent": null,
    "longitude": 11.5166997909546,
    "latitude": 48.0499992370605,
    "regions": [
      "1045"
    ]
  },
  {
    "code": "1476e",
    "name": "Gstadt am Chiemsee",
    "updated_at": "2014-09-22T21:15:56.669514Z",
    "country": "de",
    "parent": null,
    "longitude": 12.4167003631592,
    "latitude": 47.88330078125,
    "regions": [
      "1045"
    ]
  },
  {
    "code": "1476d",
    "name": "Güby",
    "updated_at": "2014-09-22T21:15:56.648557Z",
    "country": "de",
    "parent": null,
    "longitude": 9.66666984558105,
    "latitude": 54.4832992553711,
    "regions": [
      "104e"
    ]
  },
  {
    "code": "1476c",
    "name": "Guckheim",
    "updated_at": "2014-09-22T21:15:56.624813Z",
    "country": "de",
    "parent": null,
    "longitude": 7.94999980926514,
    "latitude": 50.5332984924316,
    "regions": [
      "1047",
      "104b"
    ]
  },
  {
    "code": "1476b",
    "name": "Gudow",
    "updated_at": "2014-09-22T21:15:56.598730Z",
    "country": "de",
    "parent": null,
    "longitude": 10.7833003997803,
    "latitude": 53.5499992370605,
    "regions": [
      "104e"
    ]
  },
  {
    "code": "1476a",
    "name": "Güglingen",
    "updated_at": "2014-09-22T21:15:56.569356Z",
    "country": "de",
    "parent": null,
    "longitude": 8.99444007873535,
    "latitude": 49.0696983337402,
    "regions": [
      "1044"
    ]
  },
  {
    "code": "14769",
    "name": "Gühlen Glienicke",
    "updated_at": "2014-09-22T21:15:56.535441Z",
    "country": "de",
    "parent": null,
    "longitude": 12.7666997909546,
    "latitude": 53.0499992370605,
    "regions": [
      "1046"
    ]
  },
  {
    "code": "14768",
    "name": "Gülstorf",
    "updated_at": "2014-09-22T21:15:56.495550Z",
    "country": "de",
    "parent": null,
    "longitude": 10.854700088501,
    "latitude": 53.2612991333008,
    "regions": [
      "1048"
    ]
  },
  {
    "code": "14767",
    "name": "Gülzow",
    "updated_at": "2014-09-22T21:15:56.472429Z",
    "country": "de",
    "parent": null,
    "longitude": 12.0666999816895,
    "latitude": 53.8166999816895,
    "regions": [
      "1049"
    ]
  },
  {
    "code": "14766",
    "name": "Gummersbach",
    "updated_at": "2014-09-22T21:15:56.452983Z",
    "country": "de",
    "parent": null,
    "longitude": 7.55000019073486,
    "latitude": 51.0332984924316,
    "regions": [
      "104a"
    ]
  },
  {
    "code": "14765",
    "name": "Gundelfingen",
    "updated_at": "2014-09-22T21:15:56.433502Z",
    "country": "de",
    "parent": null,
    "longitude": 7.86667013168335,
    "latitude": 48.0499992370605,
    "regions": [
      "1044"
    ]
  },
  {
    "code": "14764",
    "name": "Gundelfingen",
    "updated_at": "2014-09-22T21:15:56.413690Z",
    "country": "de",
    "parent": null,
    "longitude": 9.5,
    "latitude": 48.3166999816895,
    "regions": [
      "1044"
    ]
  },
  {
    "code": "14763",
    "name": "Gundelsheim",
    "updated_at": "2014-09-22T21:15:56.393793Z",
    "country": "de",
    "parent": null,
    "longitude": 9.16193962097168,
    "latitude": 49.2844009399414,
    "regions": [
      "1044"
    ]
  },
  {
    "code": "14762",
    "name": "Gunderath",
    "updated_at": "2014-09-22T21:15:56.369304Z",
    "country": "de",
    "parent": null,
    "longitude": 6.98332977294922,
    "latitude": 50.25,
    "regions": [
      "104b"
    ]
  },
  {
    "code": "14761",
    "name": "Gundersheim",
    "updated_at": "2014-09-22T21:15:56.340239Z",
    "country": "de",
    "parent": null,
    "longitude": 8.20250034332275,
    "latitude": 49.6960983276367,
    "regions": [
      "104b"
    ]
  },
  {
    "code": "14760",
    "name": "Günding",
    "updated_at": "2014-09-22T21:15:56.309930Z",
    "country": "de",
    "parent": null,
    "longitude": 11.3999996185303,
    "latitude": 48.2667007446289,
    "regions": [
      "1045"
    ]
  },
  {
    "code": "1475f",
    "name": "Güntersberge",
    "updated_at": "2014-09-22T21:15:56.278924Z",
    "country": "de",
    "parent": null,
    "longitude": 10.9833002090454,
    "latitude": 51.6500015258789,
    "regions": [
      "104d"
    ]
  },
  {
    "code": "1475e",
    "name": "Günzburg",
    "updated_at": "2014-09-22T21:15:56.209318Z",
    "country": "de",
    "parent": null,
    "longitude": 10.2666997909546,
    "latitude": 48.4500007629395,
    "regions": [
      "1045"
    ]
  },
  {
    "code": "1475d",
    "name": "Gunzenhausen",
    "updated_at": "2014-09-22T21:15:56.190029Z",
    "country": "de",
    "parent": null,
    "longitude": 10.75,
    "latitude": 49.0999984741211,
    "regions": [
      "1045"
    ]
  },
  {
    "code": "1475c",
    "name": "Gunzesried",
    "updated_at": "2014-09-22T21:15:56.170854Z",
    "country": "de",
    "parent": null,
    "longitude": 10.2333002090454,
    "latitude": 47.5167007446289,
    "regions": [
      "1045"
    ]
  },
  {
    "code": "1475b",
    "name": "Gusterath",
    "updated_at": "2014-09-22T21:15:56.151519Z",
    "country": "de",
    "parent": null,
    "longitude": 6.71667003631592,
    "latitude": 49.7000007629395,
    "regions": [
      "104b"
    ]
  },
  {
    "code": "1475a",
    "name": "Gustow",
    "updated_at": "2014-09-22T21:15:56.132499Z",
    "country": "de",
    "parent": null,
    "longitude": 13.2166996002197,
    "latitude": 54.2999992370605,
    "regions": [
      "1049",
      "1175"
    ]
  },
  {
    "code": "14759",
    "name": "Güstrow",
    "updated_at": "2014-09-22T21:15:56.114394Z",
    "country": "de",
    "parent": null,
    "longitude": 12.1667003631592,
    "latitude": 53.7999992370605,
    "regions": [
      "1049"
    ]
  },
  {
    "code": "14758",
    "name": "Gutach",
    "updated_at": "2014-09-22T21:15:56.091096Z",
    "country": "de",
    "parent": null,
    "longitude": 8.21667003631592,
    "latitude": 48.25,
    "regions": [
      "1044"
    ]
  },
  {
    "code": "14757",
    "name": "Gutach im Breisgau",
    "updated_at": "2014-09-22T21:15:56.061359Z",
    "country": "de",
    "parent": null,
    "longitude": 7.98332977294922,
    "latitude": 48.11669921875,
    "regions": [
      "1044"
    ]
  },
  {
    "code": "14756",
    "name": "Gutenacker",
    "updated_at": "2014-09-22T21:15:56.033154Z",
    "country": "de",
    "parent": null,
    "longitude": 7.91666984558105,
    "latitude": 50.3166999816895,
    "regions": [
      "104b"
    ]
  },
  {
    "code": "14755",
    "name": "Gütersloh",
    "updated_at": "2014-09-22T21:15:55.997386Z",
    "country": "de",
    "parent": null,
    "longitude": 8.38333034515381,
    "latitude": 51.9000015258789,
    "regions": [
      "104a"
    ]
  },
  {
    "code": "14754",
    "name": "Güttersbach",
    "updated_at": "2014-09-22T21:15:55.965225Z",
    "country": "de",
    "parent": null,
    "longitude": 8.91277980804443,
    "latitude": 49.6156005859375,
    "regions": [
      "1047"
    ]
  },
  {
    "code": "14753",
    "name": "Gutzberg",
    "updated_at": "2014-09-22T21:15:55.933159Z",
    "country": "de",
    "parent": null,
    "longitude": 10.9666996002197,
    "latitude": 49.4000015258789,
    "regions": []
  },
  {
    "code": "14752",
    "name": "Guxhagen",
    "updated_at": "2014-09-22T21:15:55.914095Z",
    "country": "de",
    "parent": null,
    "longitude": 9.48332977294922,
    "latitude": 51.2000007629395,
    "regions": [
      "1047"
    ]
  },
  {
    "code": "14751",
    "name": "Haag an der Amper",
    "updated_at": "2014-09-22T21:15:55.895002Z",
    "country": "de",
    "parent": null,
    "longitude": 11.8332996368408,
    "latitude": 48.4667015075684,
    "regions": [
      "1045"
    ]
  },
  {
    "code": "14750",
    "name": "Haan",
    "updated_at": "2014-09-22T21:15:55.875414Z",
    "country": "de",
    "parent": null,
    "longitude": 7.0,
    "latitude": 51.2000007629395,
    "regions": [
      "104a"
    ]
  },
  {
    "code": "1474f",
    "name": "Haar",
    "updated_at": "2014-09-22T21:15:55.856046Z",
    "country": "de",
    "parent": null,
    "longitude": 11.7333002090454,
    "latitude": 48.0999984741211,
    "regions": [
      "1045"
    ]
  },
  {
    "code": "1474e",
    "name": "Habscheid",
    "updated_at": "2014-09-22T21:15:55.836764Z",
    "country": "de",
    "parent": null,
    "longitude": 6.26667022705078,
    "latitude": 50.1833000183105,
    "regions": [
      "104b"
    ]
  },
  {
    "code": "1474d",
    "name": "Hachenburg",
    "updated_at": "2014-09-22T21:15:55.811199Z",
    "country": "de",
    "parent": null,
    "longitude": 7.83333015441895,
    "latitude": 50.6500015258789,
    "regions": [
      "104b"
    ]
  },
  {
    "code": "1474c",
    "name": "Hadamar",
    "updated_at": "2014-09-22T21:15:55.787163Z",
    "country": "de",
    "parent": null,
    "longitude": 8.05000019073486,
    "latitude": 50.4500007629395,
    "regions": [
      "1047"
    ]
  },
  {
    "code": "1474b",
    "name": "Hafenlohr",
    "updated_at": "2014-09-22T21:15:55.759711Z",
    "country": "de",
    "parent": null,
    "longitude": 9.602219581604,
    "latitude": 49.8694000244141,
    "regions": [
      "1045"
    ]
  },
  {
    "code": "1474a",
    "name": "Haffkrug",
    "updated_at": "2014-09-22T21:15:55.725289Z",
    "country": "de",
    "parent": null,
    "longitude": 10.75,
    "latitude": 54.0499992370605,
    "regions": [
      "104e"
    ]
  },
  {
    "code": "14749",
    "name": "Hagen",
    "updated_at": "2014-09-22T21:15:55.688561Z",
    "country": "de",
    "parent": null,
    "longitude": 7.96667003631592,
    "latitude": 51.2667007446289,
    "regions": [
      "104a"
    ]
  },
  {
    "code": "14748",
    "name": "Hagen",
    "updated_at": "2014-09-22T21:15:55.659614Z",
    "country": "de",
    "parent": null,
    "longitude": 7.46667003631592,
    "latitude": 51.3499984741211,
    "regions": [
      "104a"
    ]
  },
  {
    "code": "14747",
    "name": "Hagen",
    "updated_at": "2014-09-22T21:15:55.640669Z",
    "country": "de",
    "parent": null,
    "longitude": 7.98332977294922,
    "latitude": 52.2000007629395,
    "regions": [
      "1048"
    ]
  },
  {
    "code": "14746",
    "name": "Hagen",
    "updated_at": "2014-09-22T21:15:55.621849Z",
    "country": "de",
    "parent": null,
    "longitude": 13.6167001724243,
    "latitude": 54.5666999816895,
    "regions": [
      "1049",
      "1175"
    ]
  },
  {
    "code": "14745",
    "name": "Hagenburg",
    "updated_at": "2014-09-22T21:15:55.602420Z",
    "country": "de",
    "parent": null,
    "longitude": 9.33333015441895,
    "latitude": 52.4333000183105,
    "regions": [
      "1048"
    ]
  },
  {
    "code": "14744",
    "name": "Hagenow",
    "updated_at": "2014-09-22T21:15:55.563381Z",
    "country": "de",
    "parent": null,
    "longitude": 11.1833000183105,
    "latitude": 53.4333000183105,
    "regions": [
      "1049"
    ]
  },
  {
    "code": "14743",
    "name": "Hagnau",
    "updated_at": "2014-09-22T21:15:55.537626Z",
    "country": "de",
    "parent": null,
    "longitude": 9.31667041778564,
    "latitude": 47.6666984558105,
    "regions": [
      "1044"
    ]
  },
  {
    "code": "14742",
    "name": "Hahnenklee-Bockswiese",
    "updated_at": "2014-09-22T21:15:55.511720Z",
    "country": "de",
    "parent": null,
    "longitude": 10.3332996368408,
    "latitude": 51.86669921875,
    "regions": [
      "1048"
    ]
  },
  {
    "code": "14741",
    "name": "Haibach",
    "updated_at": "2014-09-22T21:15:55.481330Z",
    "country": "de",
    "parent": null,
    "longitude": 12.7138996124268,
    "latitude": 49.0229988098145,
    "regions": [
      "1045"
    ]
  },
  {
    "code": "14740",
    "name": "Haibach",
    "updated_at": "2014-09-22T21:15:55.446941Z",
    "country": "de",
    "parent": null,
    "longitude": 9.20722007751465,
    "latitude": 49.9644012451172,
    "regions": [
      "1045"
    ]
  },
  {
    "code": "1473f",
    "name": "Haida",
    "updated_at": "2014-09-22T21:15:55.411170Z",
    "country": "de",
    "parent": null,
    "longitude": 13.4666996002197,
    "latitude": 51.4832992553711,
    "regions": [
      "1046"
    ]
  },
  {
    "code": "1473e",
    "name": "Haidkapelle",
    "updated_at": "2014-09-22T21:15:55.386075Z",
    "country": "de",
    "parent": null,
    "longitude": 9.25,
    "latitude": 48.36669921875,
    "regions": [
      "1044"
    ]
  },
  {
    "code": "1473d",
    "name": "Haidmühle",
    "updated_at": "2014-09-22T21:15:55.367730Z",
    "country": "de",
    "parent": null,
    "longitude": 13.7666997909546,
    "latitude": 48.8333015441895,
    "regions": [
      "1045"
    ]
  },
  {
    "code": "1473c",
    "name": "Haiger",
    "updated_at": "2014-09-22T21:15:55.350158Z",
    "country": "de",
    "parent": null,
    "longitude": 8.21667003631592,
    "latitude": 50.75,
    "regions": [
      "1047"
    ]
  },
  {
    "code": "1473b",
    "name": "Haigerloch",
    "updated_at": "2014-09-22T21:15:55.332091Z",
    "country": "de",
    "parent": null,
    "longitude": 8.80000019073486,
    "latitude": 48.36669921875,
    "regions": [
      "1044"
    ]
  },
  {
    "code": "1473a",
    "name": "Haina",
    "updated_at": "2014-09-22T21:15:55.313775Z",
    "country": "de",
    "parent": null,
    "longitude": 8.96667003631592,
    "latitude": 51.0332984924316,
    "regions": [
      "1047"
    ]
  },
  {
    "code": "14739",
    "name": "Hainrode",
    "updated_at": "2014-09-22T21:15:55.290636Z",
    "country": "de",
    "parent": null,
    "longitude": 10.6999998092651,
    "latitude": 51.4166984558105,
    "regions": [
      "104f"
    ]
  },
  {
    "code": "14738",
    "name": "Halbe",
    "updated_at": "2014-09-22T21:15:55.262564Z",
    "country": "de",
    "parent": null,
    "longitude": 13.6999998092651,
    "latitude": 52.11669921875,
    "regions": [
      "1046"
    ]
  },
  {
    "code": "14737",
    "name": "Halberstadt",
    "updated_at": "2014-09-22T21:15:55.207077Z",
    "country": "de",
    "parent": null,
    "longitude": 11.0500001907349,
    "latitude": 51.9000015258789,
    "regions": [
      "104d"
    ]
  },
  {
    "code": "14736",
    "name": "Halblech",
    "updated_at": "2016-02-09T09:32:28.328711Z",
    "country": "de",
    "parent": null,
    "longitude": 10.8166999816895,
    "latitude": 47.63330078125,
    "regions": [
      "1045"
    ]
  },
  {
    "code": "14735",
    "name": "Neuhaldensleben",
    "updated_at": "2014-09-22T21:15:55.136960Z",
    "country": "de",
    "parent": null,
    "longitude": 11.4167003631592,
    "latitude": 52.2999992370605,
    "regions": []
  },
  {
    "code": "14734",
    "name": "Haldern",
    "updated_at": "2014-09-22T21:15:55.111667Z",
    "country": "de",
    "parent": null,
    "longitude": 6.46667003631592,
    "latitude": 51.7667007446289,
    "regions": [
      "104a"
    ]
  },
  {
    "code": "14733",
    "name": "Halfing",
    "updated_at": "2014-09-22T21:15:55.092751Z",
    "country": "de",
    "parent": null,
    "longitude": 12.2833003997803,
    "latitude": 47.9500007629395,
    "regions": [
      "1045"
    ]
  },
  {
    "code": "14732",
    "name": "Hallbergmoos",
    "updated_at": "2014-09-22T21:15:55.073818Z",
    "country": "de",
    "parent": null,
    "longitude": 11.75,
    "latitude": 48.3333015441895,
    "regions": [
      "1045"
    ]
  },
  {
    "code": "14731",
    "name": "Halle an der Saale",
    "updated_at": "2014-09-22T21:15:55.056436Z",
    "country": "de",
    "parent": null,
    "longitude": 11.9698190689087,
    "latitude": 51.4827041625977,
    "regions": [
      "104d"
    ]
  },
  {
    "code": "14730",
    "name": "Halle Westfalen",
    "updated_at": "2014-09-22T21:15:55.037953Z",
    "country": "de",
    "parent": null,
    "longitude": 8.3594799041748,
    "latitude": 52.059700012207,
    "regions": [
      "104a"
    ]
  },
  {
    "code": "1472f",
    "name": "Hallenberg",
    "updated_at": "2014-09-22T21:15:55.016510Z",
    "country": "de",
    "parent": null,
    "longitude": 8.63333034515381,
    "latitude": 51.11669921875,
    "regions": [
      "104a"
    ]
  },
  {
    "code": "1472e",
    "name": "Hallerndorf",
    "updated_at": "2014-09-22T21:15:54.988604Z",
    "country": "de",
    "parent": null,
    "longitude": 10.9833002090454,
    "latitude": 49.7667007446289,
    "regions": [
      "1045"
    ]
  },
  {
    "code": "1472d",
    "name": "Halsenbach",
    "updated_at": "2014-09-22T21:15:54.929295Z",
    "country": "de",
    "parent": null,
    "longitude": 7.55000019073486,
    "latitude": 50.1666984558105,
    "regions": [
      "104b"
    ]
  },
  {
    "code": "1472c",
    "name": "Haltern",
    "updated_at": "2014-09-22T21:15:54.894943Z",
    "country": "de",
    "parent": null,
    "longitude": 7.18333005905151,
    "latitude": 51.7332992553711,
    "regions": [
      "104a"
    ]
  },
  {
    "code": "1472b",
    "name": "Hambühren",
    "updated_at": "2014-09-22T21:15:54.839924Z",
    "country": "de",
    "parent": null,
    "longitude": 9.98332977294922,
    "latitude": 52.63330078125,
    "regions": [
      "1048"
    ]
  },
  {
    "code": "1472a",
    "name": "Hamburg",
    "updated_at": "2014-09-22T21:15:54.822409Z",
    "country": "de",
    "parent": null,
    "longitude": 10.0,
    "latitude": 53.5499992370605,
    "regions": [
      "1221"
    ]
  },
  {
    "code": "14729",
    "name": "Hamdorf",
    "updated_at": "2014-09-22T21:15:54.804813Z",
    "country": "de",
    "parent": null,
    "longitude": 9.53332996368408,
    "latitude": 54.2332992553711,
    "regions": [
      "104e"
    ]
  },
  {
    "code": "14728",
    "name": "Hämelerwald",
    "updated_at": "2014-09-22T21:15:54.784615Z",
    "country": "de",
    "parent": null,
    "longitude": 10.1167001724243,
    "latitude": 52.3499984741211,
    "regions": [
      "1048"
    ]
  },
  {
    "code": "14727",
    "name": "Hameln",
    "updated_at": "2014-09-22T21:15:54.765256Z",
    "country": "de",
    "parent": null,
    "longitude": 9.35000038146973,
    "latitude": 52.0999984741211,
    "regions": [
      "1048"
    ]
  },
  {
    "code": "14726",
    "name": "Hamfelde in Holstein",
    "updated_at": "2014-09-22T21:15:54.742742Z",
    "country": "de",
    "parent": null,
    "longitude": 10.4499998092651,
    "latitude": 53.5999984741211,
    "regions": [
      "104e"
    ]
  },
  {
    "code": "14725",
    "name": "Hamm",
    "updated_at": "2014-09-22T21:15:54.716923Z",
    "country": "de",
    "parent": null,
    "longitude": 7.67257976531982,
    "latitude": 50.7661018371582,
    "regions": [
      "104b"
    ]
  },
  {
    "code": "14724",
    "name": "Hamm",
    "updated_at": "2014-09-22T21:15:54.690846Z",
    "country": "de",
    "parent": null,
    "longitude": 7.80000019073486,
    "latitude": 51.6833000183105,
    "regions": [
      "104a"
    ]
  },
  {
    "code": "14723",
    "name": "Hammelburg",
    "updated_at": "2014-09-22T21:15:54.657230Z",
    "country": "de",
    "parent": null,
    "longitude": 9.89999961853027,
    "latitude": 50.11669921875,
    "regions": [
      "1045"
    ]
  },
  {
    "code": "14722",
    "name": "Hammoor",
    "updated_at": "2014-09-22T21:15:54.619468Z",
    "country": "de",
    "parent": null,
    "longitude": 10.3166999816895,
    "latitude": 53.7167015075684,
    "regions": [
      "104e"
    ]
  },
  {
    "code": "14721",
    "name": "Hamweddel",
    "updated_at": "2014-09-22T21:15:54.585707Z",
    "country": "de",
    "parent": null,
    "longitude": 9.61666965484619,
    "latitude": 54.1833000183105,
    "regions": [
      "104e"
    ]
  },
  {
    "code": "14720",
    "name": "Hanau am Main",
    "updated_at": "2014-09-22T21:15:54.566978Z",
    "country": "de",
    "parent": null,
    "longitude": 8.91666984558105,
    "latitude": 50.13330078125,
    "regions": [
      "1047"
    ]
  },
  {
    "code": "1471f",
    "name": "Handewitt",
    "updated_at": "2014-09-22T21:15:54.547656Z",
    "country": "de",
    "parent": null,
    "longitude": 9.33333015441895,
    "latitude": 54.7667007446289,
    "regions": [
      "104e"
    ]
  },
  {
    "code": "1471e",
    "name": "Handorf",
    "updated_at": "2014-09-22T21:15:54.528564Z",
    "country": "de",
    "parent": null,
    "longitude": 7.69999980926514,
    "latitude": 51.9832992553711,
    "regions": [
      "104a"
    ]
  },
  {
    "code": "1471d",
    "name": "Hanerau-Hademarschen",
    "updated_at": "2014-09-22T21:15:54.489903Z",
    "country": "de",
    "parent": null,
    "longitude": 9.41666984558105,
    "latitude": 54.13330078125,
    "regions": [
      "104e"
    ]
  },
  {
    "code": "1471c",
    "name": "Hannover",
    "updated_at": "2014-09-22T21:15:54.465140Z",
    "country": "de",
    "parent": null,
    "longitude": 9.73565006256104,
    "latitude": 52.3721008300781,
    "regions": [
      "1048"
    ]
  },
  {
    "code": "1471b",
    "name": "Hanstedt",
    "updated_at": "2014-09-22T21:15:54.439784Z",
    "country": "de",
    "parent": null,
    "longitude": 10.0166997909546,
    "latitude": 53.2667007446289,
    "regions": [
      "1048"
    ]
  },
  {
    "code": "1471a",
    "name": "Hanstorf",
    "updated_at": "2014-09-22T21:15:54.413276Z",
    "country": "de",
    "parent": null,
    "longitude": 11.9499998092651,
    "latitude": 54.0332984924316,
    "regions": [
      "1049"
    ]
  },
  {
    "code": "14719",
    "name": "Hanum",
    "updated_at": "2014-09-22T21:15:54.377647Z",
    "country": "de",
    "parent": null,
    "longitude": 10.8500003814697,
    "latitude": 52.6833000183105,
    "regions": [
      "1048"
    ]
  },
  {
    "code": "14718",
    "name": "Happurg",
    "updated_at": "2014-09-22T21:15:54.341528Z",
    "country": "de",
    "parent": null,
    "longitude": 11.4666996002197,
    "latitude": 49.5,
    "regions": [
      "1045"
    ]
  },
  {
    "code": "14717",
    "name": "Harburg",
    "updated_at": "2014-09-22T21:15:54.312693Z",
    "country": "de",
    "parent": null,
    "longitude": 10.6667003631592,
    "latitude": 48.7667007446289,
    "regions": [
      "1045"
    ]
  },
  {
    "code": "14716",
    "name": "Hardegsen",
    "updated_at": "2014-09-22T21:15:54.295237Z",
    "country": "de",
    "parent": null,
    "longitude": 9.83333015441895,
    "latitude": 51.6500015258789,
    "regions": [
      "1048"
    ]
  },
  {
    "code": "14715",
    "name": "Haren",
    "updated_at": "2014-09-22T21:15:54.277873Z",
    "country": "de",
    "parent": null,
    "longitude": 7.23332977294922,
    "latitude": 52.7832984924316,
    "regions": [
      "1048"
    ]
  },
  {
    "code": "14714",
    "name": "Hargarten",
    "updated_at": "2014-09-22T21:15:54.259632Z",
    "country": "de",
    "parent": null,
    "longitude": 6.40000009536743,
    "latitude": 50.0999984741211,
    "regions": [
      "104b"
    ]
  },
  {
    "code": "14713",
    "name": "Harpstedt",
    "updated_at": "2014-09-22T21:15:54.241457Z",
    "country": "de",
    "parent": null,
    "longitude": 8.58333015441895,
    "latitude": 52.9000015258789,
    "regions": [
      "1048"
    ]
  },
  {
    "code": "14712",
    "name": "Harrislee",
    "updated_at": "2014-09-22T21:15:54.223571Z",
    "country": "de",
    "parent": null,
    "longitude": 9.38333034515381,
    "latitude": 54.7999992370605,
    "regions": [
      "104e"
    ]
  },
  {
    "code": "14711",
    "name": "Harsefeld",
    "updated_at": "2014-09-22T21:15:54.195672Z",
    "country": "de",
    "parent": null,
    "longitude": 9.5,
    "latitude": 53.4500007629395,
    "regions": [
      "1048"
    ]
  },
  {
    "code": "14710",
    "name": "Harsewinkel",
    "updated_at": "2014-09-22T21:15:54.167308Z",
    "country": "de",
    "parent": null,
    "longitude": 8.23332977294922,
    "latitude": 51.9667015075684,
    "regions": [
      "104a"
    ]
  },
  {
    "code": "1470f",
    "name": "Hartenstein",
    "updated_at": "2014-09-22T21:15:54.141535Z",
    "country": "de",
    "parent": null,
    "longitude": 11.5166997909546,
    "latitude": 49.5999984741211,
    "regions": [
      "1045"
    ]
  },
  {
    "code": "1470e",
    "name": "Hartenstein",
    "updated_at": "2014-09-22T21:15:54.106450Z",
    "country": "de",
    "parent": null,
    "longitude": 12.6833000183105,
    "latitude": 50.6666984558105,
    "regions": [
      "116f"
    ]
  },
  {
    "code": "1470d",
    "name": "Hartha",
    "updated_at": "2014-09-22T21:15:54.071210Z",
    "country": "de",
    "parent": null,
    "longitude": 12.9666996002197,
    "latitude": 51.0999984741211,
    "regions": [
      "116f"
    ]
  },
  {
    "code": "1470c",
    "name": "Harthausen",
    "updated_at": "2014-09-22T21:15:54.043746Z",
    "country": "de",
    "parent": null,
    "longitude": 11.7666997909546,
    "latitude": 48.0666999816895,
    "regions": [
      "1045"
    ]
  },
  {
    "code": "1470b",
    "name": "Harzgerode",
    "updated_at": "2014-09-22T21:15:54.007724Z",
    "country": "de",
    "parent": null,
    "longitude": 11.1499996185303,
    "latitude": 51.63330078125,
    "regions": [
      "104d"
    ]
  },
  {
    "code": "1470a",
    "name": "Hasel",
    "updated_at": "2014-09-22T21:15:53.989617Z",
    "country": "de",
    "parent": null,
    "longitude": 7.90000009536743,
    "latitude": 47.6500015258789,
    "regions": [
      "1044"
    ]
  },
  {
    "code": "14709",
    "name": "Haselau",
    "updated_at": "2014-09-22T21:15:53.971560Z",
    "country": "de",
    "parent": null,
    "longitude": 9.61666965484619,
    "latitude": 53.6666984558105,
    "regions": [
      "104e"
    ]
  },
  {
    "code": "14708",
    "name": "Haselünne",
    "updated_at": "2014-09-22T21:15:53.923321Z",
    "country": "de",
    "parent": null,
    "longitude": 7.48332977294922,
    "latitude": 52.6666984558105,
    "regions": [
      "1048"
    ]
  },
  {
    "code": "14707",
    "name": "Haserich",
    "updated_at": "2014-09-22T21:15:53.895156Z",
    "country": "de",
    "parent": null,
    "longitude": 7.33333015441895,
    "latitude": 50.0332984924316,
    "regions": [
      "104b"
    ]
  },
  {
    "code": "14706",
    "name": "Haslach im Kinzigtal",
    "updated_at": "2014-09-22T21:15:53.865202Z",
    "country": "de",
    "parent": null,
    "longitude": 8.08333015441895,
    "latitude": 48.2832984924316,
    "regions": [
      "1044"
    ]
  },
  {
    "code": "14705",
    "name": "Hassel",
    "updated_at": "2014-09-22T21:15:53.828374Z",
    "country": "de",
    "parent": null,
    "longitude": 9.98332977294922,
    "latitude": 52.7332992553711,
    "regions": [
      "1048"
    ]
  },
  {
    "code": "14704",
    "name": "Hassel",
    "updated_at": "2014-09-22T21:15:53.790143Z",
    "country": "de",
    "parent": null,
    "longitude": 9.19999980926514,
    "latitude": 52.7999992370605,
    "regions": [
      "1048"
    ]
  },
  {
    "code": "14703",
    "name": "Hasselfelde",
    "updated_at": "2014-09-22T21:15:53.769772Z",
    "country": "de",
    "parent": null,
    "longitude": 10.8500003814697,
    "latitude": 51.6833000183105,
    "regions": [
      "104d"
    ]
  },
  {
    "code": "14702",
    "name": "Haßfurt",
    "updated_at": "2014-09-22T21:15:53.752208Z",
    "country": "de",
    "parent": null,
    "longitude": 10.5,
    "latitude": 50.0332984924316,
    "regions": [
      "1045"
    ]
  },
  {
    "code": "14701",
    "name": "Haßloch",
    "updated_at": "2014-09-22T21:15:53.733246Z",
    "country": "de",
    "parent": null,
    "longitude": 8.25806045532227,
    "latitude": 49.3628005981445,
    "regions": [
      "104b"
    ]
  },
  {
    "code": "14700",
    "name": "Haßmersheim",
    "updated_at": "2014-09-22T21:15:53.713949Z",
    "country": "de",
    "parent": null,
    "longitude": 9.14999961853027,
    "latitude": 49.2999992370605,
    "regions": [
      "1044"
    ]
  },
  {
    "code": "146ff",
    "name": "Haste",
    "updated_at": "2014-09-22T21:15:53.694943Z",
    "country": "de",
    "parent": null,
    "longitude": 9.39999961853027,
    "latitude": 52.36669921875,
    "regions": [
      "1048"
    ]
  },
  {
    "code": "146fe",
    "name": "Hattenhofen",
    "updated_at": "2014-09-22T21:15:53.665861Z",
    "country": "de",
    "parent": null,
    "longitude": 11.1167001724243,
    "latitude": 48.2167015075684,
    "regions": [
      "1045"
    ]
  },
  {
    "code": "146fd",
    "name": "Hattersheim",
    "updated_at": "2014-09-22T21:15:53.638946Z",
    "country": "de",
    "parent": null,
    "longitude": 8.46667003631592,
    "latitude": 50.0666999816895,
    "regions": [
      "1047"
    ]
  },
  {
    "code": "146fc",
    "name": "Hattingen",
    "updated_at": "2014-09-22T21:15:53.572544Z",
    "country": "de",
    "parent": null,
    "longitude": 7.16666984558105,
    "latitude": 51.4000015258789,
    "regions": [
      "104a"
    ]
  },
  {
    "code": "146fb",
    "name": "Hattstedtermarsch",
    "updated_at": "2014-09-22T21:15:53.545754Z",
    "country": "de",
    "parent": null,
    "longitude": 9.0,
    "latitude": 54.5499992370605,
    "regions": [
      "104e"
    ]
  },
  {
    "code": "146fa",
    "name": "Hauenstein",
    "updated_at": "2014-09-22T21:15:53.507964Z",
    "country": "de",
    "parent": null,
    "longitude": 7.84999990463257,
    "latitude": 49.1833000183105,
    "regions": [
      "104b"
    ]
  },
  {
    "code": "146f9",
    "name": "Haundorf",
    "updated_at": "2014-09-22T21:15:53.488569Z",
    "country": "de",
    "parent": null,
    "longitude": 10.7666997909546,
    "latitude": 49.1833000183105,
    "regions": [
      "1045"
    ]
  },
  {
    "code": "146f8",
    "name": "Haunwang",
    "updated_at": "2014-09-22T21:15:53.469128Z",
    "country": "de",
    "parent": null,
    "longitude": 12.0500001907349,
    "latitude": 48.4667015075684,
    "regions": [
      "1045"
    ]
  },
  {
    "code": "146f7",
    "name": "Hausach",
    "updated_at": "2014-09-22T21:15:53.449319Z",
    "country": "de",
    "parent": null,
    "longitude": 8.16666984558105,
    "latitude": 48.2832984924316,
    "regions": [
      "1044"
    ]
  },
  {
    "code": "146f6",
    "name": "Hausen",
    "updated_at": "2014-09-22T21:15:53.422971Z",
    "country": "de",
    "parent": null,
    "longitude": 12.0,
    "latitude": 48.8499984741211,
    "regions": [
      "1045"
    ]
  },
  {
    "code": "146f5",
    "name": "Hausen",
    "updated_at": "2014-09-22T21:15:53.396786Z",
    "country": "de",
    "parent": null,
    "longitude": 10.0166997909546,
    "latitude": 49.9333000183105,
    "regions": [
      "1045"
    ]
  },
  {
    "code": "146f4",
    "name": "Hausen",
    "updated_at": "2014-09-22T21:15:53.369955Z",
    "country": "de",
    "parent": null,
    "longitude": 7.96667003631592,
    "latitude": 50.3499984741211,
    "regions": []
  },
  {
    "code": "146f3",
    "name": "Hausen",
    "updated_at": "2014-09-22T21:15:53.301290Z",
    "country": "de",
    "parent": null,
    "longitude": 7.41666984558105,
    "latitude": 50.5499992370605,
    "regions": []
  },
  {
    "code": "146f2",
    "name": "Hausen ob Verena",
    "updated_at": "2014-09-22T21:15:53.273719Z",
    "country": "de",
    "parent": null,
    "longitude": 8.71667003631592,
    "latitude": 48.0499992370605,
    "regions": [
      "1044"
    ]
  },
  {
    "code": "146f1",
    "name": "Häusern",
    "updated_at": "2014-09-22T21:15:53.254821Z",
    "country": "de",
    "parent": null,
    "longitude": 8.16666984558105,
    "latitude": 47.75,
    "regions": [
      "1044"
    ]
  },
  {
    "code": "146f0",
    "name": "Hausham",
    "updated_at": "2014-09-22T21:15:53.235777Z",
    "country": "de",
    "parent": null,
    "longitude": 11.8500003814697,
    "latitude": 47.75,
    "regions": [
      "1045"
    ]
  },
  {
    "code": "146ef",
    "name": "Hauzenberg",
    "updated_at": "2014-09-22T21:15:53.216508Z",
    "country": "de",
    "parent": null,
    "longitude": 13.6332998275757,
    "latitude": 48.6500015258789,
    "regions": [
      "1045"
    ]
  },
  {
    "code": "146ee",
    "name": "Havelberg",
    "updated_at": "2014-09-22T21:15:53.197125Z",
    "country": "de",
    "parent": null,
    "longitude": 12.0832996368408,
    "latitude": 52.8166999816895,
    "regions": [
      "104d"
    ]
  },
  {
    "code": "146ed",
    "name": "Haverlah",
    "updated_at": "2014-09-22T21:15:53.175313Z",
    "country": "de",
    "parent": null,
    "longitude": 10.3305997848511,
    "latitude": 52.0528984069824,
    "regions": [
      "1048"
    ]
  },
  {
    "code": "146ec",
    "name": "Havixbeck",
    "updated_at": "2014-09-22T21:15:53.148847Z",
    "country": "de",
    "parent": null,
    "longitude": 7.41666984558105,
    "latitude": 51.9832992553711,
    "regions": [
      "104a"
    ]
  },
  {
    "code": "146eb",
    "name": "Hayingen",
    "updated_at": "2014-09-22T21:15:53.122871Z",
    "country": "de",
    "parent": null,
    "longitude": 9.48332977294922,
    "latitude": 48.2667007446289,
    "regions": [
      "1044"
    ]
  },
  {
    "code": "146ea",
    "name": "Hebertshausen",
    "updated_at": "2014-09-22T21:15:53.091728Z",
    "country": "de",
    "parent": null,
    "longitude": 11.4666996002197,
    "latitude": 48.2999992370605,
    "regions": [
      "1045"
    ]
  },
  {
    "code": "146e9",
    "name": "Hechenberg",
    "updated_at": "2014-09-22T21:15:53.056143Z",
    "country": "de",
    "parent": null,
    "longitude": 11.5500001907349,
    "latitude": 47.8166999816895,
    "regions": [
      "1045"
    ]
  },
  {
    "code": "146e8",
    "name": "Hechendorf am Pilsensee",
    "updated_at": "2014-09-22T21:15:53.020640Z",
    "country": "de",
    "parent": null,
    "longitude": 11.1833000183105,
    "latitude": 48.0332984924316,
    "regions": [
      "1045"
    ]
  },
  {
    "code": "146e7",
    "name": "Hechingen",
    "updated_at": "2014-09-22T21:15:53.000856Z",
    "country": "de",
    "parent": null,
    "longitude": 8.98332977294922,
    "latitude": 48.3499984741211,
    "regions": [
      "1044"
    ]
  },
  {
    "code": "146e6",
    "name": "Hechthausen",
    "updated_at": "2014-09-22T21:15:52.983518Z",
    "country": "de",
    "parent": null,
    "longitude": 9.23332977294922,
    "latitude": 53.6500015258789,
    "regions": [
      "1048"
    ]
  },
  {
    "code": "146e5",
    "name": "Hecklingen",
    "updated_at": "2014-09-22T21:15:52.965592Z",
    "country": "de",
    "parent": null,
    "longitude": 11.5333003997803,
    "latitude": 51.8499984741211,
    "regions": [
      "104d"
    ]
  },
  {
    "code": "146e4",
    "name": "Heede",
    "updated_at": "2014-09-22T21:15:52.947554Z",
    "country": "de",
    "parent": null,
    "longitude": 7.30000019073486,
    "latitude": 53.0,
    "regions": []
  },
  {
    "code": "146e3",
    "name": "Heek",
    "updated_at": "2014-09-22T21:15:52.929313Z",
    "country": "de",
    "parent": null,
    "longitude": 7.09999990463257,
    "latitude": 52.11669921875,
    "regions": [
      "104a"
    ]
  },
  {
    "code": "146e2",
    "name": "Hegge",
    "updated_at": "2014-09-22T21:15:52.906203Z",
    "country": "de",
    "parent": null,
    "longitude": 10.3166999816895,
    "latitude": 47.6833000183105,
    "regions": [
      "1045"
    ]
  },
  {
    "code": "146e1",
    "name": "Hehlen",
    "updated_at": "2014-09-22T21:15:52.880492Z",
    "country": "de",
    "parent": null,
    "longitude": 9.48332977294922,
    "latitude": 51.9832992553711,
    "regions": [
      "1048"
    ]
  },
  {
    "code": "146e0",
    "name": "Heide",
    "updated_at": "2014-09-22T21:15:52.851961Z",
    "country": "de",
    "parent": null,
    "longitude": 9.10000038146973,
    "latitude": 54.2000007629395,
    "regions": [
      "104e"
    ]
  },
  {
    "code": "146df",
    "name": "Heideck",
    "updated_at": "2014-09-22T21:15:52.818608Z",
    "country": "de",
    "parent": null,
    "longitude": 11.1167001724243,
    "latitude": 49.11669921875,
    "regions": [
      "1045"
    ]
  },
  {
    "code": "146de",
    "name": "Heidelberg",
    "updated_at": "2014-09-22T21:15:52.783533Z",
    "country": "de",
    "parent": null,
    "longitude": 8.705547,
    "latitude": 49.411587,
    "regions": [
      "1044"
    ]
  },
  {
    "code": "146dd",
    "name": "Heidenau",
    "updated_at": "2014-09-22T21:15:52.751596Z",
    "country": "de",
    "parent": null,
    "longitude": 13.8654003143311,
    "latitude": 50.9714012145996,
    "regions": [
      "116f"
    ]
  },
  {
    "code": "146dc",
    "name": "Heidenau",
    "updated_at": "2014-09-22T21:15:52.733928Z",
    "country": "de",
    "parent": null,
    "longitude": 9.66666984558105,
    "latitude": 53.3166999816895,
    "regions": [
      "1048"
    ]
  },
  {
    "code": "146db",
    "name": "Heidenheim an der Brenz",
    "updated_at": "2014-09-22T21:15:52.716386Z",
    "country": "de",
    "parent": null,
    "longitude": 10.1499996185303,
    "latitude": 48.6833000183105,
    "regions": [
      "1044"
    ]
  },
  {
    "code": "146da",
    "name": "Heidersdorf",
    "updated_at": "2014-09-22T21:15:52.698462Z",
    "country": "de",
    "parent": null,
    "longitude": 13.3999996185303,
    "latitude": 50.6833000183105,
    "regions": [
      "116f"
    ]
  },
  {
    "code": "146d9",
    "name": "Heidweiler",
    "updated_at": "2014-09-22T21:15:52.680361Z",
    "country": "de",
    "parent": null,
    "longitude": 6.75,
    "latitude": 49.9166984558105,
    "regions": [
      "104b"
    ]
  },
  {
    "code": "146d8",
    "name": "Heigenbrücken",
    "updated_at": "2014-09-22T21:15:52.662585Z",
    "country": "de",
    "parent": null,
    "longitude": 9.38333034515381,
    "latitude": 50.0332984924316,
    "regions": [
      "1045"
    ]
  },
  {
    "code": "146d7",
    "name": "Heikendorf",
    "updated_at": "2014-09-22T21:15:52.639491Z",
    "country": "de",
    "parent": null,
    "longitude": 10.1999998092651,
    "latitude": 54.36669921875,
    "regions": [
      "104e"
    ]
  },
  {
    "code": "146d6",
    "name": "Heilbronn",
    "updated_at": "2014-09-22T21:15:52.613313Z",
    "country": "de",
    "parent": null,
    "longitude": 9.22000026702881,
    "latitude": 49.1403007507324,
    "regions": [
      "1044"
    ]
  },
  {
    "code": "146d5",
    "name": "Heiligenberg",
    "updated_at": "2014-09-22T21:15:52.589205Z",
    "country": "de",
    "parent": null,
    "longitude": 9.31667041778564,
    "latitude": 47.8166999816895,
    "regions": [
      "1044"
    ]
  },