[
  {
    "code": "20bb6",
    "name": "West End",
    "updated_at": "2016-02-09T09:32:05.422491Z",
    "country": "ca",
    "parent": "196ac",
    "longitude": -123.132918300138,
    "latitude": 49.2869526826159,
    "regions": []
  },
  {
    "code": "20bb5",
    "name": "Yaletown",
    "updated_at": "2016-02-09T09:32:07.345396Z",
    "country": "ca",
    "parent": "196ac",
    "longitude": -123.117747626558,
    "latitude": 49.2773240957233,
    "regions": []
  },
  {
    "code": "20bb4",
    "name": "Candelaria",
    "updated_at": "2016-02-09T09:32:07.353859Z",
    "country": "co",
    "parent": "19659",
    "longitude": -74.0710755277607,
    "latitude": 4.59925001165894,
    "regions": []
  },
  {
    "code": "20bb3",
    "name": "Chico",
    "updated_at": "2016-02-09T09:32:07.293554Z",
    "country": "co",
    "parent": "19659",
    "longitude": -74.0519146767125,
    "latitude": 4.67271498445367,
    "regions": []
  },
  {
    "code": "20bb2",
    "name": "Zona T",
    "updated_at": "2016-02-09T09:32:07.306684Z",
    "country": "co",
    "parent": "19659",
    "longitude": -74.0545782744884,
    "latitude": 4.6696714452354,
    "regions": []
  },
  {
    "code": "20bb1",
    "name": "Financial District",
    "updated_at": "2016-02-09T09:32:07.314473Z",
    "country": "co",
    "parent": "19659",
    "longitude": -74.0576991719653,
    "latitude": 4.65294311124092,
    "regions": []
  },
  {
    "code": "20bb0",
    "name": "La Boquilla",
    "updated_at": "2016-02-09T09:32:07.322405Z",
    "country": "co",
    "parent": "1964e",
    "longitude": -75.4989938002501,
    "latitude": 10.4696648558915,
    "regions": []
  },
  {
    "code": "20baf",
    "name": "Getsemani",
    "updated_at": "2014-09-18T06:51:16.148918Z",
    "country": "co",
    "parent": "1964e",
    "longitude": -75.5454328490153,
    "latitude": 10.4215180705313,
    "regions": []
  },
  {
    "code": "20bae",
    "name": "La Matuna",
    "updated_at": "2016-02-09T09:32:12.515404Z",
    "country": "co",
    "parent": "1964e",
    "longitude": -75.5466552078724,
    "latitude": 10.4242556553587,
    "regions": []
  },
  {
    "code": "20bad",
    "name": "Centro",
    "updated_at": "2016-02-09T09:32:04.197805Z",
    "country": "co",
    "parent": "1964e",
    "longitude": -75.5504840105067,
    "latitude": 10.4249936917634,
    "regions": []
  },
  {
    "code": "20bac",
    "name": "San Diego",
    "updated_at": "2016-02-09T09:32:12.523029Z",
    "country": "co",
    "parent": "1964e",
    "longitude": -75.547198274422,
    "latitude": 10.4271926199197,
    "regions": []
  },
  {
    "code": "20bab",
    "name": "Bocagrande",
    "updated_at": "2014-09-22T21:46:40.850745Z",
    "country": "co",
    "parent": "1964e",
    "longitude": -75.5560638980428,
    "latitude": 10.4026780110824,
    "regions": []
  },
  {
    "code": "20baa",
    "name": "La Candelaria",
    "updated_at": "2014-09-18T06:51:15.712448Z",
    "country": "co",
    "parent": "195fd",
    "longitude": -75.5667724997363,
    "latitude": 6.24793697108461,
    "regions": []
  },
  {
    "code": "20ba9",
    "name": "Laureles",
    "updated_at": "2014-09-13T16:58:31.090392Z",
    "country": "co",
    "parent": "195fd",
    "longitude": -75.596143853754,
    "latitude": 6.24441331890126,
    "regions": []
  },
  {
    "code": "20ba8",
    "name": "El Poblado",
    "updated_at": "2014-09-22T21:46:40.649804Z",
    "country": "co",
    "parent": "195fd",
    "longitude": -75.5686578316976,
    "latitude": 6.20501800343686,
    "regions": []
  },
  {
    "code": "20ba7",
    "name": "Pozo Colorado",
    "updated_at": "2014-09-13T16:58:30.912907Z",
    "country": "co",
    "parent": "195c5",
    "longitude": -74.2307142388412,
    "latitude": 11.1690419256218,
    "regions": []
  },
  {
    "code": "20ba6",
    "name": "Marina",
    "updated_at": "2014-09-13T16:58:30.780520Z",
    "country": "br",
    "parent": "19565",
    "longitude": -41.9523938992641,
    "latitude": -22.7518390176421,
    "regions": []
  },
  {
    "code": "20ba5",
    "name": "Bosque de Geriba",
    "updated_at": "2016-02-09T09:32:12.489889Z",
    "country": "br",
    "parent": "19565",
    "longitude": -41.9222256645774,
    "latitude": -22.7759751376548,
    "regions": []
  },
  {
    "code": "20ba4",
    "name": "Cem Braças",
    "updated_at": "2014-09-13T16:58:30.676883Z",
    "country": "br",
    "parent": "19565",
    "longitude": -41.9275774558264,
    "latitude": -22.7792400228726,
    "regions": []
  },
  {
    "code": "20ba3",
    "name": "Praia Rasa",
    "updated_at": "2016-02-09T09:32:04.107378Z",
    "country": "br",
    "parent": "19565",
    "longitude": -41.9431302869519,
    "latitude": -22.7592361515291,
    "regions": []
  },
  {
    "code": "20ba2",
    "name": "Tucuns",
    "updated_at": "2014-09-13T16:58:30.269283Z",
    "country": "br",
    "parent": "19565",
    "longitude": -41.927700348544,
    "latitude": -22.7923731477598,
    "regions": []
  },
  {
    "code": "20ba1",
    "name": "Albatroz",
    "updated_at": "2014-09-13T16:58:30.202440Z",
    "country": "br",
    "parent": "19565",
    "longitude": -41.8988491475178,
    "latitude": -22.7766950210514,
    "regions": []
  },
  {
    "code": "20ba0",
    "name": "Alto de Buzios",
    "updated_at": "2016-02-09T09:32:12.499872Z",
    "country": "br",
    "parent": "19565",
    "longitude": -41.8969484849858,
    "latitude": -22.7677453670923,
    "regions": []
  },
  {
    "code": "20b9f",
    "name": "Portal da Ferradura",
    "updated_at": "2014-09-13T16:58:30.060041Z",
    "country": "br",
    "parent": "19565",
    "longitude": -41.895261702745,
    "latitude": -22.7624865609872,
    "regions": []
  },
  {
    "code": "20b9e",
    "name": "Vila Caranga",
    "updated_at": "2014-09-13T16:58:29.949368Z",
    "country": "br",
    "parent": "19565",
    "longitude": -41.8962992727756,
    "latitude": -22.7597259974746,
    "regions": []
  },
  {
    "code": "20b9d",
    "name": "Buzios City Centre",
    "updated_at": "2016-02-09T09:32:08.325226Z",
    "country": "br",
    "parent": "19565",
    "longitude": -41.887532836978,
    "latitude": -22.7569937628323,
    "regions": []
  },
  {
    "code": "20b9c",
    "name": "Enseada do Gancho",
    "updated_at": "2014-09-13T16:58:29.404030Z",
    "country": "br",
    "parent": "19565",
    "longitude": -41.9088292121887,
    "latitude": -22.7569545707129,
    "regions": []
  },
  {
    "code": "20b9b",
    "name": "Tartaruga",
    "updated_at": "2014-09-18T06:51:14.725766Z",
    "country": "br",
    "parent": "19565",
    "longitude": -41.8986048263958,
    "latitude": -22.7622731403928,
    "regions": []
  },
  {
    "code": "20b9a",
    "name": "Forno",
    "updated_at": "2014-09-18T06:51:14.717300Z",
    "country": "br",
    "parent": "19565",
    "longitude": -41.875141918681,
    "latitude": -22.758174438215,
    "regions": []
  },
  {
    "code": "20b99",
    "name": "Humaita",
    "updated_at": "2016-02-09T09:32:16.919755Z",
    "country": "br",
    "parent": "19565",
    "longitude": -41.883208178859,
    "latitude": -22.7523562075695,
    "regions": []
  },
  {
    "code": "20b98",
    "name": "Canto",
    "updated_at": "2014-09-13T16:58:28.859926Z",
    "country": "br",
    "parent": "19565",
    "longitude": -41.891363035602,
    "latitude": -22.7558012936985,
    "regions": []
  },
  {
    "code": "20b97",
    "name": "Armacao",
    "updated_at": "2016-02-09T09:32:16.927342Z",
    "country": "br",
    "parent": "19565",
    "longitude": -41.8805612865835,
    "latitude": -22.7507991910394,
    "regions": []
  },
  {
    "code": "20b96",
    "name": "Ossos",
    "updated_at": "2014-09-18T06:51:14.495890Z",
    "country": "br",
    "parent": "19565",
    "longitude": -41.8805333313138,
    "latitude": -22.7464193001693,
    "regions": []
  },
  {
    "code": "20b95",
    "name": "Joao Fernandes",
    "updated_at": "2016-02-09T09:32:16.337392Z",
    "country": "br",
    "parent": "19565",
    "longitude": -41.8758207095614,
    "latitude": -22.745326021689,
    "regions": []
  },
  {
    "code": "20b94",
    "name": "Brava",
    "updated_at": "2016-02-09T09:32:15.859380Z",
    "country": "br",
    "parent": "19565",
    "longitude": -41.8780446193522,
    "latitude": -22.7549639012745,
    "regions": []
  },
  {
    "code": "20b93",
    "name": "Ferradura",
    "updated_at": "2014-09-18T06:51:14.364323Z",
    "country": "br",
    "parent": "19565",
    "longitude": -41.8879932517828,
    "latitude": -22.767412857365,
    "regions": []
  },
  {
    "code": "20b92",
    "name": "Manguinhos",
    "updated_at": "2014-09-19T12:29:45.064659Z",
    "country": "br",
    "parent": "19565",
    "longitude": -41.9140007338445,
    "latitude": -22.7715769275541,
    "regions": []
  },
  {
    "code": "20b91",
    "name": "Ferradurinha",
    "updated_at": "2014-09-13T16:58:27.993545Z",
    "country": "br",
    "parent": "19565",
    "longitude": -41.9000494480133,
    "latitude": -22.7795604892497,
    "regions": []
  },
  {
    "code": "20b90",
    "name": "Geriba",
    "updated_at": "2016-02-09T09:32:16.943279Z",
    "country": "br",
    "parent": "19565",
    "longitude": -41.9090404126708,
    "latitude": -22.7760996292154,
    "regions": []
  },
  {
    "code": "20b8f",
    "name": "Curitiba City Centre",
    "updated_at": "2016-02-09T09:32:03.634639Z",
    "country": "br",
    "parent": "19492",
    "longitude": -49.2731624395322,
    "latitude": -25.4318762988104,
    "regions": []
  },
  {
    "code": "20b8e",
    "name": "Batel",
    "updated_at": "2016-02-09T09:32:06.006706Z",
    "country": "br",
    "parent": "19492",
    "longitude": -49.2854946385742,
    "latitude": -25.4420829943012,
    "regions": []
  },
  {
    "code": "20b8d",
    "name": "Praia de Daniela",
    "updated_at": "2014-09-18T06:51:13.533400Z",
    "country": "br",
    "parent": "19473",
    "longitude": -48.5277749598026,
    "latitude": -27.4472854881691,
    "regions": []
  },
  {
    "code": "20b8c",
    "name": "Lagoa da Conceicao",
    "updated_at": "2016-02-09T09:32:04.214509Z",
    "country": "br",
    "parent": "19473",
    "longitude": -48.4646229485762,
    "latitude": -27.6109459222384,
    "regions": []
  },
  {
    "code": "20b8b",
    "name": "Mole Beach ",
    "updated_at": "2016-02-09T09:32:12.961967Z",
    "country": "br",
    "parent": "19473",
    "longitude": -48.4361849102893,
    "latitude": -27.6017898319766,
    "regions": []
  },
  {
    "code": "20b8a",
    "name": "Barra da Lagoa Beach",
    "updated_at": "2016-02-09T09:32:06.802587Z",
    "country": "br",
    "parent": "19473",
    "longitude": -48.4293937763714,
    "latitude": -27.5788138655935,
    "regions": []
  },
  {
    "code": "20b89",
    "name": "Joaquina Beach ",
    "updated_at": "2016-02-09T09:32:16.773223Z",
    "country": "br",
    "parent": "19473",
    "longitude": -48.4700064075169,
    "latitude": -27.645397465333,
    "regions": []
  },
  {
    "code": "20b88",
    "name": "Santinho Beach ",
    "updated_at": "2016-02-09T09:32:06.449941Z",
    "country": "br",
    "parent": "19473",
    "longitude": -48.3805057991481,
    "latitude": -27.4573554763788,
    "regions": []
  },
  {
    "code": "20b87",
    "name": "Jurerê",
    "updated_at": "2014-09-13T16:58:26.514316Z",
    "country": "br",
    "parent": "19473",
    "longitude": -48.4926423015477,
    "latitude": -27.4403207810039,
    "regions": []
  },
  {
    "code": "20b86",
    "name": "Ponta das Canas",
    "updated_at": "2016-02-09T09:32:15.253507Z",
    "country": "br",
    "parent": "19473",
    "longitude": -48.4278530734918,
    "latitude": -27.4016430441681,
    "regions": []
  },
  {
    "code": "20b85",
    "name": "Praia Brava",
    "updated_at": "2016-02-09T09:32:05.848725Z",
    "country": "br",
    "parent": "19473",
    "longitude": -48.4153043478727,
    "latitude": -27.4008561541434,
    "regions": []
  },
  {
    "code": "20b84",
    "name": "Lagoinha",
    "updated_at": "2016-02-09T09:32:05.856310Z",
    "country": "br",
    "parent": "19473",
    "longitude": -48.4270229783215,
    "latitude": -27.3902875880555,
    "regions": []
  },
  {
    "code": "20b83",
    "name": "Florianopolis City Centre",
    "updated_at": "2016-02-09T09:32:05.865211Z",
    "country": "br",
    "parent": "19473",
    "longitude": -48.5543036640123,
    "latitude": -27.5928253373919,
    "regions": []
  },
  {
    "code": "20b82",
    "name": "Ingleses",
    "updated_at": "2016-02-09T09:32:05.873470Z",
    "country": "br",
    "parent": "19473",
    "longitude": -48.3926888656256,
    "latitude": -27.43686880479,
    "regions": []
  },
  {
    "code": "20b81",
    "name": "Canasvieiras",
    "updated_at": "2016-02-09T09:32:15.328808Z",
    "country": "br",
    "parent": "19473",
    "longitude": -48.4583024941568,
    "latitude": -27.4294788219782,
    "regions": []
  },
  {
    "code": "20b80",
    "name": "Cachoeira do Bom Jesus",
    "updated_at": "2016-02-09T09:32:06.465637Z",
    "country": "br",
    "parent": "19473",
    "longitude": -48.4328583602697,
    "latitude": -27.4203914644441,
    "regions": []
  },
  {
    "code": "20b7f",
    "name": "Campeche",
    "updated_at": "2016-02-09T09:32:04.855063Z",
    "country": "br",
    "parent": "19473",
    "longitude": -48.4893859395993,
    "latitude": -27.6810256272436,
    "regions": []
  },
  {
    "code": "20b7e",
    "name": "Aldeota",
    "updated_at": "2016-02-09T09:32:09.457474Z",
    "country": "br",
    "parent": "19471",
    "longitude": -38.5026091670367,
    "latitude": -3.73595685405037,
    "regions": []
  },
  {
    "code": "20b7d",
    "name": "Praia do Futuro II",
    "updated_at": "2016-02-09T09:32:09.437892Z",
    "country": "br",
    "parent": "19471",
    "longitude": -38.445066149765,
    "latitude": -3.75777039303495,
    "regions": []
  },
  {
    "code": "20b7c",
    "name": "Praia do Futuro I",
    "updated_at": "2016-02-09T09:32:09.430263Z",
    "country": "br",
    "parent": "19471",
    "longitude": -38.4563966677701,
    "latitude": -3.73718483595256,
    "regions": []
  },
  {
    "code": "20b7b",
    "name": "Mucuripe",
    "updated_at": "2016-02-09T09:32:15.344393Z",
    "country": "br",
    "parent": "19471",
    "longitude": -38.4834515573799,
    "latitude": -3.72334289055911,
    "regions": []
  },
  {
    "code": "20b7a",
    "name": "Praia de Iracema",
    "updated_at": "2016-02-09T09:32:04.847218Z",
    "country": "br",
    "parent": "19471",
    "longitude": -38.5111868456082,
    "latitude": -3.72186192413028,
    "regions": []
  },
  {
    "code": "20b79",
    "name": "Fortaleza City Centre",
    "updated_at": "2016-02-09T09:32:04.257797Z",
    "country": "br",
    "parent": "19471",
    "longitude": -38.520248466144,
    "latitude": -3.72643631820145,
    "regions": []
  },
  {
    "code": "20b78",
    "name": "Meireles",
    "updated_at": "2016-02-09T09:32:04.247740Z",
    "country": "br",
    "parent": "19471",
    "longitude": -38.4981048326683,
    "latitude": -3.72651687091629,
    "regions": []
  },
  {
    "code": "20b77",
    "name": "Ponta Negra",
    "updated_at": "2016-02-09T09:32:08.605863Z",
    "country": "br",
    "parent": "19382",
    "longitude": -35.1756612067821,
    "latitude": -5.87861747804406,
    "regions": []
  },
  {
    "code": "20b76",
    "name": "Charitas",
    "updated_at": "2014-09-13T16:58:23.434665Z",
    "country": "br",
    "parent": "1937a",
    "longitude": -43.0944484840394,
    "latitude": -22.9250918647685,
    "regions": []
  },
  {
    "code": "20b75",
    "name": "Inga",
    "updated_at": "2014-09-13T16:58:23.270054Z",
    "country": "br",
    "parent": "1937a",
    "longitude": -43.1222019198169,
    "latitude": -22.9009808595518,
    "regions": []
  },
  {
    "code": "20b74",
    "name": "Centro",
    "updated_at": "2014-09-13T16:58:23.001927Z",
    "country": "br",
    "parent": "1937a",
    "longitude": -43.1214622591152,
    "latitude": -22.8909494784894,
    "regions": []
  },
  {
    "code": "20b73",
    "name": "Itacoatiara",
    "updated_at": "2014-09-13T16:58:22.969937Z",
    "country": "br",
    "parent": "1937a",
    "longitude": -43.0311550772547,
    "latitude": -22.9729055867319,
    "regions": []
  },
  {
    "code": "20b72",
    "name": "Sao Francisco",
    "updated_at": "2014-09-18T06:51:12.051947Z",
    "country": "br",
    "parent": "1937a",
    "longitude": -43.087744563818,
    "latitude": -22.9143653907801,
    "regions": []
  },
  {
    "code": "20b71",
    "name": "Icarai",
    "updated_at": "2014-09-13T16:58:22.742477Z",
    "country": "br",
    "parent": "1937a",
    "longitude": -43.1112293564654,
    "latitude": -22.9057096595873,
    "regions": []
  },
  {
    "code": "20b70",
    "name": "Camboinhas",
    "updated_at": "2014-09-13T16:58:22.623793Z",
    "country": "br",
    "parent": "1937a",
    "longitude": -43.0617434996941,
    "latitude": -22.9545454035318,
    "regions": []
  },
  {
    "code": "20b6f",
    "name": "Paraty Centro",
    "updated_at": "2014-09-22T21:46:39.194995Z",
    "country": "br",
    "parent": "1934b",
    "longitude": -44.7187215017166,
    "latitude": -23.2206074925244,
    "regions": []
  },
  {
    "code": "20b6e",
    "name": "Portal das Artes",
    "updated_at": "2014-09-22T21:46:39.095595Z",
    "country": "br",
    "parent": "1934b",
    "longitude": -44.7327972639748,
    "latitude": -23.216688076734,
    "regions": []
  },
  {
    "code": "20b6d",
    "name": "Pontal",
    "updated_at": "2014-09-13T16:58:22.385885Z",
    "country": "br",
    "parent": "1934b",
    "longitude": -44.714516293829,
    "latitude": -23.2159902872601,
    "regions": []
  },
  {
    "code": "20b6c",
    "name": "Jabaquara",
    "updated_at": "2014-09-22T21:46:39.066077Z",
    "country": "br",
    "parent": "1934b",
    "longitude": -44.7199906589106,
    "latitude": -23.2068698906487,
    "regions": []
  },
  {
    "code": "20b6b",
    "name": "Cabore",
    "updated_at": "2014-09-13T16:58:22.253514Z",
    "country": "br",
    "parent": "1934b",
    "longitude": -44.7235412264059,
    "latitude": -23.2168314515717,
    "regions": []
  },
  {
    "code": "20b6a",
    "name": "Muro Alto Beach",
    "updated_at": "2014-09-18T06:51:11.923812Z",
    "country": "br",
    "parent": "192fd",
    "longitude": -34.9817473831993,
    "latitude": -8.43548885177072,
    "regions": []
  },
  {
    "code": "20b69",
    "name": "Praia de Curuipe",
    "updated_at": "2014-09-13T16:58:22.076410Z",
    "country": "br",
    "parent": "192f2",
    "longitude": -39.0561497211456,
    "latitude": -16.4221655967239,
    "regions": []
  },
  {
    "code": "20b68",
    "name": "Coroa Vermelha",
    "updated_at": "2014-09-13T16:58:22.002200Z",
    "country": "br",
    "parent": "192f2",
    "longitude": -39.00726699816,
    "latitude": -16.3417208285524,
    "regions": []
  },
  {
    "code": "20b67",
    "name": "Praia do Muta",
    "updated_at": "2014-09-18T06:51:11.813065Z",
    "country": "br",
    "parent": "192f2",
    "longitude": -39.0117107719319,
    "latitude": -16.3485668662918,
    "regions": []
  },
  {
    "code": "20b66",
    "name": "Praia de Taperapuan",
    "updated_at": "2014-09-19T21:46:49.432929Z",
    "country": "br",
    "parent": "192f2",
    "longitude": -39.0398623642746,
    "latitude": -16.3899775981732,
    "regions": []
  },
  {
    "code": "20b65",
    "name": "Praia de Mundai",
    "updated_at": "2014-09-13T16:58:21.759072Z",
    "country": "br",
    "parent": "192f2",
    "longitude": -39.0496057571963,
    "latitude": -16.4081154972778,
    "regions": []
  },
  {
    "code": "20b64",
    "name": "Praia do Cruzeiro",
    "updated_at": "2014-09-13T16:58:21.698323Z",
    "country": "br",
    "parent": "192f2",
    "longitude": -39.0645879507065,
    "latitude": -16.4404739864279,
    "regions": []
  },
  {
    "code": "20b63",
    "name": "Porto Seguro City Centre",
    "updated_at": "2016-02-09T09:32:09.706410Z",
    "country": "br",
    "parent": "192f2",
    "longitude": -39.0654803476429,
    "latitude": -16.4448465938928,
    "regions": []
  },
  {
    "code": "20b62",
    "name": "Boa Viagem",
    "updated_at": "2014-09-22T21:46:38.496882Z",
    "country": "br",
    "parent": "192dc",
    "longitude": -34.9000696127235,
    "latitude": -8.12586011008426,
    "regions": []
  },
  {
    "code": "20b61",
    "name": "Cosme Velho",
    "updated_at": "2014-09-13T16:58:20.951114Z",
    "country": "br",
    "parent": "192cd",
    "longitude": -43.2006303329859,
    "latitude": -22.9415318176072,
    "regions": []
  },
  {
    "code": "20b60",
    "name": "Jardim Botanico",
    "updated_at": "2014-09-18T06:51:11.611534Z",
    "country": "br",
    "parent": "192cd",
    "longitude": -43.2213253848227,
    "latitude": -22.9640878771856,
    "regions": []
  },
  {
    "code": "20b5f",
    "name": "Sao Conrado",
    "updated_at": "2014-09-18T06:51:11.460205Z",
    "country": "br",
    "parent": "192cd",
    "longitude": -43.2710266958016,
    "latitude": -22.9929645016149,
    "regions": []
  },
  {
    "code": "20b5e",
    "name": "Joatinga",
    "updated_at": "2014-09-13T16:58:20.567094Z",
    "country": "br",
    "parent": "192cd",
    "longitude": -43.2903331984037,
    "latitude": -23.0101900341655,
    "regions": []
  },
  {
    "code": "20b5d",
    "name": "Ilha do Governador",
    "updated_at": "2014-09-13T16:58:20.480318Z",
    "country": "br",
    "parent": "192cd",
    "longitude": -43.2004114077562,
    "latitude": -22.8059423777013,
    "regions": []
  },
  {
    "code": "20b5c",
    "name": "Jacarepagua",
    "updated_at": "2014-09-19T12:29:40.654889Z",
    "country": "br",
    "parent": "192cd",
    "longitude": -43.3871334010341,
    "latitude": -22.9591744847225,
    "regions": []
  },
  {
    "code": "20b5b",
    "name": "Urca",
    "updated_at": "2014-09-22T21:46:38.264003Z",
    "country": "br",
    "parent": "192cd",
    "longitude": -43.1667140853107,
    "latitude": -22.9504296640844,
    "regions": []
  },
  {
    "code": "20b5a",
    "name": "Madureira",
    "updated_at": "2016-02-09T09:32:15.245815Z",
    "country": "br",
    "parent": "192cd",
    "longitude": -43.3389119803905,
    "latitude": -22.8680886795118,
    "regions": []
  },
  {
    "code": "20b59",
    "name": "Gloria",
    "updated_at": "2016-02-09T09:32:14.390230Z",
    "country": "br",
    "parent": "192cd",
    "longitude": -43.1775998966203,
    "latitude": -22.9207922225079,
    "regions": []
  },
  {
    "code": "20b58",
    "name": "Botafogo",
    "updated_at": "2016-02-09T09:32:14.380852Z",
    "country": "br",
    "parent": "192cd",
    "longitude": -43.185039917744,
    "latitude": -22.9513737992811,
    "regions": []
  },
  {
    "code": "20b57",
    "name": "Leme",
    "updated_at": "2016-02-09T09:32:14.439596Z",
    "country": "br",
    "parent": "192cd",
    "longitude": -43.1706821211593,
    "latitude": -22.9624976351736,
    "regions": []
  },
  {
    "code": "20b56",
    "name": "Santa Teresa",
    "updated_at": "2016-02-09T09:32:14.431928Z",
    "country": "br",
    "parent": "192cd",
    "longitude": -43.1869366873304,
    "latitude": -22.9209332913871,
    "regions": []
  },
  {
    "code": "20b55",
    "name": "Leblon",
    "updated_at": "2016-02-09T09:32:14.455432Z",
    "country": "br",
    "parent": "192cd",
    "longitude": -43.2237067510882,
    "latitude": -22.983604990864,
    "regions": []
  },
  {
    "code": "20b54",
    "name": "Flamengo",
    "updated_at": "2016-02-09T09:32:14.447446Z",
    "country": "br",
    "parent": "192cd",
    "longitude": -43.1762803073891,
    "latitude": -22.9325186765547,
    "regions": []
  },
  {
    "code": "20b53",
    "name": "Barra da Tijuca",
    "updated_at": "2016-02-09T09:32:14.407898Z",
    "country": "br",
    "parent": "192cd",
    "longitude": -43.349131021215,
    "latitude": -22.9980539359305,
    "regions": []
  },
  {
    "code": "20b52",
    "name": "Rio de Janeiro Centre",
    "updated_at": "2016-02-09T09:32:14.399710Z",
    "country": "br",
    "parent": "192cd",
    "longitude": -43.1829578425624,
    "latitude": -22.9111636086542,
    "regions": []
  },
  {
    "code": "20b51",
    "name": "Ipanema",
    "updated_at": "2016-02-09T09:32:14.423789Z",
    "country": "br",
    "parent": "192cd",
    "longitude": -43.2021030681921,
    "latitude": -22.9842508902159,
    "regions": []
  },
  {
    "code": "20b50",
    "name": "Copacabana",
    "updated_at": "2016-02-09T09:32:14.415861Z",
    "country": "br",
    "parent": "192cd",
    "longitude": -43.186080481827,
    "latitude": -22.9720677717268,
    "regions": []
  },
  {
    "code": "20b4f",
    "name": "Vitoria",
    "updated_at": "2014-09-22T21:46:34.425143Z",
    "country": "br",
    "parent": "192bc",
    "longitude": -38.5250698642233,
    "latitude": -12.9910577189249,
    "regions": []
  },
  {
    "code": "20b4e",
    "name": "Stella Maris ",
    "updated_at": "2014-09-18T06:51:06.108028Z",
    "country": "br",
    "parent": "192bc",
    "longitude": -38.3339272302534,
    "latitude": -12.9399461155939,
    "regions": []
  },
  {
    "code": "20b4d",
    "name": "Patamares",
    "updated_at": "2014-09-13T16:58:14.584040Z",
    "country": "br",
    "parent": "192bc",
    "longitude": -38.4044870280027,
    "latitude": -12.9621725085925,
    "regions": []
  },
  {
    "code": "20b4c",
    "name": "Armacao",
    "updated_at": "2014-09-13T16:58:14.533050Z",
    "country": "br",
    "parent": "192bc",
    "longitude": -38.4313608221968,
    "latitude": -12.9808767578938,
    "regions": []
  },
  {
    "code": "20b4b",
    "name": "Stiep",
    "updated_at": "2014-09-13T16:58:14.339977Z",
    "country": "br",
    "parent": "192bc",
    "longitude": -38.4462584596834,
    "latitude": -12.9821509129271,
    "regions": []
  },
  {
    "code": "20b4a",
    "name": "Itaigara",
    "updated_at": "2014-09-13T16:58:14.269232Z",
    "country": "br",
    "parent": "192bc",
    "longitude": -38.463938410128,
    "latitude": -12.9980630723096,
    "regions": []
  },
  {
    "code": "20b49",
    "name": "Santo Antonio",
    "updated_at": "2014-09-13T16:58:14.235258Z",
    "country": "br",
    "parent": "192bc",
    "longitude": -38.5058419247962,
    "latitude": -12.9666439641317,
    "regions": []
  },
  {
    "code": "20b48",
    "name": "Caminho das Arvore",
    "updated_at": "2016-02-09T09:32:04.650357Z",
    "country": "br",
    "parent": "192bc",
    "longitude": -38.4570714833939,
    "latitude": -12.9812165020276,
    "regions": []
  },
  {
    "code": "20b47",
    "name": "Rio Vermelho",
    "updated_at": "2016-02-09T09:32:13.734710Z",
    "country": "br",
    "parent": "192bc",
    "longitude": -38.4900487424348,
    "latitude": -13.013233146789,
    "regions": []
  },
  {
    "code": "20b46",
    "name": "Pituba ",
    "updated_at": "2016-02-09T09:32:13.742489Z",
    "country": "br",
    "parent": "192bc",
    "longitude": -38.4595648054616,
    "latitude": -13.0059702091759,
    "regions": []
  },
  {
    "code": "20b45",
    "name": "Pelourinho",
    "updated_at": "2016-02-09T09:32:04.692293Z",
    "country": "br",
    "parent": "192bc",
    "longitude": -38.5086089513631,
    "latitude": -12.972743169576,
    "regions": []
  },
  {
    "code": "20b44",
    "name": "Itapuã",
    "updated_at": "2016-02-09T09:32:04.700059Z",
    "country": "br",
    "parent": "192bc",
    "longitude": -38.3584630680423,
    "latitude": -12.9502225555267,
    "regions": []
  },
  {
    "code": "20b43",
    "name": "Ondina",
    "updated_at": "2016-02-09T09:32:04.676654Z",
    "country": "br",
    "parent": "192bc",
    "longitude": -38.5126923254526,
    "latitude": -13.009384568564,
    "regions": []
  },
  {
    "code": "20b42",
    "name": "Barra",
    "updated_at": "2016-02-09T09:32:04.684593Z",
    "country": "br",
    "parent": "192bc",
    "longitude": -38.5287434785958,
    "latitude": -13.0068586370037,
    "regions": []
  },
  {
    "code": "20b41",
    "name": "Amaralina",
    "updated_at": "2016-02-09T09:32:04.668846Z",
    "country": "br",
    "parent": "192bc",
    "longitude": -38.4743487218165,
    "latitude": -13.0134563786956,
    "regions": []
  },
  {
    "code": "20b40",
    "name": "Bras",
    "updated_at": "2016-02-09T09:32:06.610989Z",
    "country": "br",
    "parent": "1926e",
    "longitude": -46.6165685903329,
    "latitude": -23.5397400471281,
    "regions": []
  },
  {
    "code": "20b3f",
    "name": "Bom Retiro",
    "updated_at": "2016-02-09T09:32:11.948588Z",
    "country": "br",
    "parent": "1926e",
    "longitude": -46.6367333780095,
    "latitude": -23.5294843737308,
    "regions": []
  },
  {
    "code": "20b3e",
    "name": "Liberdade",
    "updated_at": "2016-02-09T09:32:11.043615Z",
    "country": "br",
    "parent": "1926e",
    "longitude": -46.6368912198271,
    "latitude": -23.5680030422578,
    "regions": []
  },
  {
    "code": "20b3d",
    "name": "Praia Pereque-Mirim",
    "updated_at": "2014-09-13T16:58:11.012000Z",
    "country": "br",
    "parent": "1921b",
    "longitude": -45.1048966124114,
    "latitude": -23.4871673766883,
    "regions": []
  },
  {
    "code": "20b3c",
    "name": "Praia do Lazaro",
    "updated_at": "2014-09-13T16:58:10.973679Z",
    "country": "br",
    "parent": "1921b",
    "longitude": -45.1330360917513,
    "latitude": -23.5037089635055,
    "regions": []
  },
  {
    "code": "20b3b",
    "name": "Praia da Lagoinha",
    "updated_at": "2014-02-21T19:14:04.109145Z",
    "country": "br",
    "parent": "1921b",
    "longitude": -45.1999860181968,
    "latitude": -23.5166523634154,
    "regions": []
  },
  {
    "code": "20b3a",
    "name": "Praia do Pereque-Acu",
    "updated_at": "2014-09-13T16:58:10.895683Z",
    "country": "br",
    "parent": "1921b",
    "longitude": -45.062664818964,
    "latitude": -23.4215422283468,
    "regions": []
  },
  {
    "code": "20b39",
    "name": "Praia de Itamambuca",
    "updated_at": "2014-09-13T16:58:10.843771Z",
    "country": "br",
    "parent": "1921b",
    "longitude": -45.0094413757324,
    "latitude": -23.4007267194273,
    "regions": []
  },
  {
    "code": "20b38",
    "name": "Praia da Maranduba",
    "updated_at": "2014-09-13T16:58:10.790232Z",
    "country": "br",
    "parent": "1921b",
    "longitude": -45.2309719661282,
    "latitude": -23.5405842303225,
    "regions": []
  },
  {
    "code": "20b37",
    "name": "Praia do Sape",
    "updated_at": "2014-09-13T16:58:10.755441Z",
    "country": "br",
    "parent": "1921b",
    "longitude": -45.2237938476291,
    "latitude": -23.5314488508241,
    "regions": []
  },
  {
    "code": "20b36",
    "name": "Ubatuba Centre",
    "updated_at": "2016-02-09T09:32:13.323130Z",
    "country": "br",
    "parent": "1921b",
    "longitude": -45.073263060024,
    "latitude": -23.4353407184764,
    "regions": []
  },
  {
    "code": "20b35",
    "name": "Praia do Itagua",
    "updated_at": "2014-09-19T21:46:47.605558Z",
    "country": "br",
    "parent": "1921b",
    "longitude": -45.067640718044,
    "latitude": -23.4509293785991,
    "regions": []
  },
  {
    "code": "20b34",
    "name": "Praia do Tenorio",
    "updated_at": "2014-09-13T16:58:10.179290Z",
    "country": "br",
    "parent": "1921b",
    "longitude": -45.0536927122142,
    "latitude": -23.4644624665917,
    "regions": []
  },
  {
    "code": "20b33",
    "name": "Praia Grande",
    "updated_at": "2014-09-13T16:58:10.133557Z",
    "country": "br",
    "parent": "1921b",
    "longitude": -45.0667872358963,
    "latitude": -23.4682363733426,
    "regions": []
  },
  {
    "code": "20b32",
    "name": "Praia da Enseada",
    "updated_at": "2014-09-19T12:29:35.144823Z",
    "country": "br",
    "parent": "1921b",
    "longitude": -45.0907756661054,
    "latitude": -23.4914692908543,
    "regions": []
  },
  {
    "code": "20b31",
    "name": "Praia das Toninhas",
    "updated_at": "2014-09-13T16:58:09.982406Z",
    "country": "br",
    "parent": "1921b",
    "longitude": -45.0773539349728,
    "latitude": -23.4895283334892,
    "regions": []
  },
  {
    "code": "20b30",
    "name": "La Paz City Centre",
    "updated_at": "2014-09-22T21:46:33.756588Z",
    "country": "bo",
    "parent": "191da",
    "longitude": -68.134119777997,
    "latitude": -16.4980776638029,
    "regions": []
  },
  {
    "code": "20b2f",
    "name": "Busanjin-Gu",
    "updated_at": "2016-02-09T09:32:16.217242Z",
    "country": "kr",
    "parent": "19198",
    "longitude": 129.058044269724,
    "latitude": 35.155872089024,
    "regions": []
  },
  {
    "code": "20b2e",
    "name": "Sasang-Gu",
    "updated_at": "2016-02-09T09:32:16.228720Z",
    "country": "kr",
    "parent": "19198",
    "longitude": 128.978465837057,
    "latitude": 35.155026307335,
    "regions": []
  },
  {
    "code": "20b2d",
    "name": "Dongnae-Gu",
    "updated_at": "2016-02-09T09:32:16.236372Z",
    "country": "kr",
    "parent": "19198",
    "longitude": 129.080700610539,
    "latitude": 35.2158832390042,
    "regions": []
  },
  {
    "code": "20b2c",
    "name": "Gwangjin-Gu",
    "updated_at": "2016-02-09T09:32:16.194266Z",
    "country": "kr",
    "parent": "19191",
    "longitude": 127.088784808911,
    "latitude": 37.5452889632793,
    "regions": []
  },
  {
    "code": "20b2b",
    "name": "Seongdong-Gu",
    "updated_at": "2016-02-09T09:32:16.201915Z",
    "country": "kr",
    "parent": "19191",
    "longitude": 127.042386003814,
    "latitude": 37.5608038336945,
    "regions": []
  },
  {
    "code": "20b2a",
    "name": "Gangdong-Gu",
    "updated_at": "2016-02-09T09:32:16.209577Z",
    "country": "kr",
    "parent": "19191",
    "longitude": 127.135434765369,
    "latitude": 37.5393591115942,
    "regions": []
  },
  {
    "code": "20b29",
    "name": "Dongjak-Gu",
    "updated_at": "2016-02-09T09:32:08.246315Z",
    "country": "kr",
    "parent": "19191",
    "longitude": 126.964186382899,
    "latitude": 37.4988184745763,
    "regions": []
  },
  {
    "code": "20b28",
    "name": "Geumcheon-Gu",
    "updated_at": "2016-02-09T09:32:08.254376Z",
    "country": "kr",
    "parent": "19191",
    "longitude": 126.895354539156,
    "latitude": 37.470461332032,
    "regions": []
  },
  {
    "code": "20b27",
    "name": "Yongsan-Gu",
    "updated_at": "2016-02-09T09:32:10.823817Z",
    "country": "kr",
    "parent": "19191",
    "longitude": 126.982410549385,
    "latitude": 37.5394103036604,
    "regions": []
  },
  {
    "code": "20b26",
    "name": "Seocho-Gu",
    "updated_at": "2016-02-09T09:32:10.839324Z",
    "country": "kr",
    "parent": "19191",
    "longitude": 127.014732892566,
    "latitude": 37.4935473859346,
    "regions": []
  },
  {
    "code": "20b25",
    "name": "Jongno-Gu",
    "updated_at": "2016-02-09T09:32:16.178311Z",
    "country": "kr",
    "parent": "19191",
    "longitude": 126.991226408176,
    "latitude": 37.5756359757261,
    "regions": []
  },
  {
    "code": "20b24",
    "name": "Jung-Gu",
    "updated_at": "2016-02-09T09:32:10.889359Z",
    "country": "kr",
    "parent": "19191",
    "longitude": 126.989073618305,
    "latitude": 37.5614539176729,
    "regions": []
  },
  {
    "code": "20b23",
    "name": "Mapo-Gu",
    "updated_at": "2016-02-09T09:32:16.147074Z",
    "country": "kr",
    "parent": "19191",
    "longitude": 126.925238848703,
    "latitude": 37.5556468675849,
    "regions": []
  },
  {
    "code": "20b22",
    "name": "Seodaemun-Gu",
    "updated_at": "2016-02-09T09:32:10.467928Z",
    "country": "kr",
    "parent": "19191",
    "longitude": 126.937843821148,
    "latitude": 37.5600465546238,
    "regions": []
  },
  {
    "code": "20b21",
    "name": "Songpa-Gu",
    "updated_at": "2016-02-09T09:32:16.155094Z",
    "country": "kr",
    "parent": "19191",
    "longitude": 127.102022346656,
    "latitude": 37.512505378702,
    "regions": []
  },
  {
    "code": "20b20",
    "name": "Yeongdeungpo-Gu",
    "updated_at": "2016-02-09T09:32:16.170265Z",
    "country": "kr",
    "parent": "19191",
    "longitude": 126.910438249966,
    "latitude": 37.5232531168559,
    "regions": []
  },
  {
    "code": "20b1f",
    "name": "Guro-Gu",
    "updated_at": "2016-02-09T09:32:12.024840Z",
    "country": "kr",
    "parent": "19191",
    "longitude": 126.869467211897,
    "latitude": 37.4957427126569,
    "regions": []
  },
  {
    "code": "20b1e",
    "name": "Gangseo-Gu",
    "updated_at": "2016-02-09T09:32:07.574208Z",
    "country": "kr",
    "parent": "19191",
    "longitude": 126.843228138579,
    "latitude": 37.54344431907,
    "regions": []
  },
  {
    "code": "20b1d",
    "name": "Gangnam-Gu",
    "updated_at": "2016-02-09T09:32:07.565026Z",
    "country": "kr",
    "parent": "19191",
    "longitude": 127.03982395498,
    "latitude": 37.5108437783847,
    "regions": []
  },
  {
    "code": "20b1c",
    "name": "Dongdaemun-Gu",
    "updated_at": "2016-02-09T09:32:07.592820Z",
    "country": "kr",
    "parent": "19191",
    "longitude": 127.051780546761,
    "latitude": 37.5758218264634,
    "regions": []
  },
  {
    "code": "20b1b",
    "name": "Kaleici",
    "updated_at": "2016-02-09T09:32:07.583618Z",
    "country": "tr",
    "parent": "1913b",
    "longitude": 30.7055789178921,
    "latitude": 36.8834366813958,
    "regions": []
  },
  {
    "code": "20b1a",
    "name": "Beykoz",
    "updated_at": "2016-02-09T09:32:07.600471Z",
    "country": "tr",
    "parent": "19064",
    "longitude": 29.0911684458118,
    "latitude": 41.095467126448,
    "regions": []
  },
  {
    "code": "20b19",
    "name": "Zeytinburnu",
    "updated_at": "2016-02-09T09:32:13.882109Z",
    "country": "tr",
    "parent": "19064",
    "longitude": 28.906527856781,
    "latitude": 40.9934599719796,
    "regions": []
  },
  {
    "code": "20b18",
    "name": "Kucukcekmece",
    "updated_at": "2016-02-09T09:32:07.702317Z",
    "country": "tr",
    "parent": "19064",
    "longitude": 28.7907317259524,
    "latitude": 41.0154580449321,
    "regions": []
  },
  {
    "code": "20b17",
    "name": "Fatih",
    "updated_at": "2016-02-09T09:32:07.661352Z",
    "country": "tr",
    "parent": "19064",
    "longitude": 28.9680606605682,
    "latitude": 41.0082100011439,
    "regions": []
  },
  {
    "code": "20b16",
    "name": "Eyup",
    "updated_at": "2016-02-09T09:32:07.650009Z",
    "country": "tr",
    "parent": "19064",
    "longitude": 28.9327218981668,
    "latitude": 41.0481556550108,
    "regions": []
  },
  {
    "code": "20b15",
    "name": "Bakirkoy",
    "updated_at": "2016-02-09T09:32:07.679116Z",
    "country": "tr",
    "parent": "19064",
    "longitude": 28.8549150762328,
    "latitude": 40.9764976688589,
    "regions": []
  },
  {
    "code": "20b14",
    "name": "Bahcelievler",
    "updated_at": "2016-02-09T09:32:07.670931Z",
    "country": "tr",
    "parent": "19064",
    "longitude": 28.8357457102437,
    "latitude": 41.0002287943023,
    "regions": []
  },
  {
    "code": "20b13",
    "name": "Bagcilar",
    "updated_at": "2016-02-09T09:32:13.163948Z",
    "country": "tr",
    "parent": "19064",
    "longitude": 28.822864368244,
    "latitude": 41.037825117916,
    "regions": []
  },
  {
    "code": "20b12",
    "name": "Beyoglu",
    "updated_at": "2016-02-09T09:32:13.874179Z",
    "country": "tr",
    "parent": "19064",
    "longitude": 28.9800266178646,
    "latitude": 41.0338540672648,
    "regions": []
  },
  {
    "code": "20b11",
    "name": "Umraniye",
    "updated_at": "2016-02-09T09:32:07.694357Z",
    "country": "tr",
    "parent": "19064",
    "longitude": 29.1214124665618,
    "latitude": 41.0197697971084,
    "regions": []
  },
  {
    "code": "20b10",
    "name": "Uskudar",
    "updated_at": "2016-02-09T09:32:07.686731Z",
    "country": "tr",
    "parent": "19064",
    "longitude": 29.0381806552834,
    "latitude": 41.0230241528396,
    "regions": []
  },
  {
    "code": "20b0f",
    "name": "Kartal",
    "updated_at": "2016-02-09T09:32:17.308920Z",
    "country": "tr",
    "parent": "19064",
    "longitude": 29.1990101337433,
    "latitude": 40.9056645807471,
    "regions": []
  },
  {
    "code": "20b0e",
    "name": "Maltepe",
    "updated_at": "2016-02-09T09:32:07.505802Z",
    "country": "tr",
    "parent": "19064",
    "longitude": 29.1383536823535,
    "latitude": 40.9371955123753,
    "regions": []
  },
  {
    "code": "20b0d",
    "name": "Atasehir",
    "updated_at": "2016-02-09T09:32:07.520473Z",
    "country": "tr",
    "parent": "19064",
    "longitude": 29.1162105877508,
    "latitude": 40.982823205045,
    "regions": []
  },
  {
    "code": "20b0c",
    "name": "Sisli",
    "updated_at": "2016-02-09T09:32:12.769794Z",
    "country": "tr",
    "parent": "19064",
    "longitude": 28.9878267317395,
    "latitude": 41.0515985909138,
    "regions": []
  },
  {
    "code": "20b0b",
    "name": "Besiktas",
    "updated_at": "2016-02-09T09:32:12.777810Z",
    "country": "tr",
    "parent": "19064",
    "longitude": 29.0163591454928,
    "latitude": 41.0547902018043,
    "regions": []
  },
  {
    "code": "20b0a",
    "name": "Kadikoy",
    "updated_at": "2016-02-09T09:32:12.761764Z",
    "country": "tr",
    "parent": "19064",
    "longitude": 29.0376842387155,
    "latitude": 40.9861720001622,
    "regions": []
  },
  {
    "code": "20b09",
    "name": "Gaziemir",
    "updated_at": "2014-09-18T06:50:59.517975Z",
    "country": "tr",
    "parent": "19063",
    "longitude": 27.1408396363222,
    "latitude": 38.3094964734032,
    "regions": []
  },
  {
    "code": "20b08",
    "name": "Bornova",
    "updated_at": "2014-09-18T06:50:59.506334Z",
    "country": "tr",
    "parent": "19063",
    "longitude": 27.2144754186229,
    "latitude": 38.4495004525976,
    "regions": []
  },
  {
    "code": "20b07",
    "name": "Balcova",
    "updated_at": "2014-09-13T16:57:58.858486Z",
    "country": "tr",
    "parent": "19063",
    "longitude": 27.0423178911187,
    "latitude": 38.3945320325183,
    "regions": []
  },
  {
    "code": "20b06",
    "name": "Karsiyaka",
    "updated_at": "2014-09-18T06:50:59.482669Z",
    "country": "tr",
    "parent": "19063",
    "longitude": 27.0943824229895,
    "latitude": 38.4724106162126,
    "regions": []
  },
  {
    "code": "20b05",
    "name": "Konak",
    "updated_at": "2014-09-18T06:50:59.442744Z",
    "country": "tr",
    "parent": "19063",
    "longitude": 27.1410331446204,
    "latitude": 38.4260644145295,
    "regions": []
  },
  {
    "code": "20b04",
    "name": "Camyuva",
    "updated_at": "2016-02-09T09:32:12.728617Z",
    "country": "tr",
    "parent": "19039",
    "longitude": 30.5616129160928,
    "latitude": 36.5535186044347,
    "regions": []
  },
  {
    "code": "20b03",
    "name": "Kiris",
    "updated_at": "2016-02-09T09:32:12.744961Z",
    "country": "tr",
    "parent": "19039",
    "longitude": 30.5783707579221,
    "latitude": 36.5727993868451,
    "regions": []
  },
  {
    "code": "20b02",
    "name": "Saadiyat Island",
    "updated_at": "2016-02-09T09:32:12.752846Z",
    "country": "ae",
    "parent": "18ee7",
    "longitude": 54.4317519664764,
    "latitude": 24.5406038388012,
    "regions": []
  },
  {
    "code": "20b01",
    "name": "Yas Island",
    "updated_at": "2016-02-09T09:32:12.736933Z",
    "country": "ae",
    "parent": "18ee7",
    "longitude": 54.5992923208645,
    "latitude": 24.4664248815129,
    "regions": []
  },
  {
    "code": "20b00",
    "name": "Dubai Silicon Oasis",
    "updated_at": "2014-09-13T16:57:56.499282Z",
    "country": "ae",
    "parent": "18edc",
    "longitude": 55.3887346386909,
    "latitude": 25.1245572209111,
    "regions": []
  },
  {
    "code": "20aff",
    "name": "Dubai Investment Park",
    "updated_at": "2016-02-09T09:32:05.339724Z",
    "country": "ae",
    "parent": "18edc",
    "longitude": 55.161849707365,
    "latitude": 25.0053057912757,
    "regions": []
  },
  {
    "code": "20afe",
    "name": "Dubai Internet City ",
    "updated_at": "2016-02-09T09:32:16.063624Z",
    "country": "ae",
    "parent": "18edc",
    "longitude": 55.1676773652434,
    "latitude": 25.1024819561593,
    "regions": []
  },
  {
    "code": "20afd",
    "name": "Tecom",
    "updated_at": "2016-02-09T09:32:05.331962Z",
    "country": "ae",
    "parent": "18edc",
    "longitude": 55.1762193379545,
    "latitude": 25.0975890936265,
    "regions": []
  },
  {
    "code": "20afc",
    "name": "Jumeirah Lake Towers",
    "updated_at": "2016-02-09T09:32:05.323794Z",
    "country": "ae",
    "parent": "18edc",
    "longitude": 55.1437998420224,
    "latitude": 25.0715193799216,
    "regions": []
  },
  {
    "code": "20afb",
    "name": "Jumeirah Beach Residence",
    "updated_at": "2016-02-09T09:32:05.315449Z",
    "country": "ae",
    "parent": "18edc",
    "longitude": 55.1363075763327,
    "latitude": 25.0785571528857,
    "regions": []
  },
  {
    "code": "20afa",
    "name": "Downtown Dubai",
    "updated_at": "2016-02-09T09:32:16.122991Z",
    "country": "ae",
    "parent": "18edc",
    "longitude": 55.275600280844,
    "latitude": 25.1936823635504,
    "regions": []
  },
  {
    "code": "20af9",
    "name": "Discovery Gardens",
    "updated_at": "2016-02-09T09:32:15.883532Z",
    "country": "ae",
    "parent": "18edc",
    "longitude": 55.1267264038324,
    "latitude": 25.0470861687422,
    "regions": []
  },
  {
    "code": "20af8",
    "name": "Trade Centre 2",
    "updated_at": "2016-02-09T09:32:15.875064Z",
    "country": "ae",
    "parent": "18edc",
    "longitude": 55.2804102301598,
    "latitude": 25.214554376175,
    "regions": []
  },
  {
    "code": "20af7",
    "name": "Trade Centre 1",
    "updated_at": "2016-02-09T09:32:16.004779Z",
    "country": "ae",
    "parent": "18edc",
    "longitude": 55.2802492976189,
    "latitude": 25.2200852672295,
    "regions": []
  },
  {
    "code": "20af6",
    "name": "Al Wasl",
    "updated_at": "2016-02-09T09:32:14.835905Z",
    "country": "ae",
    "parent": "18edc",
    "longitude": 55.26158452034,
    "latitude": 25.1943354149238,
    "regions": []
  },
  {
    "code": "20af5",
    "name": "Al Safa",
    "updated_at": "2016-02-09T09:32:05.307098Z",
    "country": "ae",
    "parent": "18edc",
    "longitude": 55.2548629045486,
    "latitude": 25.1888671526437,
    "regions": []
  },
  {
    "code": "20af4",
    "name": "Al Qusais",
    "updated_at": "2016-02-09T09:32:05.296884Z",
    "country": "ae",
    "parent": "18edc",
    "longitude": 55.3739378458244,
    "latitude": 25.2780124020742,
    "regions": []
  },
  {
    "code": "20af3",
    "name": "Dubai Festival City",
    "updated_at": "2016-02-09T09:32:05.288596Z",
    "country": "ae",
    "parent": "18edc",
    "longitude": 55.3551898531474,
    "latitude": 25.2238783003962,
    "regions": []
  },
  {
    "code": "20af2",
    "name": "The Greens",
    "updated_at": "2016-02-09T09:32:05.280399Z",
    "country": "ae",
    "parent": "18edc",
    "longitude": 55.1731472415329,
    "latitude": 25.0916205765172,
    "regions": []
  },
  {
    "code": "20af1",
    "name": "Al Barsha",
    "updated_at": "2016-02-09T09:32:05.272272Z",
    "country": "ae",
    "parent": "18edc",
    "longitude": 55.1991502408172,
    "latitude": 25.1137933448275,
    "regions": []
  },
  {
    "code": "20af0",
    "name": "Jadaf",
    "updated_at": "2016-02-09T09:32:05.260166Z",
    "country": "ae",
    "parent": "18edc",
    "longitude": 55.3301471868093,
    "latitude": 25.2218981261858,
    "regions": []
  },
  {
    "code": "20aef",
    "name": "Palm Jumeirah",
    "updated_at": "2016-02-09T09:32:07.101530Z",
    "country": "ae",
    "parent": "18edc",
    "longitude": 55.137861757143,
    "latitude": 25.1132767520254,
    "regions": []
  },
  {
    "code": "20aee",
    "name": "Jebel Ali",
    "updated_at": "2016-02-09T09:32:07.081552Z",
    "country": "ae",
    "parent": "18edc",
    "longitude": 55.0491292222687,
    "latitude": 24.9826546868909,
    "regions": []
  },
  {
    "code": "20aed",
    "name": "Garhoud",
    "updated_at": "2016-02-09T09:32:07.093411Z",
    "country": "ae",
    "parent": "18edc",
    "longitude": 55.345468595624,
    "latitude": 25.2463929310156,
    "regions": []
  },
  {
    "code": "20aec",
    "name": "Jumeira",
    "updated_at": "2016-02-09T09:32:07.065263Z",
    "country": "ae",
    "parent": "18edc",
    "longitude": 55.2621782200624,
    "latitude": 25.2311289811938,
    "regions": []
  },
  {
    "code": "20aeb",
    "name": "Al Sufouh",
    "updated_at": "2016-02-09T09:32:07.073388Z",
    "country": "ae",
    "parent": "18edc",
    "longitude": 55.1596165413006,
    "latitude": 25.1009390729423,
    "regions": []
  },
  {
    "code": "20aea",
    "name": "Umm Suqeim",
    "updated_at": "2016-02-09T09:32:07.057138Z",
    "country": "ae",
    "parent": "18edc",
    "longitude": 55.1967273652554,
    "latitude": 25.1472458927974,
    "regions": []
  },
  {
    "code": "20ae9",
    "name": "Deira",
    "updated_at": "2016-02-09T09:32:07.167772Z",
    "country": "ae",
    "parent": "18edc",
    "longitude": 55.3175973835368,
    "latitude": 25.2665025820554,
    "regions": []
  },
  {
    "code": "20ae8",
    "name": "Bur Dubai",
    "updated_at": "2016-02-09T09:32:07.176399Z",
    "country": "ae",
    "parent": "18edc",
    "longitude": 55.295007214499,
    "latitude": 25.2527364072248,
    "regions": []
  },
  {
    "code": "20ae7",
    "name": "Hoora ",
    "updated_at": "2016-02-09T09:32:07.159627Z",
    "country": "bh",
    "parent": "18ed4",
    "longitude": 50.5964464656458,
    "latitude": 26.2320363111809,
    "regions": []
  },
  {
    "code": "20ae6",
    "name": "Amwaj Island ",
    "updated_at": "2016-02-09T09:32:11.002980Z",
    "country": "bh",
    "parent": "18ed4",
    "longitude": 50.6723818928003,
    "latitude": 26.2871710292342,
    "regions": []
  },
  {
    "code": "20ae5",
    "name": "Diplomatic Area",
    "updated_at": "2016-02-09T09:32:07.143637Z",
    "country": "bh",
    "parent": "18ed4",
    "longitude": 50.5896800011396,
    "latitude": 26.241490946912,
    "regions": []
  },
  {
    "code": "20ae4",
    "name": "Al Seef ",
    "updated_at": "2016-02-09T09:32:07.151837Z",
    "country": "bh",
    "parent": "18ed4",
    "longitude": 50.5372901054425,
    "latitude": 26.2373513518549,
    "regions": []
  },
  {
    "code": "20ae3",
    "name": "Juffair",
    "updated_at": "2016-02-09T09:32:07.123697Z",
    "country": "bh",
    "parent": "18ed4",
    "longitude": 50.6084138525301,
    "latitude": 26.2158804646999,
    "regions": []
  },
  {
    "code": "20ae2",
    "name": "West Bay",
    "updated_at": "2016-02-09T09:32:07.131605Z",
    "country": "qa",
    "parent": "18ecf",
    "longitude": 51.5301582019312,
    "latitude": 25.3348083290693,
    "regions": []
  },
  {
    "code": "20ae1",
    "name": "Shuweikh",
    "updated_at": "2016-02-09T09:32:07.109379Z",
    "country": "kw",
    "parent": "18ea1",
    "longitude": 47.9142683744431,
    "latitude": 29.3476138986686,
    "regions": []
  },
  {
    "code": "20ae0",
    "name": "Farwaniya",
    "updated_at": "2016-02-09T09:32:10.995119Z",
    "country": "kw",
    "parent": "18ea1",
    "longitude": 47.9574209103375,
    "latitude": 29.2725216965325,
    "regions": []
  },
  {
    "code": "20adf",
    "name": "Kuwait City District",
    "updated_at": "2016-02-09T09:32:15.850468Z",
    "country": "kw",
    "parent": "18ea1",
    "longitude": 47.988459233137,
    "latitude": 29.372489181161,
    "regions": []
  },
  {
    "code": "20ade",
    "name": "Hawally",
    "updated_at": "2016-02-09T09:32:08.631116Z",
    "country": "kw",
    "parent": "18ea1",
    "longitude": 48.0647491814667,
    "latitude": 29.335183551782,
    "regions": []
  },
  {
    "code": "20add",
    "name": "Palaio Faliro",
    "updated_at": "2014-09-18T06:50:53.669039Z",
    "country": "gr",
    "parent": "18df3",
    "longitude": 23.6954084504533,
    "latitude": 37.9332881323898,
    "regions": []
  },
  {
    "code": "20adc",
    "name": "Voula",
    "updated_at": "2016-02-09T09:32:15.832194Z",
    "country": "gr",
    "parent": "18df3",
    "longitude": 23.7546060835555,
    "latitude": 37.8492289633539,
    "regions": []
  },
  {
    "code": "20adb",
    "name": "Pagkrati",
    "updated_at": "2016-02-09T09:32:15.823890Z",
    "country": "gr",
    "parent": "18df3",
    "longitude": 23.7442163433304,
    "latitude": 37.9685784118719,
    "regions": []
  },
  {
    "code": "20ada",
    "name": "Metaxourgeio",
    "updated_at": "2016-02-09T09:32:15.842076Z",
    "country": "gr",
    "parent": "18df3",
    "longitude": 23.7221512885423,
    "latitude": 37.9857920562841,
    "regions": []
  },
  {
    "code": "20ad9",
    "name": "Koukaki",
    "updated_at": "2016-02-09T09:32:15.815742Z",
    "country": "gr",
    "parent": "18df3",
    "longitude": 23.7261048316081,
    "latitude": 37.9666807722024,
    "regions": []
  },
  {
    "code": "20ad8",
    "name": "Kerameikos",
    "updated_at": "2016-02-09T09:32:15.807652Z",
    "country": "gr",
    "parent": "18df3",
    "longitude": 23.7209551089934,
    "latitude": 37.9821145344168,
    "regions": []
  },
  {
    "code": "20ad7",
    "name": "Neos Kosmos",
    "updated_at": "2016-02-09T09:32:15.787088Z",
    "country": "gr",
    "parent": "18df3",
    "longitude": 23.7229632470248,
    "latitude": 37.9576274381165,
    "regions": []
  },
  {
    "code": "20ad6",
    "name": "Psiri",
    "updated_at": "2016-02-09T09:32:15.779080Z",
    "country": "gr",
    "parent": "18df3",
    "longitude": 23.7243599674147,
    "latitude": 37.9787228830618,
    "regions": []
  },
  {
    "code": "20ad5",
    "name": "Glyfada",
    "updated_at": "2016-02-09T09:32:11.916491Z",
    "country": "gr",
    "parent": "18df3",
    "longitude": 23.7470046610691,
    "latitude": 37.8647920216842,
    "regions": []
  },
  {
    "code": "20ad4",
    "name": "Plaka",
    "updated_at": "2016-02-09T09:32:15.799531Z",
    "country": "gr",
    "parent": "18df3",
    "longitude": 23.7309619673269,
    "latitude": 37.9732393423298,
    "regions": []
  },
  {
    "code": "20ad3",
    "name": "Piskopiano",
    "updated_at": "2016-02-09T09:32:12.695681Z",
    "country": "gr",
    "parent": "18cae",
    "longitude": 25.3846502006929,
    "latitude": 35.3087300340186,
    "regions": []
  },
  {
    "code": "20ad2",
    "name": "Koutouloufari",
    "updated_at": "2016-02-09T09:32:08.577173Z",
    "country": "gr",
    "parent": "18cae",
    "longitude": 25.3931467920561,
    "latitude": 35.3065122016478,
    "regions": []
  },
  {
    "code": "20ad1",
    "name": "Panorama",
    "updated_at": "2016-02-09T09:32:15.771055Z",
    "country": "gr",
    "parent": "18a8b",
    "longitude": 23.0316951870918,
    "latitude": 40.5902840160411,
    "regions": []
  },
  {
    "code": "20ad0",
    "name": "Stavroupoli",
    "updated_at": "2016-02-09T09:32:15.763342Z",
    "country": "gr",
    "parent": "18a8b",
    "longitude": 22.9316827654839,
    "latitude": 40.6584711610035,
    "regions": []
  },
  {
    "code": "20acf",
    "name": "Kalamaria",
    "updated_at": "2016-02-09T09:32:13.171978Z",
    "country": "gr",
    "parent": "18a8b",
    "longitude": 22.9480522871017,
    "latitude": 40.5755601332547,
    "regions": []
  },
  {
    "code": "20ace",
    "name": "Lozenets",
    "updated_at": "2016-02-09T09:32:13.214878Z",
    "country": "bg",
    "parent": "18905",
    "longitude": 23.3256434598963,
    "latitude": 42.6760448225992,
    "regions": []
  },
  {
    "code": "20acd",
    "name": "Centrum",
    "updated_at": "2016-02-09T09:32:07.537184Z",
    "country": "bg",
    "parent": "18905",
    "longitude": 23.3233456110055,
    "latitude": 42.6927743160199,
    "regions": []
  },
  {
    "code": "20acc",
    "name": "23. Soroksár",
    "updated_at": "2016-02-09T09:32:04.224520Z",
    "country": "hu",
    "parent": "18719",
    "longitude": 19.1181067778839,
    "latitude": 47.4043902427208,
    "regions": []
  },
  {
    "code": "20acb",
    "name": "22. Budafok - Tétény",
    "updated_at": "2016-02-09T09:32:13.058150Z",
    "country": "hu",
    "parent": "18719",
    "longitude": 19.0051008461478,
    "latitude": 47.4191123707712,
    "regions": []
  },
  {
    "code": "20aca",
    "name": "21. Csepel",
    "updated_at": "2016-02-09T09:32:07.529140Z",
    "country": "hu",
    "parent": "18719",
    "longitude": 19.0709911286831,
    "latitude": 47.4139854701489,
    "regions": []
  },
  {
    "code": "20ac9",
    "name": "20. Pesterzsébet",
    "updated_at": "2016-02-09T09:32:03.936560Z",
    "country": "hu",
    "parent": "18719",
    "longitude": 19.1158096112818,
    "latitude": 47.4296418596466,
    "regions": []
  },
  {
    "code": "20ac8",
    "name": "19. Kispest",
    "updated_at": "2016-02-09T09:32:03.944913Z",
    "country": "hu",
    "parent": "18719",
    "longitude": 19.1417276859283,
    "latitude": 47.4557711869249,
    "regions": []
  },
  {
    "code": "20ac7",
    "name": "18. Pestszentlőrinc - Pestszentimre",
    "updated_at": "2016-02-09T09:32:07.858847Z",
    "country": "hu",
    "parent": "18719",
    "longitude": 19.177558749975,
    "latitude": 47.4435526362537,
    "regions": []
  },
  {
    "code": "20ac6",
    "name": "17. Rákosmente",
    "updated_at": "2016-02-09T09:32:03.613591Z",
    "country": "hu",
    "parent": "18719",
    "longitude": 19.24715043846,
    "latitude": 47.4765125966609,
    "regions": []
  },
  {
    "code": "20ac5",
    "name": "16. Árpádföld - Mátyásföld",
    "updated_at": "2016-02-09T09:32:04.067866Z",
    "country": "hu",
    "parent": "18719",
    "longitude": 19.1792284117805,
    "latitude": 47.513499972558,
    "regions": []
  },
  {
    "code": "20ac4",
    "name": "15. Rákospalota",
    "updated_at": "2016-02-09T09:32:08.014183Z",
    "country": "hu",
    "parent": "18719",
    "longitude": 19.1239626776021,
    "latitude": 47.5480696738737,
    "regions": []
  },
  {
    "code": "20ac3",
    "name": "14. Zugló",
    "updated_at": "2016-02-09T09:32:03.953103Z",
    "country": "hu",
    "parent": "18719",
    "longitude": 19.1111157680887,
    "latitude": 47.5144229911209,
    "regions": []
  },
  {
    "code": "20ac2",
    "name": "13. Angyalföld",
    "updated_at": "2016-02-09T09:32:03.961910Z",
    "country": "hu",
    "parent": "18719",
    "longitude": 19.0611504788895,
    "latitude": 47.5218930953563,
    "regions": []
  },
  {
    "code": "20ac1",
    "name": "12. Hegyvidék",
    "updated_at": "2016-02-09T09:32:03.600024Z",
    "country": "hu",
    "parent": "18719",
    "longitude": 18.9973095613529,
    "latitude": 47.4958592874795,
    "regions": []
  },
  {
    "code": "20ac0",
    "name": "11. Újbuda",
    "updated_at": "2016-02-09T09:32:07.850795Z",
    "country": "hu",
    "parent": "18719",
    "longitude": 19.0352505253032,
    "latitude": 47.4741968905736,
    "regions": []
  },
  {
    "code": "20abf",
    "name": "10. Kőbánya",
    "updated_at": "2016-02-09T09:32:12.325905Z",
    "country": "hu",
    "parent": "18719",
    "longitude": 19.1387027732703,
    "latitude": 47.4834667274228,
    "regions": []
  },
  {
    "code": "20abe",
    "name": "09. Ferencváros",
    "updated_at": "2016-02-09T09:32:12.317730Z",
    "country": "hu",
    "parent": "18719",
    "longitude": 19.0708435103638,
    "latitude": 47.4819672220339,
    "regions": []
  },
  {
    "code": "20abd",
    "name": "08. Józsefváros",
    "updated_at": "2016-02-09T09:32:12.308228Z",
    "country": "hu",
    "parent": "18719",
    "longitude": 19.0736354931493,
    "latitude": 47.4909417080772,
    "regions": []
  },
  {
    "code": "20abc",
    "name": "07. Erzsébetváros",
    "updated_at": "2016-02-09T09:32:12.350909Z",
    "country": "hu",
    "parent": "18719",
    "longitude": 19.0668282602356,
    "latitude": 47.4996266250246,
    "regions": []
  },
  {
    "code": "20abb",
    "name": "06. Terézváros",
    "updated_at": "2016-02-09T09:32:12.342930Z",
    "country": "hu",
    "parent": "18719",
    "longitude": 19.061158792512,
    "latitude": 47.5049561695087,
    "regions": []
  },
  {
    "code": "20aba",
    "name": "05. Belváros - Lipótváros",
    "updated_at": "2016-02-09T09:32:12.334624Z",
    "country": "hu",
    "parent": "18719",
    "longitude": 19.0534873785136,
    "latitude": 47.4963952400973,
    "regions": []
  },
  {
    "code": "20ab9",
    "name": "04. Újpest",
    "updated_at": "2016-02-09T09:32:12.299499Z",
    "country": "hu",
    "parent": "18719",
    "longitude": 19.0905022138002,
    "latitude": 47.5794419652746,
    "regions": []
  },
  {
    "code": "20ab8",
    "name": "03. Óbuda",
    "updated_at": "2016-02-09T09:32:12.291360Z",
    "country": "hu",
    "parent": "18719",
    "longitude": 19.0492445041979,
    "latitude": 47.5696042351566,
    "regions": []
  },
  {
    "code": "20ab7",
    "name": "02. Rózsadomb",
    "updated_at": "2016-02-09T09:32:12.256461Z",
    "country": "hu",
    "parent": "18719",
    "longitude": 19.0169174956688,
    "latitude": 47.5173578406981,
    "regions": []
  },
  {
    "code": "20ab6",
    "name": "01. Budavár",
    "updated_at": "2016-02-09T09:32:12.247823Z",
    "country": "hu",
    "parent": "18719",
    "longitude": 19.0348416791136,
    "latitude": 47.5003596130388,
    "regions": []
  },
  {
    "code": "20ab5",
    "name": "Recoleta",
    "updated_at": "2014-09-13T16:57:25.275158Z",
    "country": "cl",
    "parent": "18491",
    "longitude": -70.6429204442474,
    "latitude": -33.4320014229239,
    "regions": []
  },
  {
    "code": "20ab4",
    "name": "Vitacura",
    "updated_at": "2016-02-09T09:32:12.238959Z",
    "country": "cl",
    "parent": "18491",
    "longitude": -70.5846316262929,
    "latitude": -33.3986599819571,
    "regions": []
  },
  {
    "code": "20ab3",
    "name": "Las Condes",
    "updated_at": "2016-02-09T09:32:12.281196Z",
    "country": "cl",
    "parent": "18491",
    "longitude": -70.582542275196,
    "latitude": -33.4109390806314,
    "regions": []
  },
  {
    "code": "20ab2",
    "name": "Santiago City Centre",
    "updated_at": "2016-02-09T09:32:12.272852Z",
    "country": "cl",
    "parent": "18491",
    "longitude": -70.6495095358812,
    "latitude": -33.4422655320015,
    "regions": []
  },
  {
    "code": "20ab1",
    "name": "Providencia",
    "updated_at": "2016-02-09T09:32:09.474438Z",
    "country": "cl",
    "parent": "18491",
    "longitude": -70.6166224281521,
    "latitude": -33.4286448360065,
    "regions": []
  },
  {
    "code": "20ab0",
    "name": "Renaca",
    "updated_at": "2014-09-18T06:50:47.894935Z",
    "country": "cl",
    "parent": "18480",
    "longitude": -71.5416970413969,
    "latitude": -32.9668804485933,
    "regions": []
  },
  {
    "code": "20aaf",
    "name": "Carrasco",
    "updated_at": "2014-09-18T06:50:47.709195Z",
    "country": "uy",
    "parent": "1845e",
    "longitude": -56.0508947869598,
    "latitude": -34.8827829023106,
    "regions": []
  },
  {
    "code": "20aae",
    "name": "Buceo",
    "updated_at": "2014-09-18T06:50:47.697900Z",
    "country": "uy",
    "parent": "1845e",
    "longitude": -56.1318080047187,
    "latitude": -34.9041803528433,
    "regions": []
  },
  {
    "code": "20aad",
    "name": "Pocitos",
    "updated_at": "2014-09-13T16:57:23.594764Z",
    "country": "uy",
    "parent": "1845e",
    "longitude": -56.1504503541322,
    "latitude": -34.9182438947506,
    "regions": []
  },
  {
    "code": "20aac",
    "name": "Punta Carretas",
    "updated_at": "2014-09-13T16:57:23.441952Z",
    "country": "uy",
    "parent": "1845e",
    "longitude": -56.1570422244704,
    "latitude": -34.9210840542316,
    "regions": []
  },
  {
    "code": "20aab",
    "name": "Parque Rodo",
    "updated_at": "2014-09-18T06:50:47.685950Z",
    "country": "uy",
    "parent": "1845e",
    "longitude": -56.1687451601028,
    "latitude": -34.9142150759817,
    "regions": []
  },
  {
    "code": "20aaa",
    "name": "Barrio Sur",
    "updated_at": "2014-09-13T16:57:23.243413Z",
    "country": "uy",
    "parent": "1845e",
    "longitude": -56.1859777819544,
    "latitude": -34.9105111549361,
    "regions": []
  },
  {
    "code": "20aa9",
    "name": "Tres Cruces",
    "updated_at": "2014-09-19T12:29:19.473388Z",
    "country": "uy",
    "parent": "1845e",
    "longitude": -56.1694218591968,
    "latitude": -34.8954863724904,
    "regions": []
  },
  {
    "code": "20aa8",
    "name": "Montevideo Centro",
    "updated_at": "2014-09-13T16:57:23.038603Z",
    "country": "uy",
    "parent": "1845e",
    "longitude": -56.1907854314989,
    "latitude": -34.9056439079287,
    "regions": []
  },
  {
    "code": "20aa7",
    "name": "Ciudad Vieja",
    "updated_at": "2014-09-18T06:50:47.678359Z",
    "country": "uy",
    "parent": "1845e",
    "longitude": -56.2053715653272,
    "latitude": -34.9073990380658,
    "regions": []
  },
  {
    "code": "20aa6",
    "name": "La Barra",
    "updated_at": "2014-09-13T16:57:22.778512Z",
    "country": "uy",
    "parent": "18458",
    "longitude": -54.8547006930624,
    "latitude": -34.9121822394349,
    "regions": []
  },
  {
    "code": "20aa5",
    "name": "Rincon del Indio",
    "updated_at": "2014-09-13T16:57:22.659997Z",
    "country": "uy",
    "parent": "18458",
    "longitude": -54.8922440037131,
    "latitude": -34.9243344458556,
    "regions": []
  },
  {
    "code": "20aa4",
    "name": "San Rafael",
    "updated_at": "2014-09-13T16:57:22.635957Z",
    "country": "uy",
    "parent": "18458",
    "longitude": -54.9182072281837,
    "latitude": -34.9388538792187,
    "regions": []
  },
  {
    "code": "20aa3",
    "name": "Aidy Grill",
    "updated_at": "2014-09-13T16:57:22.512545Z",
    "country": "uy",
    "parent": "18458",
    "longitude": -54.9321640135808,
    "latitude": -34.9493249785839,
    "regions": []
  },
  {
    "code": "20aa2",
    "name": "Peninsula",
    "updated_at": "2014-09-13T16:57:22.475210Z",
    "country": "uy",
    "parent": "18458",
    "longitude": -54.9441255147384,
    "latitude": -34.9624941074672,
    "regions": []
  },
  {
    "code": "20aa1",
    "name": "Solanas",
    "updated_at": "2014-09-13T16:57:22.376258Z",
    "country": "uy",
    "parent": "18458",
    "longitude": -55.0512462854385,
    "latitude": -34.880737672488,
    "regions": []
  },
  {
    "code": "20aa0",
    "name": "Chihuahua",
    "updated_at": "2014-09-13T16:57:22.233086Z",
    "country": "uy",
    "parent": "18458",
    "longitude": -55.0852681696415,
    "latitude": -34.8756954781152,
    "regions": []
  },
  {
    "code": "20a9f",
    "name": "Laguna del Sauce",
    "updated_at": "2014-09-13T16:57:22.197153Z",
    "country": "uy",
    "parent": "18458",
    "longitude": -55.0421950668124,
    "latitude": -34.8436071804269,
    "regions": []
  },
  {
    "code": "20a9e",
    "name": "Punta Ballena",
    "updated_at": "2014-09-18T06:50:47.668097Z",
    "country": "uy",
    "parent": "18458",
    "longitude": -55.0386862456799,
    "latitude": -34.905043794663,
    "regions": []
  },
  {
    "code": "20a9d",
    "name": "Centro Histórico",
    "updated_at": "2014-09-13T16:57:21.991872Z",
    "country": "ec",
    "parent": "183d1",
    "longitude": -78.5119731858017,
    "latitude": -0.220730551794987,
    "regions": []
  },
  {
    "code": "20a9c",
    "name": "Balvanera",
    "updated_at": "2014-09-18T06:50:47.653396Z",
    "country": "ar",
    "parent": "18369",
    "longitude": -58.3977376400771,
    "latitude": -34.6079338527487,
    "regions": []
  },
  {
    "code": "20a9b",
    "name": "Villa Urquiza",
    "updated_at": "2014-09-13T16:57:21.822610Z",
    "country": "ar",
    "parent": "18369",
    "longitude": -58.4872160322012,
    "latitude": -34.5745693134968,
    "regions": []
  },
  {
    "code": "20a9a",
    "name": "Almagro",
    "updated_at": "2014-09-13T16:57:21.733999Z",
    "country": "ar",
    "parent": "18369",
    "longitude": -58.4221460096851,
    "latitude": -34.6070631706177,
    "regions": []
  },
  {
    "code": "20a99",
    "name": "Montserrat",
    "updated_at": "2016-02-09T09:32:16.130969Z",
    "country": "ar",
    "parent": "18369",
    "longitude": -58.385496071989,
    "latitude": -34.6166478752671,
    "regions": []
  },
  {
    "code": "20a98",
    "name": "Retiro",
    "updated_at": "2016-02-09T09:32:16.139118Z",
    "country": "ar",
    "parent": "18369",
    "longitude": -58.3818052508921,
    "latitude": -34.5925357162971,
    "regions": []
  },
  {
    "code": "20a97",
    "name": "San Telmo",
    "updated_at": "2016-02-09T09:32:15.907020Z",
    "country": "ar",
    "parent": "18369",
    "longitude": -58.3749998316264,
    "latitude": -34.6182652261652,
    "regions": []
  },
  {
    "code": "20a96",
    "name": "Microcentro",
    "updated_at": "2016-02-09T09:32:10.658555Z",
    "country": "ar",
    "parent": "18369",
    "longitude": -58.377213606099,
    "latitude": -34.6017078012079,
    "regions": []
  },
  {
    "code": "20a95",
    "name": "Puerto Madero",
    "updated_at": "2016-02-09T09:32:15.891632Z",
    "country": "ar",
    "parent": "18369",
    "longitude": -58.3639799955607,
    "latitude": -34.6110709236289,
    "regions": []
  },
  {
    "code": "20a94",
    "name": "Belgrano",
    "updated_at": "2016-02-09T09:32:04.380581Z",
    "country": "ar",
    "parent": "18369",
    "longitude": -58.4541315535528,
    "latitude": -34.5600919105438,
    "regions": []
  },
  {
    "code": "20a93",
    "name": "Recoleta",
    "updated_at": "2016-02-09T09:32:10.675024Z",
    "country": "ar",
    "parent": "18369",
    "longitude": -58.396783789487,
    "latitude": -34.5922066359239,
    "regions": []
  },
  {
    "code": "20a92",
    "name": "Palermo",
    "updated_at": "2016-02-09T09:32:10.682934Z",
    "country": "ar",
    "parent": "18369",
    "longitude": -58.4277258080135,
    "latitude": -34.5839574145877,
    "regions": []
  },
  {
    "code": "20a91",
    "name": "Bosque Peralta Ramos",
    "updated_at": "2014-09-13T16:57:19.039022Z",
    "country": "ar",
    "parent": "182cc",
    "longitude": -57.56812725133,
    "latitude": -38.0863481274065,
    "regions": []
  },
  {
    "code": "20a90",
    "name": "Playa Grande",
    "updated_at": "2016-02-09T09:32:10.666543Z",
    "country": "ar",
    "parent": "182cc",
    "longitude": -57.5347821085414,
    "latitude": -38.0273271286481,
    "regions": []
  },
  {
    "code": "20a8f",
    "name": "La Perla",
    "updated_at": "2016-02-09T09:32:11.084588Z",
    "country": "ar",
    "parent": "182cc",
    "longitude": -57.5465809713343,
    "latitude": -37.9936550686257,
    "regions": []
  },
  {
    "code": "20a8e",
    "name": "Llao Llao",
    "updated_at": "2016-02-09T09:32:11.093796Z",
    "country": "ar",
    "parent": "1827a",
    "longitude": -71.5077979086675,
    "latitude": -41.0609249751984,
    "regions": []
  },
  {
    "code": "20a8d",
    "name": "Lazimpat",
    "updated_at": "2014-09-18T06:50:45.946324Z",
    "country": "np",
    "parent": "18209",
    "longitude": 85.320591459817,
    "latitude": 27.7203628379945,
    "regions": []
  },
  {
    "code": "20a8c",
    "name": "Boudhha",
    "updated_at": "2014-09-13T16:57:18.131174Z",
    "country": "np",
    "parent": "18209",
    "longitude": 85.3624366507237,
    "latitude": 27.7221889521186,
    "regions": []
  },
  {
    "code": "20a8b",
    "name": "Patan",
    "updated_at": "2014-09-18T06:50:45.939261Z",
    "country": "np",
    "parent": "18209",
    "longitude": 85.3203457334901,
    "latitude": 27.6752994561151,
    "regions": []
  },
  {
    "code": "20a8a",
    "name": "Thamel",
    "updated_at": "2014-09-19T12:29:17.942011Z",
    "country": "np",
    "parent": "18209",
    "longitude": 85.3110922215404,
    "latitude": 27.7147463534782,
    "regions": []
  },
  {
    "code": "20a89",
    "name": "Mean Chey",
    "updated_at": "2014-09-13T16:57:16.309170Z",
    "country": "kh",
    "parent": "181e4",
    "longitude": 104.9613512619,
    "latitude": 11.5352402366896,
    "regions": []
  },
  {
    "code": "20a88",
    "name": "Sen Sok",
    "updated_at": "2014-09-19T21:46:37.877294Z",
    "country": "kh",
    "parent": "181e4",
    "longitude": 104.874280214687,
    "latitude": 11.5667619502826,
    "regions": []
  },
  {
    "code": "20a87",
    "name": "Chamkar Mon",
    "updated_at": "2014-09-19T21:46:37.810218Z",
    "country": "kh",
    "parent": "181e4",
    "longitude": 104.922955867521,
    "latitude": 11.5492000470303,
    "regions": []
  },
  {
    "code": "20a86",
    "name": "Prampir Makara",
    "updated_at": "2014-09-19T12:29:17.378445Z",
    "country": "kh",
    "parent": "181e4",
    "longitude": 104.915417012293,
    "latitude": 11.5619314543826,
    "regions": []
  },
  {
    "code": "20a85",
    "name": "Tuol Kouk",
    "updated_at": "2014-09-13T16:57:16.063808Z",
    "country": "kh",
    "parent": "181e4",
    "longitude": 104.898372973623,
    "latitude": 11.5636266579121,
    "regions": []
  },
  {
    "code": "20a84",
    "name": "Daun Penh",
    "updated_at": "2014-09-19T21:46:37.678911Z",
    "country": "kh",
    "parent": "181e4",
    "longitude": 104.92585386668,
    "latitude": 11.5678286719123,
    "regions": []
  },
  {
    "code": "20a83",
    "name": "Svyatoshynskyj",
    "updated_at": "2016-02-09T09:32:11.059857Z",
    "country": "ua",
    "parent": "18161",
    "longitude": 30.3774224152849,
    "latitude": 50.4568355360807,
    "regions": []
  },
  {
    "code": "20a82",
    "name": "Shevchenkivskyj",
    "updated_at": "2016-02-09T09:32:11.052064Z",
    "country": "ua",
    "parent": "18161",
    "longitude": 30.5110390816399,
    "latitude": 50.446994733767,
    "regions": []
  },
  {
    "code": "20a81",
    "name": "Pecherskyj",
    "updated_at": "2016-02-09T09:32:11.077027Z",
    "country": "ua",
    "parent": "18161",
    "longitude": 30.5273884133987,
    "latitude": 50.4364598000103,
    "regions": []
  },
  {
    "code": "20a80",
    "name": "Obolonskyj",
    "updated_at": "2016-02-09T09:32:11.069244Z",
    "country": "ua",
    "parent": "18161",
    "longitude": 30.4632509180985,
    "latitude": 50.5135856132615,
    "regions": []
  },
  {
    "code": "20a7f",
    "name": "Dniprovskyj",
    "updated_at": "2016-02-09T09:32:10.148892Z",
    "country": "ua",
    "parent": "18161",
    "longitude": 30.5965904512326,
    "latitude": 50.4545423400394,
    "regions": []
  },
  {
    "code": "20a7e",
    "name": "Desnjanskyj",
    "updated_at": "2016-02-09T09:32:13.428449Z",
    "country": "ua",
    "parent": "18161",
    "longitude": 30.6009428685604,
    "latitude": 50.4940226824657,
    "regions": []
  },
  {
    "code": "20a7d",
    "name": "Primorsky",
    "updated_at": "2014-09-22T21:46:27.245383Z",
    "country": "ua",
    "parent": "18130",
    "longitude": 30.7446287321852,
    "latitude": 46.4677297523476,
    "regions": []
  },
  {
    "code": "20a7c",
    "name": "Macau Centre",
    "updated_at": "2016-02-09T09:32:11.138461Z",
    "country": "mo",
    "parent": "17cff",
    "longitude": 113.544861244131,
    "latitude": 22.1953465600736,
    "regions": []
  },
  {
    "code": "20a7b",
    "name": "Coloane",
    "updated_at": "2016-02-09T09:32:13.443981Z",
    "country": "mo",
    "parent": "17cff",
    "longitude": 113.568943440914,
    "latitude": 22.1197527014872,
    "regions": []
  },
  {
    "code": "20a7a",
    "name": "Taipa",
    "updated_at": "2016-02-09T09:32:09.340429Z",
    "country": "mo",
    "parent": "17cff",
    "longitude": 113.55796509951,
    "latitude": 22.1597303388847,
    "regions": []
  },
  {
    "code": "20a79",
    "name": "Vredehoek",
    "updated_at": "2016-02-09T09:32:13.451600Z",
    "country": "za",
    "parent": "17caa",
    "longitude": 18.4272680933441,
    "latitude": -33.9387904887824,
    "regions": []
  },
  {
    "code": "20a78",
    "name": "Rondebosch East",
    "updated_at": "2016-02-09T09:32:13.459298Z",
    "country": "za",
    "parent": "17caa",
    "longitude": 18.5046549433289,
    "latitude": -33.9746843757107,
    "regions": []
  },
  {
    "code": "20a77",
    "name": "Century City",
    "updated_at": "2016-02-09T09:32:09.349039Z",
    "country": "za",
    "parent": "17caa",
    "longitude": 18.5099960413735,
    "latitude": -33.8914235545536,
    "regions": []
  },
  {
    "code": "20a76",
    "name": "Milnerton",
    "updated_at": "2014-09-13T16:57:14.022752Z",
    "country": "za",
    "parent": "17caa",
    "longitude": 18.4892955579643,
    "latitude": -33.8844793302613,
    "regions": []
  },
  {
    "code": "20a75",
    "name": "Pinelands",
    "updated_at": "2016-02-09T09:32:09.356632Z",
    "country": "za",
    "parent": "17caa",
    "longitude": 18.5023181178405,
    "latitude": -33.9397257455516,
    "regions": []
  },
  {
    "code": "20a74",
    "name": "Walmer Estate",
    "updated_at": "2014-09-13T16:57:13.782095Z",
    "country": "za",
    "parent": "17caa",
    "longitude": 18.4460211837349,
    "latitude": -33.9362161681733,
    "regions": []
  },
  {
    "code": "20a73",
    "name": "Woodstock",
    "updated_at": "2016-02-09T09:32:05.199661Z",
    "country": "za",
    "parent": "17caa",
    "longitude": 18.4532951563597,
    "latitude": -33.9323512842929,
    "regions": []
  },
  {
    "code": "20a72",
    "name": "Rosebank",
    "updated_at": "2016-02-09T09:32:11.289848Z",
    "country": "za",
    "parent": "17caa",
    "longitude": 18.48025649786,
    "latitude": -33.9520686640486,
    "regions": []
  },
  {
    "code": "20a71",
    "name": "Mowbray",
    "updated_at": "2014-09-18T06:50:44.851519Z",
    "country": "za",
    "parent": "17caa",
    "longitude": 18.472802388607,
    "latitude": -33.9479566842685,
    "regions": []
  },
  {
    "code": "20a70",
    "name": "Rondebosch",
    "updated_at": "2016-02-09T09:32:09.364569Z",
    "country": "za",
    "parent": "17caa",
    "longitude": 18.4776757401741,
    "latitude": -33.9653271268317,
    "regions": []
  },
  {
    "code": "20a6f",
    "name": "Claremont",
    "updated_at": "2014-09-13T16:57:13.059434Z",
    "country": "za",
    "parent": "17caa",
    "longitude": 18.4636327943228,
    "latitude": -33.9870432304226,
    "regions": []
  },
  {
    "code": "20a6e",
    "name": "Newlands",
    "updated_at": "2016-02-09T09:32:05.660649Z",
    "country": "za",
    "parent": "17caa",
    "longitude": 18.4630437574383,
    "latitude": -33.9741233746679,
    "regions": []
  },
  {
    "code": "20a6d",
    "name": "Camps Bay",
    "updated_at": "2016-02-09T09:32:05.652813Z",
    "country": "za",
    "parent": "17caa",
    "longitude": 18.3803508051327,
    "latitude": -33.9578409498935,
    "regions": []
  },
  {
    "code": "20a6c",
    "name": "Fresnaye",
    "updated_at": "2016-02-09T09:32:05.644889Z",
    "country": "za",
    "parent": "17caa",
    "longitude": 18.3872729801096,
    "latitude": -33.9229872329743,
    "regions": []
  },
  {
    "code": "20a6b",
    "name": "Bantry Bay",
    "updated_at": "2016-02-09T09:32:05.636762Z",
    "country": "za",
    "parent": "17caa",
    "longitude": 18.3790673016396,
    "latitude": -33.9283446128796,
    "regions": []
  },
  {
    "code": "20a6a",
    "name": "Sea Point",
    "updated_at": "2016-02-09T09:32:13.050271Z",
    "country": "za",
    "parent": "17caa",
    "longitude": 18.3889024869288,
    "latitude": -33.9171305624911,
    "regions": []
  },
  {
    "code": "20a69",
    "name": "Observatory",
    "updated_at": "2014-09-13T16:57:11.695499Z",
    "country": "za",
    "parent": "17caa",
    "longitude": 18.4669989116495,
    "latitude": -33.937523335563,
    "regions": []
  },
  {
    "code": "20a68",
    "name": "Oranjezicht",
    "updated_at": "2016-02-09T09:32:08.772077Z",
    "country": "za",
    "parent": "17caa",
    "longitude": 18.4137632757044,
    "latitude": -33.9404031692717,
    "regions": []
  },
  {
    "code": "20a67",
    "name": "Gardens",
    "updated_at": "2016-02-09T09:32:05.592327Z",
    "country": "za",
    "parent": "17caa",
    "longitude": 18.4073741999158,
    "latitude": -33.934609064777,
    "regions": []
  },
  {
    "code": "20a66",
    "name": "City Bowl",
    "updated_at": "2016-02-09T09:32:12.975278Z",
    "country": "za",
    "parent": "17caa",
    "longitude": 18.4199277949357,
    "latitude": -33.9212748251531,
    "regions": []
  },
  {
    "code": "20a65",
    "name": "Waterfront",
    "updated_at": "2016-02-09T09:32:09.093822Z",
    "country": "za",
    "parent": "17caa",
    "longitude": 18.4209470644331,
    "latitude": -33.9102426089545,
    "regions": []
  },
  {
    "code": "20a64",
    "name": "Three Anchor Bay",
    "updated_at": "2016-02-09T09:32:05.582188Z",
    "country": "za",
    "parent": "17caa",
    "longitude": 18.396497728964,
    "latitude": -33.9093093486775,
    "regions": []
  },
  {
    "code": "20a63",
    "name": "Mouille Point",
    "updated_at": "2016-02-09T09:32:05.671256Z",
    "country": "za",
    "parent": "17caa",
    "longitude": 18.4057110595752,
    "latitude": -33.9007593100992,
    "regions": []
  },
  {
    "code": "20a62",
    "name": "Green Point",
    "updated_at": "2016-02-09T09:32:08.789012Z",
    "country": "za",
    "parent": "17caa",
    "longitude": 18.4074058862324,
    "latitude": -33.9098528721171,
    "regions": []
  },
  {
    "code": "20a61",
    "name": "Umhlanga",
    "updated_at": "2014-09-18T06:50:43.416797Z",
    "country": "za",
    "parent": "17c8e",
    "longitude": 31.0798313066991,
    "latitude": -29.724553492706,
    "regions": []
  },
  {
    "code": "20a60",
    "name": "Windermere",
    "updated_at": "2014-09-13T16:57:09.803580Z",
    "country": "za",
    "parent": "17c8e",
    "longitude": 31.0172367396263,
    "latitude": -29.8309538900234,
    "regions": []
  },
  {
    "code": "20a5f",
    "name": "Essenwood",
    "updated_at": "2014-09-13T16:57:09.567143Z",
    "country": "za",
    "parent": "17c8e",
    "longitude": 31.0060248817121,
    "latitude": -29.8349986839634,
    "regions": []
  },
  {
    "code": "20a5e",
    "name": "La Lucia",
    "updated_at": "2014-09-13T16:57:09.550546Z",
    "country": "za",
    "parent": "17c8e",
    "longitude": 31.0636346503742,
    "latitude": -29.7541464478306,
    "regions": []
  },
  {
    "code": "20a5d",
    "name": "Glenwood",
    "updated_at": "2014-09-18T06:50:43.409835Z",
    "country": "za",
    "parent": "17c8e",
    "longitude": 30.9923209762462,
    "latitude": -29.8601586273349,
    "regions": []
  },
  {
    "code": "20a5c",
    "name": "Musgrave",
    "updated_at": "2014-09-13T16:57:09.230059Z",
    "country": "za",
    "parent": "17c8e",
    "longitude": 30.9997531286655,
    "latitude": -29.8455301729235,
    "regions": []
  },
  {
    "code": "20a5b",
    "name": "Durban North",
    "updated_at": "2014-09-13T16:57:09.104088Z",
    "country": "za",
    "parent": "17c8e",
    "longitude": 31.0356153325003,
    "latitude": -29.7874679166108,
    "regions": []
  },
  {
    "code": "20a5a",
    "name": "Morningside",
    "updated_at": "2014-09-18T06:50:43.402740Z",
    "country": "za",
    "parent": "17c8e",
    "longitude": 31.0154663596318,
    "latitude": -29.8237655591989,
    "regions": []
  },
  {
    "code": "20a59",
    "name": "Westville",
    "updated_at": "2014-09-18T06:50:43.395697Z",
    "country": "za",
    "parent": "17c8e",
    "longitude": 30.9324712089285,
    "latitude": -29.8237584583268,
    "regions": []
  },
  {
    "code": "20a58",
    "name": "Fourways",
    "updated_at": "2014-02-21T19:13:33.854525Z",
    "country": "za",
    "parent": "17c46",
    "longitude": 27.9983568191528,
    "latitude": -26.0396253703734,
    "regions": []
  },
  {
    "code": "20a57",
    "name": "Parktown",
    "updated_at": "2014-09-13T16:57:08.718228Z",
    "country": "za",
    "parent": "17c46",
    "longitude": 28.0325559007975,
    "latitude": -26.1803670207907,
    "regions": []
  },
  {
    "code": "20a56",
    "name": "Bryanston",
    "updated_at": "2014-09-19T21:46:36.632931Z",
    "country": "za",
    "parent": "17c46",
    "longitude": 28.0147326416906,
    "latitude": -26.060069676659,
    "regions": []
  },
  {
    "code": "20a55",
    "name": "Johannesburg City Centre",
    "updated_at": "2016-02-09T09:32:10.140718Z",
    "country": "za",
    "parent": "17c46",
    "longitude": 28.0478801233531,
    "latitude": -26.2009113483781,
    "regions": []
  },
  {
    "code": "20a54",
    "name": "Bedfordview",
    "updated_at": "2016-02-09T09:32:08.316206Z",
    "country": "za",
    "parent": "17c46",
    "longitude": 28.1294643431829,
    "latitude": -26.1772680949826,
    "regions": []
  },
  {
    "code": "20a53",
    "name": "Rivonia",
    "updated_at": "2016-02-09T09:32:10.122490Z",
    "country": "za",
    "parent": "17c46",
    "longitude": 28.0619498794218,
    "latitude": -26.047487517179,
    "regions": []
  },
  {
    "code": "20a52",
    "name": "Sandton",
    "updated_at": "2016-02-09T09:32:10.131255Z",
    "country": "za",
    "parent": "17c46",
    "longitude": 28.0587124209365,
    "latitude": -26.0990315472878,
    "regions": []
  },
  {
    "code": "20a51",
    "name": "Rosebank",
    "updated_at": "2016-02-09T09:32:10.107001Z",
    "country": "za",
    "parent": "17c46",
    "longitude": 28.0412431199861,
    "latitude": -26.1455821740975,
    "regions": []
  },
  {
    "code": "20a50",
    "name": "Randburg",
    "updated_at": "2016-02-09T09:32:10.114741Z",
    "country": "za",
    "parent": "17c46",
    "longitude": 27.9900687613976,
    "latitude": -26.1059306607024,
    "regions": []
  },
  {
    "code": "20a4f",
    "name": "Melrose",
    "updated_at": "2016-02-09T09:32:05.039060Z",
    "country": "za",
    "parent": "17c46",
    "longitude": 28.0610610756608,
    "latitude": -26.1343020345681,
    "regions": []
  },
  {
    "code": "20a4e",
    "name": "Melville",
    "updated_at": "2016-02-09T09:32:05.059404Z",
    "country": "za",
    "parent": "17c46",
    "longitude": 28.0062562138447,
    "latitude": -26.175948916308,
    "regions": []
  },
  {
    "code": "20a4d",
    "name": "Belvidere",
    "updated_at": "2016-02-09T09:32:05.046639Z",
    "country": "za",
    "parent": "17c30",
    "longitude": 22.9985126741667,
    "latitude": -34.044590839693,
    "regions": []
  },
  {
    "code": "20a4c",
    "name": "Hunter's Home",
    "updated_at": "2016-02-09T09:32:05.021351Z",
    "country": "za",
    "parent": "17c30",
    "longitude": 23.0819268225678,
    "latitude": -34.0592604589533,
    "regions": []
  },
  {
    "code": "20a4b",
    "name": "Waterfront",
    "updated_at": "2016-02-09T09:32:05.013689Z",
    "country": "za",
    "parent": "17c30",
    "longitude": 23.0449551343918,
    "latitude": -34.0415338436398,
    "regions": []
  },
  {
    "code": "20a4a",
    "name": "Paradise",
    "updated_at": "2016-02-09T09:32:05.029367Z",
    "country": "za",
    "parent": "17c30",
    "longitude": 23.0316719549247,
    "latitude": -34.0348958887772,
    "regions": []
  },
  {
    "code": "20a49",
    "name": "Leisure Isle",
    "updated_at": "2016-02-09T09:32:12.137843Z",
    "country": "za",
    "parent": "17c30",
    "longitude": 23.0594691478146,
    "latitude": -34.0679806583649,
    "regions": []
  },
  {
    "code": "20a48",
    "name": "Summerstrand",
    "updated_at": "2016-02-09T09:32:04.995654Z",
    "country": "za",
    "parent": "17bbd",
    "longitude": 25.6632722765991,
    "latitude": -33.9884780188139,
    "regions": []
  },
  {
    "code": "20a47",
    "name": "Arcadia",
    "updated_at": "2016-02-09T09:32:04.980300Z",
    "country": "za",
    "parent": "17bb8",
    "longitude": 28.216505624232,
    "latitude": -25.7467993287113,
    "regions": []
  },
  {
    "code": "20a46",
    "name": "Pretoria North",
    "updated_at": "2016-02-09T09:32:04.970955Z",
    "country": "za",
    "parent": "17bb8",
    "longitude": 28.2197054959758,
    "latitude": -25.6796986072432,
    "regions": []
  },
  {
    "code": "20a45",
    "name": "Lynnwood",
    "updated_at": "2016-02-09T09:32:12.130009Z",
    "country": "za",
    "parent": "17bb8",
    "longitude": 28.276083529162,
    "latitude": -25.7681578865196,
    "regions": []
  },
  {
    "code": "20a44",
    "name": "Cheung Chau",
    "updated_at": "2016-02-09T09:32:04.987929Z",
    "country": "hk",
    "parent": "17a7a",
    "longitude": 114.032333940268,
    "latitude": 22.2076187253875,
    "regions": []
  },
  {
    "code": "20a43",
    "name": "Lamma Island",
    "updated_at": "2016-02-09T09:32:12.064740Z",
    "country": "hk",
    "parent": "17a7a",
    "longitude": 114.119297862053,
    "latitude": 22.2191517593268,
    "regions": []
  },
  {
    "code": "20a42",
    "name": "Shatin",
    "updated_at": "2016-02-09T09:32:04.942338Z",
    "country": "hk",
    "parent": "17a7a",
    "longitude": 114.200569465756,
    "latitude": 22.3913104072333,
    "regions": []
  },
  {
    "code": "20a41",
    "name": "Chai Wan",
    "updated_at": "2016-02-09T09:32:04.963244Z",
    "country": "hk",
    "parent": "17a7a",
    "longitude": 114.236770570278,
    "latitude": 22.2628563727559,
    "regions": []
  },
  {
    "code": "20a40",
    "name": "Kowloon West",
    "updated_at": "2016-02-09T09:32:04.954877Z",
    "country": "hk",
    "parent": "17a7a",
    "longitude": 114.160644114017,
    "latitude": 22.3039566428933,
    "regions": []
  },
  {
    "code": "20a3f",
    "name": "Western District",
    "updated_at": "2016-02-09T09:32:06.235148Z",
    "country": "hk",
    "parent": "17a7a",
    "longitude": 114.140870539424,
    "latitude": 22.2864395657149,
    "regions": []
  },
  {
    "code": "20a3e",
    "name": "Ma Wan",
    "updated_at": "2016-02-09T09:32:06.243053Z",
    "country": "hk",
    "parent": "17a7a",
    "longitude": 114.061316549778,
    "latitude": 22.34839618628,
    "regions": []
  },
  {
    "code": "20a3d",
    "name": "Southern District",
    "updated_at": "2016-02-09T09:32:06.251236Z",
    "country": "hk",
    "parent": "17a7a",
    "longitude": 114.151555305439,
    "latitude": 22.2509704452582,
    "regions": []
  },
  {
    "code": "20a3c",
    "name": "Eastern Kowloon",
    "updated_at": "2016-02-09T09:32:06.207090Z",
    "country": "hk",
    "parent": "17a7a",
    "longitude": 114.232365305723,
    "latitude": 22.3151807778633,
    "regions": []
  },
  {
    "code": "20a3b",
    "name": "Lantau",
    "updated_at": "2016-02-09T09:32:06.215006Z",
    "country": "hk",
    "parent": "17a7a",
    "longitude": 113.96056807414,
    "latitude": 22.2864742455474,
    "regions": []
  },
  {
    "code": "20a3a",
    "name": "Tsuen Wan",
    "updated_at": "2016-02-09T09:32:06.222867Z",
    "country": "hk",
    "parent": "17a7a",
    "longitude": 114.118038117886,
    "latitude": 22.3695935308838,
    "regions": []
  },
  {
    "code": "20a39",
    "name": "Hong Kong East",
    "updated_at": "2016-02-09T09:32:09.544603Z",
    "country": "hk",
    "parent": "17a7a",
    "longitude": 114.198516639577,
    "latitude": 22.2884515798364,
    "regions": []
  },
  {
    "code": "20a38",
    "name": "Tsing Yi",
    "updated_at": "2016-02-09T09:32:06.269090Z",
    "country": "hk",
    "parent": "17a7a",
    "longitude": 114.110454618931,
    "latitude": 22.342795541567,
    "regions": []
  },
  {
    "code": "20a37",
    "name": "Sham Shui Po",
    "updated_at": "2016-02-09T09:32:06.304135Z",
    "country": "hk",
    "parent": "17a7a",
    "longitude": 114.159793321946,
    "latitude": 22.3327877368273,
    "regions": []
  },
  {
    "code": "20a36",
    "name": "Causeway Bay",
    "updated_at": "2016-02-09T09:32:06.312231Z",
    "country": "hk",
    "parent": "17a7a",
    "longitude": 114.186062007976,
    "latitude": 22.2794459190661,
    "regions": []
  },
  {
    "code": "20a35",
    "name": "Wan Chai",
    "updated_at": "2016-02-09T09:32:06.320586Z",
    "country": "hk",
    "parent": "17a7a",
    "longitude": 114.175453820373,
    "latitude": 22.2778451637536,
    "regions": []
  },
  {
    "code": "20a34",
    "name": "Tsim Sha Tsui",
    "updated_at": "2016-02-09T09:32:06.328579Z",
    "country": "hk",
    "parent": "17a7a",
    "longitude": 114.17261710987,
    "latitude": 22.297450071086,
    "regions": []
  },
  {
    "code": "20a33",
    "name": "Central Hong Kong",
    "updated_at": "2016-02-09T09:32:07.711095Z",
    "country": "hk",
    "parent": "17a7a",
    "longitude": 114.154743004146,
    "latitude": 22.2824919264487,
    "regions": []
  },
  {
    "code": "20a32",
    "name": "Eteläinen Suurpiiri",
    "updated_at": "2016-02-09T09:32:06.276785Z",
    "country": "fi",
    "parent": "179f5",
    "longitude": 24.9377665024952,
    "latitude": 60.1685347523438,
    "regions": []
  },
  {
    "code": "20a31",
    "name": "Itäinen Suurpiiri",
    "updated_at": "2016-02-09T09:32:06.285304Z",
    "country": "fi",
    "parent": "179f5",
    "longitude": 25.130945887921,
    "latitude": 60.2030374889064,
    "regions": []
  },
  {
    "code": "20a30",
    "name": "Keskinen Suurpiiri",
    "updated_at": "2016-02-09T09:32:06.293133Z",
    "country": "fi",
    "parent": "179f5",
    "longitude": 24.9509090014358,
    "latitude": 60.1899561372547,
    "regions": []
  },
  {
    "code": "20a2f",
    "name": "Läntinen Suurpiiri",
    "updated_at": "2016-02-09T09:32:15.082326Z",
    "country": "fi",
    "parent": "179f5",
    "longitude": 24.8766539096832,
    "latitude": 60.2144120748013,
    "regions": []
  },
  {
    "code": "20a2e",
    "name": "Kaakkoinen Suurpiiri",
    "updated_at": "2016-02-09T09:32:15.074809Z",
    "country": "fi",
    "parent": "179f5",
    "longitude": 25.0464258491775,
    "latitude": 60.1919187666034,
    "regions": []
  },
  {
    "code": "20a2d",
    "name": "Koillinen Suurpiiri",
    "updated_at": "2016-02-09T09:32:15.066954Z",
    "country": "fi",
    "parent": "179f5",
    "longitude": 25.0119503182181,
    "latitude": 60.2473515180521,
    "regions": []
  },
  {
    "code": "20a2c",
    "name": "Pohjoinen Suurpiiri",
    "updated_at": "2016-02-09T09:32:15.098956Z",
    "country": "fi",
    "parent": "179f5",
    "longitude": 24.9358695745468,
    "latitude": 60.2327488199451,
    "regions": []
  },
  {
    "code": "20a2b",
    "name": "Canet-Plage",
    "updated_at": "2014-09-18T06:50:39.586636Z",
    "country": "fr",
    "parent": "17313",
    "longitude": 3.03305516148787,
    "latitude": 42.685393243026,
    "regions": []
  },
  {
    "code": "20a2a",
    "name": "La Riviere-Saint-Sauveur",
    "updated_at": "2016-02-09T09:32:15.090491Z",
    "country": "fr",
    "parent": "16bb7",
    "longitude": 0.259302160572718,
    "latitude": 49.40439948652,
    "regions": []
  },
  {
    "code": "20a29",
    "name": "Perret",
    "updated_at": "2016-02-09T09:32:15.058575Z",
    "country": "fr",
    "parent": "1685b",
    "longitude": 0.108619651483393,
    "latitude": 49.4911809795234,
    "regions": []
  },
  {
    "code": "20a28",
    "name": "01. Hôtel de Ville",
    "updated_at": "2016-02-09T09:32:15.050362Z",
    "country": "fr",
    "parent": "1663b",
    "longitude": 4.83210009556204,
    "latitude": 45.7688913066908,
    "regions": []
  },
  {
    "code": "20a27",
    "name": "02. La Presqu'île",
    "updated_at": "2016-02-09T09:32:05.787118Z",
    "country": "fr",
    "parent": "1663b",
    "longitude": 4.82991416340629,
    "latitude": 45.7546185909264,
    "regions": []
  },
  {
    "code": "20a26",
    "name": "03. La Part-Dieu",
    "updated_at": "2016-02-09T09:32:15.012852Z",
    "country": "fr",
    "parent": "1663b",
    "longitude": 4.86054078698629,
    "latitude": 45.7551672035143,
    "regions": []
  },
  {
    "code": "20a25",
    "name": "04. La Croix-Rousse",
    "updated_at": "2016-02-09T09:32:15.004568Z",
    "country": "fr",
    "parent": "1663b",
    "longitude": 4.83077034212221,
    "latitude": 45.7782499948051,
    "regions": []
  },
  {
    "code": "20a24",
    "name": "05. Vieux Lyon",
    "updated_at": "2016-02-09T09:32:14.993868Z",
    "country": "fr",
    "parent": "1663b",
    "longitude": 4.82246441170915,
    "latitude": 45.76097506736,
    "regions": []
  },
  {
    "code": "20a23",
    "name": "06. Parc de la Tête d'Or / Cité Internationale",
    "updated_at": "2016-02-09T09:32:13.726878Z",
    "country": "fr",
    "parent": "1663b",
    "longitude": 4.85217971534961,
    "latitude": 45.7692500475887,
    "regions": []
  },
  {
    "code": "20a22",
    "name": "07. Gerland",
    "updated_at": "2016-02-09T09:32:15.037628Z",
    "country": "fr",
    "parent": "1663b",
    "longitude": 4.84030732766976,
    "latitude": 45.7450500775493,
    "regions": []
  },
  {
    "code": "20a21",
    "name": "8. Hôpitaux Est",
    "updated_at": "2016-02-09T09:32:04.266577Z",
    "country": "fr",
    "parent": "1663b",
    "longitude": 4.87379916323895,
    "latitude": 45.7397048499953,
    "regions": []
  },
  {
    "code": "20a20",
    "name": "09. Vaise",
    "updated_at": "2016-02-09T09:32:15.029446Z",
    "country": "fr",
    "parent": "1663b",
    "longitude": 4.80790773900263,
    "latitude": 45.7748489965003,
    "regions": []
  },
  {
    "code": "20a1f",
    "name": "Saint-Menet",
    "updated_at": "2016-02-09T09:32:16.690530Z",
    "country": "fr",
    "parent": "1658e",
    "longitude": 5.49891471862793,
    "latitude": 43.2880148983598,
    "regions": []
  },
  {
    "code": "20a1e",
    "name": "La Corniche - Stade Vélodrome",
    "updated_at": "2016-02-09T09:32:16.673823Z",
    "country": "fr",
    "parent": "1658e",
    "longitude": 5.37005659360523,
    "latitude": 43.2793874362678,
    "regions": []
  },
  {
    "code": "20a1d",
    "name": "Le Pharo-Iles du Frioul",
    "updated_at": "2016-02-09T09:32:16.682620Z",
    "country": "fr",
    "parent": "1658e",
    "longitude": 5.33282697200775,
    "latitude": 43.2857145297461,
    "regions": []
  },
  {
    "code": "20a1c",
    "name": "Castellane et Préfecture",
    "updated_at": "2016-02-09T09:32:16.705463Z",
    "country": "fr",
    "parent": "1658e",
    "longitude": 5.38153537670287,
    "latitude": 43.2877967946008,
    "regions": []
  },
  {
    "code": "20a1b",
    "name": "Meribel Les Allues",
    "updated_at": "2014-09-13T16:56:53.102101Z",
    "country": "fr",
    "parent": "16507",
    "longitude": 6.56934640670258,
    "latitude": 45.3983207903423,
    "regions": []
  },
  {
    "code": "20a1a",
    "name": "Meribel-Mottaret",
    "updated_at": "2016-02-09T09:32:13.491727Z",
    "country": "fr",
    "parent": "16507",
    "longitude": 6.57871078840993,
    "latitude": 45.372798305092,
    "regions": []
  },
  {
    "code": "20a19",
    "name": "Hauts Pavés Saint Félix",
    "updated_at": "2014-09-13T16:56:52.521118Z",
    "country": "fr",
    "parent": "16312",
    "longitude": -1.56230426711391,
    "latitude": 47.2233712190249,
    "regions": []
  },
  {
    "code": "20a18",
    "name": "Malakoff Saint Donatien",
    "updated_at": "2014-02-21T19:13:24.951010Z",
    "country": "fr",
    "parent": "16312",
    "longitude": -1.54419314042816,
    "latitude": 47.2194136713167,
    "regions": []
  },
  {
    "code": "20a17",
    "name": "Centre Ville",
    "updated_at": "2014-09-18T06:50:37.902546Z",
    "country": "fr",
    "parent": "16312",
    "longitude": -1.55525164943126,
    "latitude": 47.2146279717936,
    "regions": []
  },
  {
    "code": "20a16",
    "name": "20th arr.",
    "updated_at": "2016-02-09T09:32:13.512667Z",
    "country": "fr",
    "parent": "161cf",
    "longitude": 2.39781516694245,
    "latitude": 48.863301554686,
    "regions": []
  },
  {
    "code": "20a15",
    "name": "19th arr.",
    "updated_at": "2016-02-09T09:32:16.714816Z",
    "country": "fr",
    "parent": "161cf",
    "longitude": 2.38274129373945,
    "latitude": 48.8843314131401,
    "regions": []
  },
  {
    "code": "20a14",
    "name": "18th arr.",
    "updated_at": "2016-02-09T09:32:16.723764Z",
    "country": "fr",
    "parent": "161cf",
    "longitude": 2.34076782905474,
    "latitude": 48.8872263664536,
    "regions": []
  },
  {
    "code": "20a13",
    "name": "17th arr.",
    "updated_at": "2016-02-09T09:32:16.742097Z",
    "country": "fr",
    "parent": "161cf",
    "longitude": 2.30511267049066,
    "latitude": 48.8832828785244,
    "regions": []
  },