[
  {
    "code": "1735d",
    "name": "Cabris",
    "updated_at": "2014-09-22T21:22:22.423992Z",
    "country": "fr",
    "parent": null,
    "longitude": 6.86667013168335,
    "latitude": 43.6666984558105,
    "regions": [
      "1079"
    ]
  },
  {
    "code": "1735c",
    "name": "Cachan",
    "updated_at": "2014-09-22T21:22:22.406320Z",
    "country": "fr",
    "parent": null,
    "longitude": 2.33332991600037,
    "latitude": 48.7832984924316,
    "regions": [
      "116b"
    ]
  },
  {
    "code": "1735b",
    "name": "Cadalen",
    "updated_at": "2014-09-22T21:22:22.390147Z",
    "country": "fr",
    "parent": null,
    "longitude": 1.9833300113678,
    "latitude": 43.8499984741211,
    "regions": [
      "1075"
    ]
  },
  {
    "code": "1735a",
    "name": "Cadéac",
    "updated_at": "2014-09-22T21:22:22.373979Z",
    "country": "fr",
    "parent": null,
    "longitude": 0.349999994039536,
    "latitude": 42.9000015258789,
    "regions": [
      "1075"
    ]
  },
  {
    "code": "17359",
    "name": "Cadenet",
    "updated_at": "2014-09-22T21:22:22.357927Z",
    "country": "fr",
    "parent": null,
    "longitude": 5.36667013168335,
    "latitude": 43.7332992553711,
    "regions": [
      "1079"
    ]
  },
  {
    "code": "17358",
    "name": "Caderousse",
    "updated_at": "2014-09-22T21:22:22.341307Z",
    "country": "fr",
    "parent": null,
    "longitude": 4.75,
    "latitude": 44.0999984741211,
    "regions": []
  },
  {
    "code": "17357",
    "name": "Cadillac",
    "updated_at": "2014-09-22T21:22:22.323650Z",
    "country": "fr",
    "parent": null,
    "longitude": -0.31666699051857,
    "latitude": 44.63330078125,
    "regions": [
      "106b"
    ]
  },
  {
    "code": "17356",
    "name": "Cadouin",
    "updated_at": "2014-09-22T21:22:22.289361Z",
    "country": "fr",
    "parent": null,
    "longitude": 0.866666972637177,
    "latitude": 44.8166999816895,
    "regions": [
      "106b"
    ]
  },
  {
    "code": "17355",
    "name": "Caen",
    "updated_at": "2014-09-22T21:22:22.273199Z",
    "country": "fr",
    "parent": null,
    "longitude": -0.370734214782715,
    "latitude": 49.1819953918457,
    "regions": [
      "1334"
    ]
  },
  {
    "code": "17354",
    "name": "Cagnes-sur-Mer",
    "updated_at": "2014-09-22T21:22:22.255737Z",
    "country": "fr",
    "parent": null,
    "longitude": 7.14948463435576,
    "latitude": 43.6627306681831,
    "regions": [
      "1079"
    ]
  },
  {
    "code": "17353",
    "name": "Cahagnes",
    "updated_at": "2014-09-22T21:22:22.237110Z",
    "country": "fr",
    "parent": null,
    "longitude": -0.766667008399963,
    "latitude": 49.0666999816895,
    "regions": [
      "1334"
    ]
  },
  {
    "code": "17352",
    "name": "Cahaignes",
    "updated_at": "2014-09-22T21:22:22.218587Z",
    "country": "fr",
    "parent": null,
    "longitude": 1.60000002384186,
    "latitude": 49.2000007629395,
    "regions": [
      "1335"
    ]
  },
  {
    "code": "17351",
    "name": "Cahors",
    "updated_at": "2014-09-22T21:22:22.200019Z",
    "country": "fr",
    "parent": null,
    "longitude": 1.43333005905151,
    "latitude": 44.4333000183105,
    "regions": [
      "1075"
    ]
  },
  {
    "code": "17350",
    "name": "Cahuzac-sur-Vère",
    "updated_at": "2014-09-22T21:22:22.176902Z",
    "country": "fr",
    "parent": null,
    "longitude": 1.91666996479034,
    "latitude": 43.9832992553711,
    "regions": [
      "1075"
    ]
  },
  {
    "code": "1734f",
    "name": "Cailla",
    "updated_at": "2014-09-22T21:22:22.151855Z",
    "country": "fr",
    "parent": null,
    "longitude": 2.20000004768372,
    "latitude": 42.8166999816895,
    "regions": [
      "1072"
    ]
  },
  {
    "code": "1734e",
    "name": "Caillac",
    "updated_at": "2014-09-22T21:22:22.132136Z",
    "country": "fr",
    "parent": null,
    "longitude": 1.35000002384186,
    "latitude": 44.4832992553711,
    "regions": [
      "1075"
    ]
  },
  {
    "code": "1734d",
    "name": "Cairanne",
    "updated_at": "2014-09-22T21:22:22.113499Z",
    "country": "fr",
    "parent": null,
    "longitude": 4.93333005905151,
    "latitude": 44.2332992553711,
    "regions": [
      "1079"
    ]
  },
  {
    "code": "1734c",
    "name": "Caissargues",
    "updated_at": "2014-09-22T21:22:22.091996Z",
    "country": "fr",
    "parent": null,
    "longitude": 4.38332986831665,
    "latitude": 43.7999992370605,
    "regions": [
      "1072",
      "1079"
    ]
  },
  {
    "code": "1734b",
    "name": "Cajarc",
    "updated_at": "2014-09-22T21:22:22.049472Z",
    "country": "fr",
    "parent": null,
    "longitude": 1.85000002384186,
    "latitude": 44.4832992553711,
    "regions": [
      "1075"
    ]
  },
  {
    "code": "1734a",
    "name": "Calacuccia",
    "updated_at": "2014-09-22T21:22:22.032518Z",
    "country": "fr",
    "parent": null,
    "longitude": 9.01667022705078,
    "latitude": 42.3333015441895,
    "regions": [
      "115d"
    ]
  },
  {
    "code": "17349",
    "name": "Calais",
    "updated_at": "2014-09-22T21:22:22.014389Z",
    "country": "fr",
    "parent": null,
    "longitude": 1.83333003520966,
    "latitude": 50.9500007629395,
    "regions": [
      "1076"
    ]
  },
  {
    "code": "17348",
    "name": "Calas",
    "updated_at": "2014-09-22T21:22:21.997281Z",
    "country": "fr",
    "parent": null,
    "longitude": 5.34999990463257,
    "latitude": 43.4500007629395,
    "regions": [
      "1079"
    ]
  },
  {
    "code": "17347",
    "name": "Calcatoggio",
    "updated_at": "2014-09-22T21:22:21.979052Z",
    "country": "fr",
    "parent": null,
    "longitude": 8.76667022705078,
    "latitude": 42.0167007446289,
    "regions": [
      "115d"
    ]
  },
  {
    "code": "17346",
    "name": "Calenzana",
    "updated_at": "2014-09-22T21:22:21.960836Z",
    "country": "fr",
    "parent": null,
    "longitude": 8.85000038146973,
    "latitude": 42.5,
    "regions": [
      "115d"
    ]
  },
  {
    "code": "17345",
    "name": "Calès",
    "updated_at": "2014-09-22T21:22:21.941454Z",
    "country": "fr",
    "parent": null,
    "longitude": 1.54999995231628,
    "latitude": 44.7999992370605,
    "regions": [
      "1075"
    ]
  },
  {
    "code": "17344",
    "name": "Callac",
    "updated_at": "2014-09-22T21:22:21.921470Z",
    "country": "fr",
    "parent": null,
    "longitude": -3.43333005905151,
    "latitude": 48.4000015258789,
    "regions": [
      "106d"
    ]
  },
  {
    "code": "17343",
    "name": "Callian",
    "updated_at": "2014-09-22T21:22:21.872704Z",
    "country": "fr",
    "parent": null,
    "longitude": 6.75,
    "latitude": 43.63330078125,
    "regions": [
      "1079"
    ]
  },
  {
    "code": "17342",
    "name": "Calmels-et-le-Viala",
    "updated_at": "2014-09-22T21:22:21.845385Z",
    "country": "fr",
    "parent": null,
    "longitude": 2.75,
    "latitude": 43.9500007629395,
    "regions": [
      "1075"
    ]
  },
  {
    "code": "17341",
    "name": "Calmont",
    "updated_at": "2014-09-22T21:22:21.817675Z",
    "country": "fr",
    "parent": null,
    "longitude": 1.63332998752594,
    "latitude": 43.2832984924316,
    "regions": [
      "1075"
    ]
  },
  {
    "code": "17340",
    "name": "Caluire-et-Cuire",
    "updated_at": "2014-09-22T21:22:21.796735Z",
    "country": "fr",
    "parent": null,
    "longitude": 4.84999990463257,
    "latitude": 45.7999992370605,
    "regions": [
      "107a"
    ]
  },
  {
    "code": "1733f",
    "name": "Calvi",
    "updated_at": "2014-09-22T21:22:21.773927Z",
    "country": "fr",
    "parent": null,
    "longitude": 8.75,
    "latitude": 42.5666999816895,
    "regions": [
      "115d"
    ]
  },
  {
    "code": "1733e",
    "name": "Calviac",
    "updated_at": "2014-09-22T21:22:21.752415Z",
    "country": "fr",
    "parent": null,
    "longitude": 1.33333003520966,
    "latitude": 44.8499984741211,
    "regions": [
      "106b"
    ]
  },
  {
    "code": "1733d",
    "name": "Calviac",
    "updated_at": "2014-09-22T21:22:21.736239Z",
    "country": "fr",
    "parent": null,
    "longitude": 2.06666994094849,
    "latitude": 44.9166984558105,
    "regions": [
      "1075"
    ]
  },
  {
    "code": "1733c",
    "name": "Calvignac",
    "updated_at": "2014-09-22T21:22:21.720053Z",
    "country": "fr",
    "parent": null,
    "longitude": 1.79999995231628,
    "latitude": 44.4667015075684,
    "regions": [
      "1075"
    ]
  },
  {
    "code": "1733b",
    "name": "Calvinet",
    "updated_at": "2014-09-22T21:22:21.702442Z",
    "country": "fr",
    "parent": null,
    "longitude": 2.36666989326477,
    "latitude": 44.7167015075684,
    "regions": [
      "106c"
    ]
  },
  {
    "code": "1733a",
    "name": "Calvisson",
    "updated_at": "2014-09-22T21:22:21.684411Z",
    "country": "fr",
    "parent": null,
    "longitude": 4.18333005905151,
    "latitude": 43.7832984924316,
    "regions": [
      "1072"
    ]
  },
  {
    "code": "17339",
    "name": "Camarès",
    "updated_at": "2014-09-22T21:22:21.666463Z",
    "country": "fr",
    "parent": null,
    "longitude": 2.88333010673523,
    "latitude": 43.8166999816895,
    "regions": [
      "1075"
    ]
  },
  {
    "code": "17338",
    "name": "Camaret-sur-Mer",
    "updated_at": "2014-09-22T21:22:21.629191Z",
    "country": "fr",
    "parent": null,
    "longitude": -4.59999990463257,
    "latitude": 48.2832984924316,
    "regions": [
      "106d"
    ]
  },
  {
    "code": "17337",
    "name": "Camarsac",
    "updated_at": "2014-09-22T21:22:21.611153Z",
    "country": "fr",
    "parent": null,
    "longitude": -0.366667002439499,
    "latitude": 44.8333015441895,
    "regions": [
      "106b"
    ]
  },
  {
    "code": "17336",
    "name": "Cambemorel",
    "updated_at": "2014-09-22T21:22:21.587957Z",
    "country": "fr",
    "parent": null,
    "longitude": 2.9833300113678,
    "latitude": 46.13330078125,
    "regions": []
  },
  {
    "code": "17335",
    "name": "Cambieure",
    "updated_at": "2014-09-22T21:22:21.564709Z",
    "country": "fr",
    "parent": null,
    "longitude": 2.13333010673523,
    "latitude": 43.11669921875,
    "regions": [
      "1072"
    ]
  },
  {
    "code": "17334",
    "name": "Cambo-les-Bains",
    "updated_at": "2014-09-22T21:22:21.514659Z",
    "country": "fr",
    "parent": null,
    "longitude": -1.39989995956421,
    "latitude": 43.361198425293,
    "regions": [
      "106b"
    ]
  },
  {
    "code": "17333",
    "name": "Camboulit",
    "updated_at": "2014-09-22T21:22:21.484600Z",
    "country": "fr",
    "parent": null,
    "longitude": 1.96667003631592,
    "latitude": 44.5999984741211,
    "regions": [
      "1075"
    ]
  },
  {
    "code": "17332",
    "name": "Cambounès",
    "updated_at": "2014-09-22T21:22:21.454293Z",
    "country": "fr",
    "parent": null,
    "longitude": 2.45000004768372,
    "latitude": 43.5833015441895,
    "regions": [
      "1075"
    ]
  },
  {
    "code": "17331",
    "name": "Cambrai",
    "updated_at": "2016-02-09T09:32:33.656072Z",
    "country": "fr",
    "parent": null,
    "longitude": 3.2333300113678,
    "latitude": 50.1666984558105,
    "regions": [
      "1076",
      "1230"
    ]
  },
  {
    "code": "17330",
    "name": "Cambremer",
    "updated_at": "2014-09-22T21:22:21.406100Z",
    "country": "fr",
    "parent": null,
    "longitude": 0.0500000007450581,
    "latitude": 49.1500015258789,
    "regions": [
      "1334"
    ]
  },
  {
    "code": "1732f",
    "name": "Camembert",
    "updated_at": "2014-09-22T21:22:21.388562Z",
    "country": "fr",
    "parent": null,
    "longitude": 0.166666999459267,
    "latitude": 48.9000015258789,
    "regions": [
      "1334"
    ]
  },
  {
    "code": "1732e",
    "name": "Camiers",
    "updated_at": "2014-09-22T21:22:21.370576Z",
    "country": "fr",
    "parent": null,
    "longitude": 1.61667001247406,
    "latitude": 50.5666999816895,
    "regions": [
      "1076"
    ]
  },
  {
    "code": "1732d",
    "name": "Camlez",
    "updated_at": "2014-09-22T21:22:21.352455Z",
    "country": "fr",
    "parent": null,
    "longitude": -3.29999995231628,
    "latitude": 48.7832984924316,
    "regions": [
      "106d"
    ]
  },
  {
    "code": "1732c",
    "name": "Camoël",
    "updated_at": "2014-09-22T21:22:21.334258Z",
    "country": "fr",
    "parent": null,
    "longitude": -2.40000009536743,
    "latitude": 47.4832992553711,
    "regions": [
      "106d"
    ]
  },
  {
    "code": "1732b",
    "name": "Camon",
    "updated_at": "2014-09-22T21:22:21.297928Z",
    "country": "fr",
    "parent": null,
    "longitude": 2.34999990463257,
    "latitude": 49.88330078125,
    "regions": [
      "1078"
    ]
  },
  {
    "code": "1732a",
    "name": "Camou-Cihigue",
    "updated_at": "2014-09-22T21:22:21.254016Z",
    "country": "fr",
    "parent": null,
    "longitude": -0.899999976158142,
    "latitude": 43.11669921875,
    "regions": []
  },
  {
    "code": "17329",
    "name": "Campagnac",
    "updated_at": "2014-09-22T21:22:21.230727Z",
    "country": "fr",
    "parent": null,
    "longitude": 3.08332991600037,
    "latitude": 44.4166984558105,
    "regions": [
      "1075"
    ]
  },
  {
    "code": "17328",
    "name": "Campagne",
    "updated_at": "2014-09-22T21:22:21.174351Z",
    "country": "fr",
    "parent": null,
    "longitude": 0.966666996479034,
    "latitude": 44.9000015258789,
    "regions": [
      "106b"
    ]
  },
  {
    "code": "17327",
    "name": "Campagne-dʼArmagnac",
    "updated_at": "2014-09-22T21:22:21.143432Z",
    "country": "fr",
    "parent": null,
    "longitude": 0.0,
    "latitude": 43.8499984741211,
    "regions": [
      "1075"
    ]
  },
  {
    "code": "17326",
    "name": "Campagne-lès-Hesdin",
    "updated_at": "2014-09-22T21:22:21.112559Z",
    "country": "fr",
    "parent": null,
    "longitude": 1.86667001247406,
    "latitude": 50.4000015258789,
    "regions": [
      "1076"
    ]
  },
  {
    "code": "17325",
    "name": "Campagne-sur-Aude",
    "updated_at": "2014-09-22T21:22:21.093035Z",
    "country": "fr",
    "parent": null,
    "longitude": 2.20000004768372,
    "latitude": 42.9166984558105,
    "regions": [
      "1072"
    ]
  },
  {
    "code": "17324",
    "name": "Campan",
    "updated_at": "2014-09-22T21:22:21.075015Z",
    "country": "fr",
    "parent": null,
    "longitude": 0.166666999459267,
    "latitude": 43.0167007446289,
    "regions": [
      "1075"
    ]
  },
  {
    "code": "17323",
    "name": "Campandré-Valcongrain",
    "updated_at": "2014-09-22T21:22:21.039409Z",
    "country": "fr",
    "parent": null,
    "longitude": -0.583333015441895,
    "latitude": 48.9832992553711,
    "regions": [
      "1334"
    ]
  },
  {
    "code": "17322",
    "name": "Campénéac",
    "updated_at": "2014-09-22T21:22:21.021099Z",
    "country": "fr",
    "parent": null,
    "longitude": -2.29999995231628,
    "latitude": 47.9500007629395,
    "regions": [
      "106d"
    ]
  },
  {
    "code": "17321",
    "name": "Campes",
    "updated_at": "2014-09-22T21:22:21.004463Z",
    "country": "fr",
    "parent": null,
    "longitude": 1.9833300113678,
    "latitude": 44.0666999816895,
    "regions": [
      "1075"
    ]
  },
  {
    "code": "17320",
    "name": "Campigny",
    "updated_at": "2014-09-22T21:22:20.986700Z",
    "country": "fr",
    "parent": null,
    "longitude": 0.550000011920929,
    "latitude": 49.3166999816895,
    "regions": [
      "1335"
    ]
  },
  {
    "code": "1731f",
    "name": "Campo Moro",
    "updated_at": "2016-02-09T09:32:32.341844Z",
    "country": "fr",
    "parent": null,
    "longitude": 8.81667041778564,
    "latitude": 41.61669921875,
    "regions": [
      "115d"
    ]
  },
  {
    "code": "1731e",
    "name": "Camps",
    "updated_at": "2014-09-22T21:22:20.928665Z",
    "country": "fr",
    "parent": null,
    "longitude": 2.0,
    "latitude": 44.9832992553711,
    "regions": [
      "1073"
    ]
  },
  {
    "code": "1731d",
    "name": "Campsas",
    "updated_at": "2014-09-22T21:22:20.905287Z",
    "country": "fr",
    "parent": null,
    "longitude": 1.31666994094849,
    "latitude": 43.9000015258789,
    "regions": []
  },
  {
    "code": "1731c",
    "name": "Camurac",
    "updated_at": "2014-09-22T21:22:20.857385Z",
    "country": "fr",
    "parent": null,
    "longitude": 1.91666996479034,
    "latitude": 42.7999992370605,
    "regions": [
      "1072"
    ]
  },
  {
    "code": "1731b",
    "name": "Canals",
    "updated_at": "2014-09-22T21:22:20.829879Z",
    "country": "fr",
    "parent": null,
    "longitude": 1.28332996368408,
    "latitude": 43.8499984741211,
    "regions": [
      "1075"
    ]
  },
  {
    "code": "1731a",
    "name": "Canapville",
    "updated_at": "2014-09-22T21:22:20.800046Z",
    "country": "fr",
    "parent": null,
    "longitude": 0.133332997560501,
    "latitude": 49.3166999816895,
    "regions": [
      "1334"
    ]
  },
  {
    "code": "17319",
    "name": "Canari",
    "updated_at": "2014-09-22T21:22:20.777618Z",
    "country": "fr",
    "parent": null,
    "longitude": 9.35000038146973,
    "latitude": 42.8499984741211,
    "regions": [
      "115d"
    ]
  },
  {
    "code": "17318",
    "name": "Cancale",
    "updated_at": "2014-09-22T21:22:20.760443Z",
    "country": "fr",
    "parent": null,
    "longitude": -1.85000002384186,
    "latitude": 48.6833000183105,
    "regions": [
      "106d"
    ]
  },
  {
    "code": "17317",
    "name": "Cancon",
    "updated_at": "2014-09-22T21:22:20.742386Z",
    "country": "fr",
    "parent": null,
    "longitude": 0.616666972637177,
    "latitude": 44.5332984924316,
    "regions": [
      "106b"
    ]
  },
  {
    "code": "17316",
    "name": "Candé",
    "updated_at": "2014-09-22T21:22:20.724316Z",
    "country": "fr",
    "parent": null,
    "longitude": -1.03332996368408,
    "latitude": 47.5666999816895,
    "regions": [
      "1077"
    ]
  },
  {
    "code": "17315",
    "name": "Candes-Saint-Martin",
    "updated_at": "2014-09-22T21:22:20.706215Z",
    "country": "fr",
    "parent": null,
    "longitude": 0.0833332985639572,
    "latitude": 47.2167015075684,
    "regions": [
      "106f"
    ]
  },
  {
    "code": "17314",
    "name": "Candé-sur-Beuvron",
    "updated_at": "2014-09-22T21:22:20.688110Z",
    "country": "fr",
    "parent": null,
    "longitude": 1.25,
    "latitude": 47.5,
    "regions": [
      "106f"
    ]
  },
  {
    "code": "17313",
    "name": "Canet",
    "updated_at": "2014-09-22T21:22:20.669286Z",
    "country": "fr",
    "parent": null,
    "longitude": 3.007159948349,
    "latitude": 42.7024002075195,
    "regions": [
      "1072"
    ]
  },
  {
    "code": "17312",
    "name": "Canet-Plage",
    "updated_at": "2014-09-22T21:22:20.627561Z",
    "country": "fr",
    "parent": null,
    "longitude": 3.03332996368408,
    "latitude": 42.7000007629395,
    "regions": [
      "1072"
    ]
  },
  {
    "code": "17311",
    "name": "Cangey",
    "updated_at": "2014-09-22T21:22:20.604561Z",
    "country": "fr",
    "parent": null,
    "longitude": 1.06666994094849,
    "latitude": 47.4667015075684,
    "regions": [
      "106f"
    ]
  },
  {
    "code": "17310",
    "name": "Canisy",
    "updated_at": "2014-09-22T21:22:20.583701Z",
    "country": "fr",
    "parent": null,
    "longitude": -1.16666996479034,
    "latitude": 49.0833015441895,
    "regions": [
      "1334"
    ]
  },
  {
    "code": "1730f",
    "name": "Cannes",
    "updated_at": "2014-09-22T21:22:20.556083Z",
    "country": "fr",
    "parent": null,
    "longitude": 7.02187299728394,
    "latitude": 43.5524490260923,
    "regions": [
      "1079"
    ]
  },
  {
    "code": "1730e",
    "name": "Cannes-Écluse",
    "updated_at": "2014-09-22T21:22:20.533646Z",
    "country": "fr",
    "parent": null,
    "longitude": 2.9833300113678,
    "latitude": 48.36669921875,
    "regions": [
      "116b"
    ]
  },
  {
    "code": "1730d",
    "name": "Canohès",
    "updated_at": "2014-09-22T21:22:20.511709Z",
    "country": "fr",
    "parent": null,
    "longitude": 2.83332991600037,
    "latitude": 42.6500015258789,
    "regions": [
      "1072"
    ]
  },
  {
    "code": "1730c",
    "name": "Mézidon-Canon",
    "updated_at": "2014-09-22T21:22:20.486910Z",
    "country": "fr",
    "parent": null,
    "longitude": -0.100000001490116,
    "latitude": 49.0833015441895,
    "regions": [
      "1334"
    ]
  },
  {
    "code": "1730b",
    "name": "Canouville",
    "updated_at": "2014-09-22T21:22:20.465929Z",
    "country": "fr",
    "parent": null,
    "longitude": 0.600000023841858,
    "latitude": 49.7999992370605,
    "regions": [
      "1335"
    ]
  },
  {
    "code": "1730a",
    "name": "Canteleu",
    "updated_at": "2014-09-22T21:22:20.444694Z",
    "country": "fr",
    "parent": null,
    "longitude": 1.03332996368408,
    "latitude": 49.4500007629395,
    "regions": [
      "1335"
    ]
  },
  {
    "code": "17309",
    "name": "Cantobre",
    "updated_at": "2014-09-22T21:22:20.428274Z",
    "country": "fr",
    "parent": null,
    "longitude": 3.29999995231628,
    "latitude": 44.0499992370605,
    "regions": [
      "1075"
    ]
  },
  {
    "code": "17308",
    "name": "Cantoinet",
    "updated_at": "2014-09-22T21:22:20.411312Z",
    "country": "fr",
    "parent": null,
    "longitude": 2.79999995231628,
    "latitude": 44.8333015441895,
    "regions": []
  },
  {
    "code": "17307",
    "name": "Caours",
    "updated_at": "2014-09-22T21:22:20.394620Z",
    "country": "fr",
    "parent": null,
    "longitude": 1.88332998752594,
    "latitude": 50.13330078125,
    "regions": [
      "1078"
    ]
  },
  {
    "code": "17306",
    "name": "Capbreton",
    "updated_at": "2014-09-22T21:22:20.377560Z",
    "country": "fr",
    "parent": null,
    "longitude": -1.43333005905151,
    "latitude": 43.63330078125,
    "regions": [
      "106b"
    ]
  },
  {
    "code": "17305",
    "name": "Cap d'Ail",
    "updated_at": "2014-09-22T21:22:20.359672Z",
    "country": "fr",
    "parent": null,
    "longitude": 7.4056223630032,
    "latitude": 43.721797777938,
    "regions": [
      "1079"
    ]
  },
  {
    "code": "17304",
    "name": "Capdenac-Gare",
    "updated_at": "2014-09-22T21:22:20.343240Z",
    "country": "fr",
    "parent": null,
    "longitude": 2.08332991600037,
    "latitude": 44.5666999816895,
    "regions": [
      "1075"
    ]
  },
  {
    "code": "17303",
    "name": "Capendu",
    "updated_at": "2014-09-22T21:22:20.325044Z",
    "country": "fr",
    "parent": null,
    "longitude": 2.56666994094849,
    "latitude": 43.1833000183105,
    "regions": [
      "1072"
    ]
  },
  {
    "code": "17302",
    "name": "Capestang",
    "updated_at": "2014-09-22T21:22:20.308325Z",
    "country": "fr",
    "parent": null,
    "longitude": 3.03332996368408,
    "latitude": 43.3333015441895,
    "regions": [
      "1072"
    ]
  },
  {
    "code": "17301",
    "name": "Capian",
    "updated_at": "2014-09-22T21:22:20.292031Z",
    "country": "fr",
    "parent": null,
    "longitude": -0.333332985639572,
    "latitude": 44.7000007629395,
    "regions": [
      "106b"
    ]
  },
  {
    "code": "17300",
    "name": "Capvern",
    "updated_at": "2014-09-22T21:22:20.275865Z",
    "country": "fr",
    "parent": null,
    "longitude": 0.31666699051857,
    "latitude": 43.0999984741211,
    "regions": [
      "1075"
    ]
  },
  {
    "code": "172ff",
    "name": "Carantec",
    "updated_at": "2014-09-22T21:22:20.259694Z",
    "country": "fr",
    "parent": null,
    "longitude": -3.91667008399963,
    "latitude": 48.6666984558105,
    "regions": [
      "106d"
    ]
  },
  {
    "code": "172fe",
    "name": "Carbon-Blanc",
    "updated_at": "2014-09-22T21:22:20.243532Z",
    "country": "fr",
    "parent": null,
    "longitude": -0.5,
    "latitude": 44.88330078125,
    "regions": [
      "106b"
    ]
  },
  {
    "code": "172fd",
    "name": "Carcagny",
    "updated_at": "2014-09-22T21:22:20.227385Z",
    "country": "fr",
    "parent": null,
    "longitude": -0.600000023841858,
    "latitude": 49.2332992553711,
    "regions": [
      "1334"
    ]
  },
  {
    "code": "172fc",
    "name": "Carcans",
    "updated_at": "2014-09-22T21:22:20.210957Z",
    "country": "fr",
    "parent": null,
    "longitude": -1.04999995231628,
    "latitude": 45.0833015441895,
    "regions": [
      "106b"
    ]
  },
  {
    "code": "172fb",
    "name": "Carcassonne",
    "updated_at": "2014-09-22T21:22:20.183837Z",
    "country": "fr",
    "parent": null,
    "longitude": 2.34999990463257,
    "latitude": 43.2167015075684,
    "regions": [
      "1072"
    ]
  },
  {
    "code": "172fa",
    "name": "Carcès",
    "updated_at": "2014-09-22T21:22:20.162528Z",
    "country": "fr",
    "parent": null,
    "longitude": 6.18333005905151,
    "latitude": 43.4667015075684,
    "regions": [
      "1079"
    ]
  },
  {
    "code": "172f9",
    "name": "Carennac",
    "updated_at": "2014-09-22T21:22:20.137441Z",
    "country": "fr",
    "parent": null,
    "longitude": 1.7333300113678,
    "latitude": 44.9166984558105,
    "regions": [
      "1075"
    ]
  },
  {
    "code": "172f8",
    "name": "Carentan",
    "updated_at": "2014-09-22T21:22:20.111340Z",
    "country": "fr",
    "parent": null,
    "longitude": -1.2333300113678,
    "latitude": 49.2999992370605,
    "regions": [
      "1334"
    ]
  },
  {
    "code": "172f7",
    "name": "Carentoir",
    "updated_at": "2014-09-22T21:22:20.092049Z",
    "country": "fr",
    "parent": null,
    "longitude": -2.13333010673523,
    "latitude": 47.8166999816895,
    "regions": [
      "106d"
    ]
  },
  {
    "code": "172f6",
    "name": "Cargèse",
    "updated_at": "2014-09-22T21:22:20.075596Z",
    "country": "fr",
    "parent": null,
    "longitude": 8.58333015441895,
    "latitude": 42.13330078125,
    "regions": [
      "115d"
    ]
  },
  {
    "code": "172f5",
    "name": "Carlepont",
    "updated_at": "2014-09-22T21:22:20.059153Z",
    "country": "fr",
    "parent": null,
    "longitude": 3.0166699886322,
    "latitude": 49.5167007446289,
    "regions": [
      "1078"
    ]
  },
  {
    "code": "172f4",
    "name": "Carlux",
    "updated_at": "2014-09-22T21:22:20.042467Z",
    "country": "fr",
    "parent": null,
    "longitude": 1.35000002384186,
    "latitude": 44.88330078125,
    "regions": [
      "106b"
    ]
  },
  {
    "code": "172f3",
    "name": "Carmaux",
    "updated_at": "2014-09-22T21:22:20.026054Z",
    "country": "fr",
    "parent": null,
    "longitude": 2.15000009536743,
    "latitude": 44.0499992370605,
    "regions": [
      "1075"
    ]
  },
  {
    "code": "172f2",
    "name": "Carnac",
    "updated_at": "2014-09-22T21:22:20.009677Z",
    "country": "fr",
    "parent": null,
    "longitude": -3.08332991600037,
    "latitude": 47.5833015441895,
    "regions": [
      "106d"
    ]
  },
  {
    "code": "172f1",
    "name": "Carnac-Rouffiac",
    "updated_at": "2014-09-22T21:22:19.991789Z",
    "country": "fr",
    "parent": null,
    "longitude": 1.25,
    "latitude": 44.4166984558105,
    "regions": [
      "1075"
    ]
  },
  {
    "code": "172f0",
    "name": "Carnas",
    "updated_at": "2014-09-22T21:22:19.975470Z",
    "country": "fr",
    "parent": null,
    "longitude": 3.9833300113678,
    "latitude": 43.8166999816895,
    "regions": [
      "1072"
    ]
  },
  {
    "code": "172ef",
    "name": "Carret",
    "updated_at": "2014-09-22T21:22:19.959122Z",
    "country": "fr",
    "parent": null,
    "longitude": -1.35000002384186,
    "latitude": 48.5167007446289,
    "regions": [
      "1334"
    ]
  },
  {
    "code": "172ee",
    "name": "Carnon-Plage",
    "updated_at": "2014-09-22T21:22:19.942774Z",
    "country": "fr",
    "parent": null,
    "longitude": 3.97602009773254,
    "latitude": 43.5443000793457,
    "regions": [
      "1072"
    ]
  },
  {
    "code": "172ed",
    "name": "Carnoules",
    "updated_at": "2014-09-22T21:22:19.926032Z",
    "country": "fr",
    "parent": null,
    "longitude": 6.18333005905151,
    "latitude": 43.2999992370605,
    "regions": [
      "1079"
    ]
  },
  {
    "code": "172ec",
    "name": "Carolles",
    "updated_at": "2014-09-22T21:22:19.904890Z",
    "country": "fr",
    "parent": null,
    "longitude": -1.54999995231628,
    "latitude": 48.75,
    "regions": [
      "1334"
    ]
  },
  {
    "code": "172eb",
    "name": "Caromb",
    "updated_at": "2014-09-22T21:22:19.884049Z",
    "country": "fr",
    "parent": null,
    "longitude": 5.09999990463257,
    "latitude": 44.11669921875,
    "regions": [
      "1079"
    ]
  },
  {
    "code": "172ea",
    "name": "Carpentras",
    "updated_at": "2014-09-22T21:22:19.862532Z",
    "country": "fr",
    "parent": null,
    "longitude": 5.05000019073486,
    "latitude": 44.0499992370605,
    "regions": [
      "1079"
    ]
  },
  {
    "code": "172e9",
    "name": "Carquefou",
    "updated_at": "2014-09-22T21:22:19.843711Z",
    "country": "fr",
    "parent": null,
    "longitude": -1.5,
    "latitude": 47.2999992370605,
    "regions": [
      "1077"
    ]
  },
  {
    "code": "172e8",
    "name": "Carqueiranne",
    "updated_at": "2014-09-22T21:22:19.821770Z",
    "country": "fr",
    "parent": null,
    "longitude": 6.07261276236386,
    "latitude": 43.0966209354269,
    "regions": [
      "1079"
    ]
  },
  {
    "code": "172e7",
    "name": "Carrières-sous-Poissy",
    "updated_at": "2014-09-22T21:22:19.799868Z",
    "country": "fr",
    "parent": null,
    "longitude": 2.03332996368408,
    "latitude": 48.9500007629395,
    "regions": [
      "116b"
    ]
  },
  {
    "code": "172e6",
    "name": "Carrières-sur-Seine",
    "updated_at": "2014-09-22T21:22:19.777847Z",
    "country": "fr",
    "parent": null,
    "longitude": 2.18333005905151,
    "latitude": 48.9166984558105,
    "regions": [
      "116b"
    ]
  },
  {
    "code": "172e5",
    "name": "Carro",
    "updated_at": "2014-09-22T21:22:19.753339Z",
    "country": "fr",
    "parent": null,
    "longitude": 5.03332996368408,
    "latitude": 43.3333015441895,
    "regions": [
      "1079"
    ]
  },
  {
    "code": "172e4",
    "name": "Carros",
    "updated_at": "2014-09-22T21:22:19.732603Z",
    "country": "fr",
    "parent": null,
    "longitude": 7.18333005905151,
    "latitude": 43.7999992370605,
    "regions": [
      "1079"
    ]
  },
  {
    "code": "172e3",
    "name": "Carry-le-Rouet",
    "updated_at": "2014-09-22T21:22:19.715916Z",
    "country": "fr",
    "parent": null,
    "longitude": 5.15000009536743,
    "latitude": 43.3333015441895,
    "regions": [
      "1079"
    ]
  },
  {
    "code": "172e2",
    "name": "Carsac-Aillac",
    "updated_at": "2014-09-22T21:22:19.698760Z",
    "country": "fr",
    "parent": null,
    "longitude": 1.25,
    "latitude": 44.8333015441895,
    "regions": [
      "106b"
    ]
  },
  {
    "code": "172e1",
    "name": "Carspach",
    "updated_at": "2014-09-22T21:22:19.682138Z",
    "country": "fr",
    "parent": null,
    "longitude": 7.21667003631592,
    "latitude": 47.61669921875,
    "regions": [
      "106a"
    ]
  },
  {
    "code": "172e0",
    "name": "Carvin",
    "updated_at": "2014-09-22T21:22:19.665871Z",
    "country": "fr",
    "parent": null,
    "longitude": 2.96667003631592,
    "latitude": 50.4832992553711,
    "regions": [
      "1076"
    ]
  },
  {
    "code": "172df",
    "name": "Casa delle Torre",
    "updated_at": "2014-09-22T21:22:19.649490Z",
    "country": "fr",
    "parent": null,
    "longitude": 8.83333015441895,
    "latitude": 41.9333000183105,
    "regions": [
      "115d"
    ]
  },
  {
    "code": "172de",
    "name": "Casaglione",
    "updated_at": "2014-09-22T21:22:19.630324Z",
    "country": "fr",
    "parent": null,
    "longitude": 8.78332996368408,
    "latitude": 42.0666999816895,
    "regions": [
      "115d"
    ]
  },
  {
    "code": "172dd",
    "name": "Casamaccioli",
    "updated_at": "2014-09-22T21:22:19.614132Z",
    "country": "fr",
    "parent": null,
    "longitude": 9.0,
    "latitude": 42.3166999816895,
    "regions": [
      "115d"
    ]
  },
  {
    "code": "172dc",
    "name": "Casanova",
    "updated_at": "2014-09-22T21:22:19.598021Z",
    "country": "fr",
    "parent": null,
    "longitude": 9.36666965484619,
    "latitude": 42.9333000183105,
    "regions": []
  },
  {
    "code": "172db",
    "name": "Cascastel-des-Corbières",
    "updated_at": "2014-09-22T21:22:19.581773Z",
    "country": "fr",
    "parent": null,
    "longitude": 2.75,
    "latitude": 42.9832992553711,
    "regions": [
      "1072"
    ]
  },
  {
    "code": "172da",
    "name": "Caseneuve",
    "updated_at": "2014-09-22T21:22:19.565110Z",
    "country": "fr",
    "parent": null,
    "longitude": 5.48332977294922,
    "latitude": 43.88330078125,
    "regions": [
      "1079"
    ]
  },
  {
    "code": "172d9",
    "name": "Cassagnabère-Tournas",
    "updated_at": "2014-09-22T21:22:19.521314Z",
    "country": "fr",
    "parent": null,
    "longitude": 0.800000011920929,
    "latitude": 43.2332992553711,
    "regions": [
      "1075"
    ]
  },
  {
    "code": "172d8",
    "name": "Cassagnes-Bégonhès",
    "updated_at": "2014-09-22T21:22:19.496768Z",
    "country": "fr",
    "parent": null,
    "longitude": 2.53332996368408,
    "latitude": 44.1666984558105,
    "regions": [
      "1075"
    ]
  },
  {
    "code": "172d7",
    "name": "Cassano",
    "updated_at": "2014-09-22T21:22:19.467431Z",
    "country": "fr",
    "parent": null,
    "longitude": 8.88333034515381,
    "latitude": 42.5332984924316,
    "regions": [
      "115d"
    ]
  },
  {
    "code": "172d6",
    "name": "Cassel",
    "updated_at": "2014-09-22T21:22:19.439944Z",
    "country": "fr",
    "parent": null,
    "longitude": 2.4833300113678,
    "latitude": 50.7999992370605,
    "regions": [
      "1076",
      "1230"
    ]
  },
  {
    "code": "172d5",
    "name": "Casseneuil",
    "updated_at": "2014-09-22T21:22:19.383714Z",
    "country": "fr",
    "parent": null,
    "longitude": 0.616666972637177,
    "latitude": 44.4500007629395,
    "regions": [
      "106b"
    ]
  },
  {
    "code": "172d4",
    "name": "Cassis",
    "updated_at": "2014-09-22T21:22:19.365367Z",
    "country": "fr",
    "parent": null,
    "longitude": 5.53712,
    "latitude": 43.21513,
    "regions": [
      "1079"
    ]
  },
  {
    "code": "172d3",
    "name": "Cast",
    "updated_at": "2014-09-22T21:22:19.347679Z",
    "country": "fr",
    "parent": null,
    "longitude": -4.13332986831665,
    "latitude": 48.1666984558105,
    "regions": [
      "106d"
    ]
  },
  {
    "code": "172d2",
    "name": "Casta",
    "updated_at": "2014-09-22T21:22:19.329190Z",
    "country": "fr",
    "parent": null,
    "longitude": 9.21667003631592,
    "latitude": 42.6666984558105,
    "regions": [
      "115d"
    ]
  },
  {
    "code": "172d1",
    "name": "Castagnac",
    "updated_at": "2014-09-22T21:22:19.308993Z",
    "country": "fr",
    "parent": null,
    "longitude": 1.35000002384186,
    "latitude": 43.2332992553711,
    "regions": [
      "1075"
    ]
  },
  {
    "code": "172d0",
    "name": "Castagniers",
    "updated_at": "2014-09-22T21:22:19.289083Z",
    "country": "fr",
    "parent": null,
    "longitude": 7.23332977294922,
    "latitude": 43.7999992370605,
    "regions": [
      "1079"
    ]
  },
  {
    "code": "172cf",
    "name": "Castanet-Tolosan",
    "updated_at": "2014-09-22T21:22:19.263913Z",
    "country": "fr",
    "parent": null,
    "longitude": 1.5,
    "latitude": 43.5167007446289,
    "regions": [
      "1075"
    ]
  },
  {
    "code": "172ce",
    "name": "Casteide-Candau",
    "updated_at": "2014-09-22T21:22:19.238265Z",
    "country": "fr",
    "parent": null,
    "longitude": -0.566667020320892,
    "latitude": 43.5167007446289,
    "regions": [
      "106b"
    ]
  },
  {
    "code": "172cd",
    "name": "Casteil",
    "updated_at": "2014-09-22T21:22:19.212289Z",
    "country": "fr",
    "parent": null,
    "longitude": 2.40000009536743,
    "latitude": 42.5332984924316,
    "regions": [
      "1072"
    ]
  },
  {
    "code": "172cc",
    "name": "Castelculier",
    "updated_at": "2014-09-22T21:22:19.179794Z",
    "country": "fr",
    "parent": null,
    "longitude": 0.688772022724152,
    "latitude": 44.1747438961565,
    "regions": [
      "106b"
    ]
  },
  {
    "code": "172cb",
    "name": "Castelginest",
    "updated_at": "2014-09-22T21:22:19.144207Z",
    "country": "fr",
    "parent": null,
    "longitude": 1.43333005905151,
    "latitude": 43.7000007629395,
    "regions": [
      "1075"
    ]
  },
  {
    "code": "172ca",
    "name": "Casteljaloux",
    "updated_at": "2014-09-22T21:22:19.110350Z",
    "country": "fr",
    "parent": null,
    "longitude": 0.100000001490116,
    "latitude": 44.3166999816895,
    "regions": [
      "106b"
    ]
  },
  {
    "code": "172c9",
    "name": "Castellane",
    "updated_at": "2014-09-22T21:22:19.072970Z",
    "country": "fr",
    "parent": null,
    "longitude": 6.51667022705078,
    "latitude": 43.8499984741211,
    "regions": [
      "1079"
    ]
  },
  {
    "code": "172c8",
    "name": "Castellar",
    "updated_at": "2014-09-22T21:22:19.053279Z",
    "country": "fr",
    "parent": null,
    "longitude": 7.5,
    "latitude": 43.7999992370605,
    "regions": [
      "1079"
    ]
  },
  {
    "code": "172c7",
    "name": "Castellet",
    "updated_at": "2014-09-22T21:22:19.015207Z",
    "country": "fr",
    "parent": null,
    "longitude": 5.48332977294922,
    "latitude": 43.8499984741211,
    "regions": []
  },
  {
    "code": "172c6",
    "name": "Castelmary",
    "updated_at": "2014-09-22T21:22:18.992977Z",
    "country": "fr",
    "parent": null,
    "longitude": 2.25,
    "latitude": 44.1833000183105,
    "regions": [
      "1075"
    ]
  },
  {
    "code": "172c5",
    "name": "Castelmoron-sur-Lot",
    "updated_at": "2014-09-22T21:22:18.966860Z",
    "country": "fr",
    "parent": null,
    "longitude": 0.5,
    "latitude": 44.4000015258789,
    "regions": [
      "106b"
    ]
  },
  {
    "code": "172c4",
    "name": "Castelnau-dʼArbieu",
    "updated_at": "2014-09-22T21:22:18.915444Z",
    "country": "fr",
    "parent": null,
    "longitude": 0.699999988079071,
    "latitude": 43.88330078125,
    "regions": [
      "1075"
    ]
  },
  {
    "code": "172c3",
    "name": "Castelnaudary",
    "updated_at": "2014-09-22T21:22:18.879289Z",
    "country": "fr",
    "parent": null,
    "longitude": 1.95000004768372,
    "latitude": 43.3166999816895,
    "regions": [
      "1072"
    ]
  },
  {
    "code": "172c2",
    "name": "Castelnau-dʼAuzan",
    "updated_at": "2014-09-22T21:22:18.843076Z",
    "country": "fr",
    "parent": null,
    "longitude": 0.0833332985639572,
    "latitude": 43.9500007629395,
    "regions": [
      "1075"
    ]
  },
  {
    "code": "172c1",
    "name": "Castelnaud-de-Gratecambe",
    "updated_at": "2014-09-22T21:22:18.816943Z",
    "country": "fr",
    "parent": null,
    "longitude": 0.666666984558105,
    "latitude": 44.5,
    "regions": []
  },
  {
    "code": "172c0",
    "name": "Castelnau-de-Lévis",
    "updated_at": "2014-09-22T21:22:18.798385Z",
    "country": "fr",
    "parent": null,
    "longitude": 2.08332991600037,
    "latitude": 43.9333000183105,
    "regions": [
      "1075"
    ]
  },
  {
    "code": "172bf",
    "name": "Castelnau-de-Médoc",
    "updated_at": "2014-09-22T21:22:18.778893Z",
    "country": "fr",
    "parent": null,
    "longitude": -0.800000011920929,
    "latitude": 45.0332984924316,
    "regions": [
      "106b"
    ]
  },
  {
    "code": "172be",
    "name": "Castelnau-de-Montmiral",
    "updated_at": "2014-09-22T21:22:18.758945Z",
    "country": "fr",
    "parent": null,
    "longitude": 1.81666994094849,
    "latitude": 43.9667015075684,
    "regions": [
      "1075"
    ]
  },
  {
    "code": "172bd",
    "name": "Castelnau-de-Montratier",
    "updated_at": "2014-09-22T21:22:18.739169Z",
    "country": "fr",
    "parent": null,
    "longitude": 1.36667001247406,
    "latitude": 44.2667007446289,
    "regions": [
      "1075"
    ]
  },
  {
    "code": "172bc",
    "name": "Castelnau-dʼEstrétefonds",
    "updated_at": "2014-09-22T21:22:18.717050Z",
    "country": "fr",
    "parent": null,
    "longitude": 1.36667001247406,
    "latitude": 43.7832984924316,
    "regions": [
      "1075"
    ]
  },
  {
    "code": "172bb",
    "name": "Castelnaud La Chapelle",
    "updated_at": "2014-09-22T21:22:18.691308Z",
    "country": "fr",
    "parent": null,
    "longitude": 1.16666996479034,
    "latitude": 44.8166999816895,
    "regions": [
      "106b"
    ]
  },
  {
    "code": "172ba",
    "name": "Castelnau-Durban",
    "updated_at": "2014-09-22T21:22:18.665162Z",
    "country": "fr",
    "parent": null,
    "longitude": 1.35000002384186,
    "latitude": 43.0,
    "regions": [
      "1075"
    ]
  },
  {
    "code": "172b9",
    "name": "Castelnau-le-Lez",
    "updated_at": "2014-09-22T21:22:18.632460Z",
    "country": "fr",
    "parent": null,
    "longitude": 3.90000009536743,
    "latitude": 43.63330078125,
    "regions": [
      "1072"
    ]
  },
  {
    "code": "172b8",
    "name": "Castelnau-sur-lʼAuvignon",
    "updated_at": "2014-09-22T21:22:18.596863Z",
    "country": "fr",
    "parent": null,
    "longitude": 0.466666996479034,
    "latitude": 43.9667015075684,
    "regions": [
      "1075"
    ]
  },
  {
    "code": "172b7",
    "name": "Castelnou",
    "updated_at": "2014-09-22T21:22:18.561949Z",
    "country": "fr",
    "parent": null,
    "longitude": 2.70000004768372,
    "latitude": 42.61669921875,
    "regions": [
      "1072"
    ]
  },
  {
    "code": "172b6",
    "name": "Castels",
    "updated_at": "2014-09-22T21:22:18.542491Z",
    "country": "fr",
    "parent": null,
    "longitude": 1.04999995231628,
    "latitude": 44.86669921875,
    "regions": [
      "106b"
    ]
  },
  {
    "code": "172b5",
    "name": "Castelsarrasin",
    "updated_at": "2014-09-22T21:22:18.523264Z",
    "country": "fr",
    "parent": null,
    "longitude": 1.10000002384186,
    "latitude": 44.0332984924316,
    "regions": [
      "1075"
    ]
  },
  {
    "code": "172b4",
    "name": "Castéra-Verduzan",
    "updated_at": "2014-09-22T21:22:18.503552Z",
    "country": "fr",
    "parent": null,
    "longitude": 0.43333300948143,
    "latitude": 43.8166999816895,
    "regions": [
      "1075"
    ]
  },
  {
    "code": "172b3",
    "name": "Castetnau-Camblong",
    "updated_at": "2014-09-22T21:22:18.485414Z",
    "country": "fr",
    "parent": null,
    "longitude": -0.783333003520966,
    "latitude": 43.3333015441895,
    "regions": [
      "106b"
    ]
  },
  {
    "code": "172b2",
    "name": "Castets",
    "updated_at": "2014-09-22T21:22:18.465308Z",
    "country": "fr",
    "parent": null,
    "longitude": -1.14999997615814,
    "latitude": 43.88330078125,
    "regions": [
      "106b"
    ]
  },
  {
    "code": "172b1",
    "name": "Castillon-de-Larboust",
    "updated_at": "2014-09-22T21:22:18.395467Z",
    "country": "fr",
    "parent": null,
    "longitude": 0.533333003520966,
    "latitude": 42.7999992370605,
    "regions": [
      "1075"
    ]
  },
  {
    "code": "172b0",
    "name": "Castillon-du-Gard",
    "updated_at": "2014-09-22T21:22:18.367317Z",
    "country": "fr",
    "parent": null,
    "longitude": 4.55000019073486,
    "latitude": 43.9667015075684,
    "regions": [
      "1072",
      "1079"
    ]
  },
  {
    "code": "172af",
    "name": "Castillon-en-Couserans",
    "updated_at": "2014-09-22T21:22:18.330468Z",
    "country": "fr",
    "parent": null,
    "longitude": 1.03332996368408,
    "latitude": 42.9333000183105,
    "regions": [
      "1075"
    ]
  },
  {
    "code": "172ae",
    "name": "Castillon-la-Bataille",
    "updated_at": "2014-09-22T21:22:18.294334Z",
    "country": "fr",
    "parent": null,
    "longitude": -0.0333333015441895,
    "latitude": 44.8499984741211,
    "regions": [
      "106b"
    ]
  },
  {
    "code": "172ad",
    "name": "Castillon-Massas",
    "updated_at": "2014-09-22T21:22:18.266322Z",
    "country": "fr",
    "parent": null,
    "longitude": 0.533333003520966,
    "latitude": 43.7167015075684,
    "regions": [
      "1075"
    ]
  },
  {
    "code": "172ac",
    "name": "Castillonnès",
    "updated_at": "2014-09-22T21:22:18.246876Z",
    "country": "fr",
    "parent": null,
    "longitude": 0.600000023841858,
    "latitude": 44.6500015258789,
    "regions": [
      "106b"
    ]
  },
  {
    "code": "172ab",
    "name": "Castilly",
    "updated_at": "2014-09-22T21:22:18.227035Z",
    "country": "fr",
    "parent": null,
    "longitude": -1.03332996368408,
    "latitude": 49.2832984924316,
    "regions": [
      "1334"
    ]
  },
  {
    "code": "172aa",
    "name": "Castres",
    "updated_at": "2014-09-22T21:22:18.189745Z",
    "country": "fr",
    "parent": null,
    "longitude": 2.25,
    "latitude": 43.5999984741211,
    "regions": [
      "1075"
    ]
  },
  {
    "code": "172a9",
    "name": "Castries",
    "updated_at": "2014-09-22T21:22:18.169817Z",
    "country": "fr",
    "parent": null,
    "longitude": 3.9833300113678,
    "latitude": 43.6666984558105,
    "regions": [
      "1072"
    ]
  },
  {
    "code": "172a8",
    "name": "Cathervielle",
    "updated_at": "2014-09-22T21:22:18.120927Z",
    "country": "fr",
    "parent": null,
    "longitude": 0.516667008399963,
    "latitude": 42.8166999816895,
    "regions": [
      "1075"
    ]
  },
  {
    "code": "172a7",
    "name": "Cattenom",
    "updated_at": "2014-09-22T21:22:18.092140Z",
    "country": "fr",
    "parent": null,
    "longitude": 6.25,
    "latitude": 49.4166984558105,
    "regions": [
      "1074"
    ]
  },
  {
    "code": "172a6",
    "name": "Catteville",
    "updated_at": "2014-09-22T21:22:18.057426Z",
    "country": "fr",
    "parent": null,
    "longitude": -1.56666994094849,
    "latitude": 49.3499984741211,
    "regions": []
  },
  {
    "code": "172a5",
    "name": "Catus",
    "updated_at": "2014-09-22T21:22:18.020651Z",
    "country": "fr",
    "parent": null,
    "longitude": 1.33333003520966,
    "latitude": 44.5499992370605,
    "regions": [
      "1075"
    ]
  },
  {
    "code": "172a4",
    "name": "Caudan",
    "updated_at": "2014-09-22T21:22:17.988216Z",
    "country": "fr",
    "parent": null,
    "longitude": -3.33332991600037,
    "latitude": 47.8166999816895,
    "regions": [
      "106d"
    ]
  },
  {
    "code": "172a3",
    "name": "Caudebec-en-Caux",
    "updated_at": "2014-09-22T21:22:17.969999Z",
    "country": "fr",
    "parent": null,
    "longitude": 0.733332991600037,
    "latitude": 49.5332984924316,
    "regions": [
      "1335"
    ]
  },
  {
    "code": "172a2",
    "name": "Caudebronde",
    "updated_at": "2014-09-22T21:22:17.951904Z",
    "country": "fr",
    "parent": null,
    "longitude": 2.29999995231628,
    "latitude": 43.38330078125,
    "regions": [
      "1072"
    ]
  },
  {
    "code": "172a1",
    "name": "Caudry",
    "updated_at": "2014-09-22T21:22:17.933434Z",
    "country": "fr",
    "parent": null,
    "longitude": 3.41667008399963,
    "latitude": 50.13330078125,
    "regions": [
      "1076",
      "1230"
    ]
  },
  {
    "code": "172a0",
    "name": "Caumont-lʼÉventé",
    "updated_at": "2014-09-22T21:22:17.896461Z",
    "country": "fr",
    "parent": null,
    "longitude": -0.800000011920929,
    "latitude": 49.0833015441895,
    "regions": [
      "1334"
    ]
  },
  {
    "code": "1729f",
    "name": "Caumont-sur-Durance",
    "updated_at": "2014-09-22T21:22:17.870031Z",
    "country": "fr",
    "parent": null,
    "longitude": 4.94999980926514,
    "latitude": 43.9000015258789,
    "regions": [
      "1079"
    ]
  },
  {
    "code": "1729e",
    "name": "Caunes-Minervois",
    "updated_at": "2014-09-22T21:22:17.841414Z",
    "country": "fr",
    "parent": null,
    "longitude": 2.53332996368408,
    "latitude": 43.3166999816895,
    "regions": [
      "1072"
    ]
  },
  {
    "code": "1729d",
    "name": "Caurel",
    "updated_at": "2014-09-22T21:22:17.814306Z",
    "country": "fr",
    "parent": null,
    "longitude": -3.03332996368408,
    "latitude": 48.2167015075684,
    "regions": [
      "106d"
    ]
  },
  {
    "code": "1729c",
    "name": "Caussade",
    "updated_at": "2014-09-22T21:22:17.751175Z",
    "country": "fr",
    "parent": null,
    "longitude": 1.53332996368408,
    "latitude": 44.1666984558105,
    "regions": [
      "1075"
    ]
  },
  {
    "code": "1729b",
    "name": "Le Causse-de-la-Selle",
    "updated_at": "2014-09-22T21:22:17.716819Z",
    "country": "fr",
    "parent": null,
    "longitude": 3.65000009536743,
    "latitude": 43.7999992370605,
    "regions": [
      "1072"
    ]
  },
  {
    "code": "1729a",
    "name": "Cauterets",
    "updated_at": "2014-09-22T21:22:17.679951Z",
    "country": "fr",
    "parent": null,
    "longitude": -0.116667002439499,
    "latitude": 42.88330078125,
    "regions": [
      "1075"
    ]
  },
  {
    "code": "17299",
    "name": "Cauvigny",
    "updated_at": "2014-09-22T21:22:17.661999Z",
    "country": "fr",
    "parent": null,
    "longitude": 2.25,
    "latitude": 49.2999992370605,
    "regions": [
      "1078"
    ]
  },
  {
    "code": "17298",
    "name": "Caux",
    "updated_at": "2014-09-22T21:22:17.643243Z",
    "country": "fr",
    "parent": null,
    "longitude": 3.36666989326477,
    "latitude": 43.5,
    "regions": [
      "1072"
    ]
  },
  {
    "code": "17297",
    "name": "Caux-et-Sauzens",
    "updated_at": "2014-09-22T21:22:17.624469Z",
    "country": "fr",
    "parent": null,
    "longitude": 2.25,
    "latitude": 43.2332992553711,
    "regions": [
      "1072"
    ]
  },
  {
    "code": "17296",
    "name": "Cavaillon",
    "updated_at": "2014-09-22T21:22:17.580035Z",
    "country": "fr",
    "parent": null,
    "longitude": 5.0410099029541,
    "latitude": 43.8303985595703,
    "regions": [
      "1079"
    ]
  },
  {
    "code": "17295",
    "name": "Cavaillon",
    "updated_at": "2014-09-22T21:22:17.551535Z",
    "country": "fr",
    "parent": null,
    "longitude": 5.28332996368408,
    "latitude": 43.9166984558105,
    "regions": [
      "1079"
    ]
  },
  {
    "code": "17294",
    "name": "Cavalaire-sur-Mer",
    "updated_at": "2014-09-22T21:22:17.519552Z",
    "country": "fr",
    "parent": null,
    "longitude": 6.52880001068115,
    "latitude": 43.1729011535645,
    "regions": [
      "1079"
    ]
  },
  {
    "code": "17293",
    "name": "Cavarc",
    "updated_at": "2014-09-22T21:22:17.484581Z",
    "country": "fr",
    "parent": null,
    "longitude": 0.633333027362823,
    "latitude": 44.6833000183105,
    "regions": [
      "106b"
    ]
  },
  {
    "code": "17292",
    "name": "Caveirac",
    "updated_at": "2014-09-22T21:22:17.447772Z",
    "country": "fr",
    "parent": null,
    "longitude": 4.26667022705078,
    "latitude": 43.8166999816895,
    "regions": [
      "1072",
      "1079"
    ]
  },
  {
    "code": "17291",
    "name": "Cavillargues",
    "updated_at": "2014-09-22T21:22:17.422098Z",
    "country": "fr",
    "parent": null,
    "longitude": 4.51667022705078,
    "latitude": 44.11669921875,
    "regions": [
      "1072",
      "1079"
    ]
  },
  {
    "code": "17290",
    "name": "Cayeux-sur-Mer",
    "updated_at": "2014-09-22T21:22:17.404048Z",
    "country": "fr",
    "parent": null,
    "longitude": 1.4833300113678,
    "latitude": 50.1833000183105,
    "regions": [
      "1078"
    ]
  },
  {
    "code": "1728f",
    "name": "Cayrac",
    "updated_at": "2014-09-22T21:22:17.367431Z",
    "country": "fr",
    "parent": null,
    "longitude": 1.46667003631592,
    "latitude": 44.0999984741211,
    "regions": [
      "1075"
    ]
  },
  {
    "code": "1728e",
    "name": "Cazals",
    "updated_at": "2014-09-22T21:22:17.349026Z",
    "country": "fr",
    "parent": null,
    "longitude": 1.2333300113678,
    "latitude": 44.6500015258789,
    "regions": [
      "1075"
    ]
  },
  {
    "code": "1728d",
    "name": "Cazan",
    "updated_at": "2014-09-22T21:22:17.328920Z",
    "country": "fr",
    "parent": null,
    "longitude": 5.19999980926514,
    "latitude": 43.6833000183105,
    "regions": [
      "1079"
    ]
  },
  {
    "code": "1728c",
    "name": "Cazaubon",
    "updated_at": "2014-09-22T21:22:17.282366Z",
    "country": "fr",
    "parent": null,
    "longitude": -0.0666666999459267,
    "latitude": 43.9333000183105,
    "regions": [
      "1075"
    ]
  },
  {
    "code": "1728b",
    "name": "Cazaunous",
    "updated_at": "2014-09-22T21:22:17.257341Z",
    "country": "fr",
    "parent": null,
    "longitude": 0.733332991600037,
    "latitude": 42.9832992553711,
    "regions": [
      "1075"
    ]
  },
  {
    "code": "1728a",
    "name": "Cazaux",
    "updated_at": "2014-09-22T21:22:17.229367Z",
    "country": "fr",
    "parent": null,
    "longitude": -1.14999997615814,
    "latitude": 44.5332984924316,
    "regions": [
      "106b"
    ]
  },
  {
    "code": "17289",
    "name": "Cazaux-Villecomtal",
    "updated_at": "2014-09-22T21:22:17.196895Z",
    "country": "fr",
    "parent": null,
    "longitude": 0.166666999459267,
    "latitude": 43.4500007629395,
    "regions": [
      "1075"
    ]
  },
  {
    "code": "17288",
    "name": "Cazeneuve-Montaut",
    "updated_at": "2014-09-22T21:22:17.158750Z",
    "country": "fr",
    "parent": null,
    "longitude": 0.866666972637177,
    "latitude": 43.1833000183105,
    "regions": [
      "1075"
    ]
  },
  {
    "code": "17287",
    "name": "Cazères-sur-lʼAdour",
    "updated_at": "2014-09-22T21:22:17.135669Z",
    "country": "fr",
    "parent": null,
    "longitude": -0.31666699051857,
    "latitude": 43.75,
    "regions": [
      "106b"
    ]
  },
  {
    "code": "17286",
    "name": "Cazilhac",
    "updated_at": "2014-09-22T21:22:17.116326Z",
    "country": "fr",
    "parent": null,
    "longitude": 2.36666989326477,
    "latitude": 43.1833000183105,
    "regions": [
      "1072"
    ]
  },
  {
    "code": "17285",
    "name": "Cazilhac",
    "updated_at": "2014-09-22T21:22:17.096850Z",
    "country": "fr",
    "parent": null,
    "longitude": 3.71667003631592,
    "latitude": 43.9166984558105,
    "regions": [
      "1072"
    ]
  },
  {
    "code": "17284",
    "name": "Céaucé",
    "updated_at": "2014-09-22T21:22:17.076713Z",
    "country": "fr",
    "parent": null,
    "longitude": -0.616666972637177,
    "latitude": 48.5,
    "regions": [
      "1334"
    ]
  },
  {
    "code": "17283",
    "name": "Céaux",
    "updated_at": "2014-09-22T21:22:17.056364Z",
    "country": "fr",
    "parent": null,
    "longitude": -1.38332998752594,
    "latitude": 48.63330078125,
    "regions": [
      "1334"
    ]
  },
  {
    "code": "17282",
    "name": "Cébazan",
    "updated_at": "2014-09-22T21:22:17.033389Z",
    "country": "fr",
    "parent": null,
    "longitude": 2.9833300113678,
    "latitude": 43.4000015258789,
    "regions": [
      "1072"
    ]
  },
  {
    "code": "17281",
    "name": "Ceffonds",
    "updated_at": "2014-09-22T21:22:17.006687Z",
    "country": "fr",
    "parent": null,
    "longitude": 4.76667022705078,
    "latitude": 48.4667015075684,
    "regions": [
      "1070"
    ]
  },
  {
    "code": "17280",
    "name": "Ceilhes-et-Rocozels",
    "updated_at": "2014-09-22T21:22:16.980021Z",
    "country": "fr",
    "parent": null,
    "longitude": 3.09999990463257,
    "latitude": 43.7999992370605,
    "regions": [
      "1072"
    ]
  },
  {
    "code": "1727f",
    "name": "Ceillac",
    "updated_at": "2014-09-22T21:22:16.944747Z",
    "country": "fr",
    "parent": null,
    "longitude": 6.78332996368408,
    "latitude": 44.6666984558105,
    "regions": [
      "1079"
    ]
  },
  {
    "code": "1727e",
    "name": "Ceilloux",
    "updated_at": "2014-09-22T21:22:16.906981Z",
    "country": "fr",
    "parent": null,
    "longitude": 3.5166699886322,
    "latitude": 45.6500015258789,
    "regions": [
      "106c"
    ]
  },
  {
    "code": "1727d",
    "name": "Celles-sur-Belle",
    "updated_at": "2014-09-22T21:22:16.853687Z",
    "country": "fr",
    "parent": null,
    "longitude": -0.200000002980232,
    "latitude": 46.2667007446289,
    "regions": [
      "1232"
    ]
  },
  {
    "code": "1727c",
    "name": "Celles-sur-Plaine",
    "updated_at": "2014-09-22T21:22:16.834063Z",
    "country": "fr",
    "parent": null,
    "longitude": 6.94999980926514,
    "latitude": 48.4667015075684,
    "regions": [
      "1074"
    ]
  },
  {
    "code": "1727b",
    "name": "Cellettes",
    "updated_at": "2014-09-22T21:22:16.817333Z",
    "country": "fr",
    "parent": null,
    "longitude": 1.38332998752594,
    "latitude": 47.5332984924316,
    "regions": [
      "106f"
    ]
  },
  {
    "code": "1727a",
    "name": "Celliers",
    "updated_at": "2014-09-22T21:22:16.798795Z",
    "country": "fr",
    "parent": null,
    "longitude": 6.41666984558105,
    "latitude": 45.4667015075684,
    "regions": [
      "107a"
    ]
  },
  {
    "code": "17279",
    "name": "Cellieu",
    "updated_at": "2014-09-22T21:22:16.780366Z",
    "country": "fr",
    "parent": null,
    "longitude": 4.53332996368408,
    "latitude": 45.5167007446289,
    "regions": [
      "107a"
    ]
  },
  {
    "code": "17278",
    "name": "Cénac-et-Saint-Julien",
    "updated_at": "2014-09-22T21:22:16.758695Z",
    "country": "fr",
    "parent": null,
    "longitude": 1.20000004768372,
    "latitude": 44.7999992370605,
    "regions": [
      "106b"
    ]
  },
  {
    "code": "17277",
    "name": "Cendrieux",
    "updated_at": "2014-09-22T21:22:16.729078Z",
    "country": "fr",
    "parent": null,
    "longitude": 0.833333015441895,
    "latitude": 45.0,
    "regions": [
      "106b"
    ]
  },
  {
    "code": "17276",
    "name": "Cenon",
    "updated_at": "2014-09-22T21:22:16.699721Z",
    "country": "fr",
    "parent": null,
    "longitude": -0.533333003520966,
    "latitude": 44.8499984741211,
    "regions": [
      "106b"
    ]
  },
  {
    "code": "17275",
    "name": "Cenon-sur-Vienne",
    "updated_at": "2014-09-22T21:22:16.667907Z",
    "country": "fr",
    "parent": null,
    "longitude": 0.533333003520966,
    "latitude": 46.7667007446289,
    "regions": [
      "1232"
    ]
  },
  {
    "code": "17274",
    "name": "Centuri",
    "updated_at": "2014-09-22T21:22:16.631106Z",
    "country": "fr",
    "parent": null,
    "longitude": 9.35000038146973,
    "latitude": 42.9500007629395,
    "regions": [
      "115d"
    ]
  },
  {
    "code": "17273",
    "name": "Cérans-Foulletourte",
    "updated_at": "2014-09-22T21:22:16.595164Z",
    "country": "fr",
    "parent": null,
    "longitude": 0.0666666999459267,
    "latitude": 47.8333015441895,
    "regions": []
  },
  {
    "code": "17272",
    "name": "Cerbère",
    "updated_at": "2014-09-22T21:22:16.575255Z",
    "country": "fr",
    "parent": null,
    "longitude": 3.16551995277405,
    "latitude": 42.4435005187988,
    "regions": [
      "1072"
    ]
  },
  {
    "code": "17271",
    "name": "Cercoux",
    "updated_at": "2014-09-22T21:22:16.557200Z",
    "country": "fr",
    "parent": null,
    "longitude": -0.200000002980232,
    "latitude": 45.13330078125,
    "regions": [
      "1232"
    ]
  },
  {
    "code": "17270",
    "name": "Cercy-la-Tour",
    "updated_at": "2014-09-22T21:22:16.539120Z",
    "country": "fr",
    "parent": null,
    "longitude": 3.65000009536743,
    "latitude": 46.86669921875,
    "regions": [
      "106e"
    ]
  },
  {
    "code": "1726f",
    "name": "Céré-la-Ronde",
    "updated_at": "2014-09-22T21:22:16.501404Z",
    "country": "fr",
    "parent": null,
    "longitude": 1.18333005905151,
    "latitude": 47.2667007446289,
    "regions": [
      "106f"
    ]
  },
  {
    "code": "1726e",
    "name": "Céreste",
    "updated_at": "2014-09-22T21:22:16.481294Z",
    "country": "fr",
    "parent": null,
    "longitude": 5.58333015441895,
    "latitude": 43.8499984741211,
    "regions": [
      "1079"
    ]
  },
  {
    "code": "1726d",
    "name": "Céret",
    "updated_at": "2014-09-22T21:22:16.462742Z",
    "country": "fr",
    "parent": null,
    "longitude": 2.75,
    "latitude": 42.4832992553711,
    "regions": [
      "1072"
    ]
  },
  {
    "code": "1726c",
    "name": "Cergy",
    "updated_at": "2016-04-15T07:12:22.605181Z",
    "country": "fr",
    "parent": null,
    "longitude": 2.06666994094849,
    "latitude": 49.0332984924316,
    "regions": [
      "116b"
    ]
  },
  {
    "code": "1726b",
    "name": "Cérilly",
    "updated_at": "2014-09-22T21:22:16.423951Z",
    "country": "fr",
    "parent": null,
    "longitude": 2.83332991600037,
    "latitude": 46.61669921875,
    "regions": [
      "106c"
    ]
  },
  {
    "code": "1726a",
    "name": "Cérisy-Buleux",
    "updated_at": "2014-09-22T21:22:16.402673Z",
    "country": "fr",
    "parent": null,
    "longitude": 1.7333300113678,
    "latitude": 49.9832992553711,
    "regions": [
      "1078"
    ]
  },
  {
    "code": "17269",
    "name": "Cerisy-la-Forêt",
    "updated_at": "2014-09-22T21:22:16.381961Z",
    "country": "fr",
    "parent": null,
    "longitude": -0.933332979679108,
    "latitude": 49.2000007629395,
    "regions": [
      "1334"
    ]
  },
  {
    "code": "17268",
    "name": "Cerisy-la-Salle",
    "updated_at": "2014-09-22T21:22:16.364032Z",
    "country": "fr",
    "parent": null,
    "longitude": -1.28332996368408,
    "latitude": 49.0332984924316,
    "regions": [
      "1334"
    ]
  },
  {
    "code": "17267",
    "name": "Cerizay",
    "updated_at": "2014-09-22T21:22:16.345966Z",
    "country": "fr",
    "parent": null,
    "longitude": -0.666666984558105,
    "latitude": 46.8166999816895,
    "regions": [
      "1232"
    ]
  },
  {
    "code": "17266",
    "name": "Cernay",
    "updated_at": "2014-09-22T21:22:16.327679Z",
    "country": "fr",
    "parent": null,
    "longitude": 7.16666984558105,
    "latitude": 47.8166999816895,
    "regions": [
      "106a"
    ]
  },
  {
    "code": "17265",
    "name": "Cernay-la-Ville",
    "updated_at": "2014-09-22T21:22:16.308988Z",
    "country": "fr",
    "parent": null,
    "longitude": 1.96667003631592,
    "latitude": 48.6666984558105,
    "regions": [
      "116b"
    ]
  },
  {
    "code": "17264",
    "name": "Cernex",
    "updated_at": "2014-09-22T21:22:16.268724Z",
    "country": "fr",
    "parent": null,
    "longitude": 6.05000019073486,
    "latitude": 46.0666999816895,
    "regions": [
      "107a"
    ]
  },
  {
    "code": "17263",
    "name": "Cernoy-en-Berry",
    "updated_at": "2014-09-22T21:22:16.248931Z",
    "country": "fr",
    "parent": null,
    "longitude": 2.66667008399963,
    "latitude": 47.5332984924316,
    "regions": [
      "106f"
    ]
  },
  {
    "code": "17262",
    "name": "Céron",
    "updated_at": "2014-09-22T21:22:16.230352Z",
    "country": "fr",
    "parent": null,
    "longitude": 3.93333005905151,
    "latitude": 46.2832984924316,
    "regions": [
      "106c"
    ]
  },
  {
    "code": "17261",
    "name": "Cervières",
    "updated_at": "2014-09-22T21:22:16.209879Z",
    "country": "fr",
    "parent": null,
    "longitude": 6.71667003631592,
    "latitude": 44.86669921875,
    "regions": [
      "1079"
    ]
  },
  {
    "code": "17260",
    "name": "Cervione",
    "updated_at": "2014-09-22T21:22:16.189565Z",
    "country": "fr",
    "parent": null,
    "longitude": 9.48332977294922,
    "latitude": 42.3333015441895,
    "regions": [
      "115d"
    ]
  },
  {
    "code": "1725f",
    "name": "Cessenon",
    "updated_at": "2014-09-22T21:22:16.170185Z",
    "country": "fr",
    "parent": null,
    "longitude": 3.04999995231628,
    "latitude": 43.4333000183105,
    "regions": [
      "1072"
    ]
  },
  {
    "code": "1725e",
    "name": "Cesson-Sévigné",
    "updated_at": "2014-09-22T21:22:16.150636Z",
    "country": "fr",
    "parent": null,
    "longitude": -1.61667001247406,
    "latitude": 48.11669921875,
    "regions": [
      "106d"
    ]
  },
  {
    "code": "1725d",
    "name": "Cestas",
    "updated_at": "2014-09-22T21:22:16.130906Z",
    "country": "fr",
    "parent": null,
    "longitude": -0.683332979679108,
    "latitude": 44.7332992553711,
    "regions": [
      "106b"
    ]
  },
  {
    "code": "1725c",
    "name": "Cestayrols",
    "updated_at": "2014-09-22T21:22:16.111179Z",
    "country": "fr",
    "parent": null,
    "longitude": 1.9833300113678,
    "latitude": 43.9832992553711,
    "regions": [
      "1075"
    ]
  },
  {
    "code": "1725b",
    "name": "Ceton",
    "updated_at": "2014-09-22T21:22:16.092211Z",
    "country": "fr",
    "parent": null,
    "longitude": 0.75,
    "latitude": 48.2167015075684,
    "regions": [
      "1334"
    ]
  },
  {
    "code": "1725a",
    "name": "Cette-Eygun",
    "updated_at": "2014-09-22T21:22:16.066673Z",
    "country": "fr",
    "parent": null,
    "longitude": -0.583333015441895,
    "latitude": 42.9333000183105,
    "regions": [
      "106b"
    ]
  },
  {
    "code": "17259",
    "name": "Ceyreste",
    "updated_at": "2014-09-22T21:22:16.040319Z",
    "country": "fr",
    "parent": null,
    "longitude": 5.63332986831665,
    "latitude": 43.2167015075684,
    "regions": [
      "1079"
    ]
  },
  {
    "code": "17258",
    "name": "Cézac",
    "updated_at": "2014-09-22T21:22:16.013700Z",
    "country": "fr",
    "parent": null,
    "longitude": -0.416667014360428,
    "latitude": 45.0999984741211,
    "regions": [
      "106b"
    ]
  },
  {
    "code": "17257",
    "name": "Chabanais",
    "updated_at": "2014-09-22T21:22:15.982731Z",
    "country": "fr",
    "parent": null,
    "longitude": 0.716666996479034,
    "latitude": 45.86669921875,
    "regions": [
      "1232"
    ]
  },
  {
    "code": "17256",
    "name": "Chabestras",
    "updated_at": "2014-09-22T21:22:15.952051Z",
    "country": "fr",
    "parent": null,
    "longitude": 3.59999990463257,
    "latitude": 44.7667007446289,
    "regions": [
      "1072"
    ]
  },
  {
    "code": "17255",
    "name": "Chabeuil",
    "updated_at": "2014-09-22T21:22:15.927089Z",
    "country": "fr",
    "parent": null,
    "longitude": 5.01667022705078,
    "latitude": 44.9000015258789,
    "regions": [
      "107a"
    ]
  },
  {
    "code": "17254",
    "name": "Chablis",
    "updated_at": "2014-09-22T21:22:15.907779Z",
    "country": "fr",
    "parent": null,
    "longitude": 3.79999995231628,
    "latitude": 47.8166999816895,
    "regions": [
      "106e"
    ]
  },
  {
    "code": "17253",
    "name": "Chabrac",
    "updated_at": "2014-09-22T21:22:15.871017Z",
    "country": "fr",
    "parent": null,
    "longitude": 0.733332991600037,
    "latitude": 45.9333000183105,
    "regions": [
      "1232"
    ]
  },
  {
    "code": "17252",
    "name": "Chabreyras",
    "updated_at": "2014-09-22T21:22:15.850968Z",
    "country": "fr",
    "parent": null,
    "longitude": 3.40000009536743,
    "latitude": 45.5167007446289,
    "regions": []
  },
  {
    "code": "17251",
    "name": "Chabrières",
    "updated_at": "2014-09-22T21:22:15.832303Z",
    "country": "fr",
    "parent": null,
    "longitude": 6.28332996368408,
    "latitude": 44.0,
    "regions": [
      "1079"
    ]
  },
  {
    "code": "17250",
    "name": "Chabrillan",
    "updated_at": "2014-09-22T21:22:15.805139Z",
    "country": "fr",
    "parent": null,
    "longitude": 4.93333005905151,
    "latitude": 44.7167015075684,
    "regions": [
      "107a"
    ]
  },
  {
    "code": "1724f",
    "name": "Chabris",
    "updated_at": "2014-09-22T21:22:15.775901Z",
    "country": "fr",
    "parent": null,
    "longitude": 1.64999997615814,
    "latitude": 47.25,
    "regions": [
      "106f"
    ]
  },
  {
    "code": "1724e",
    "name": "Chagny",
    "updated_at": "2014-09-22T21:22:15.722025Z",
    "country": "fr",
    "parent": null,
    "longitude": 4.75,
    "latitude": 46.9166984558105,
    "regions": [
      "106e"
    ]
  },
  {
    "code": "1724d",
    "name": "Chahaignes",
    "updated_at": "2014-09-22T21:22:15.687899Z",
    "country": "fr",
    "parent": null,
    "longitude": 0.516667008399963,
    "latitude": 47.7332992553711,
    "regions": [
      "1077"
    ]
  },
  {
    "code": "1724c",
    "name": "Chaignes",
    "updated_at": "2014-09-22T21:22:15.657911Z",
    "country": "fr",
    "parent": null,
    "longitude": 1.45000004768372,
    "latitude": 49.0167007446289,
    "regions": [
      "1335"
    ]
  },
  {
    "code": "1724b",
    "name": "Chaillac",
    "updated_at": "2014-09-22T21:22:15.640180Z",
    "country": "fr",
    "parent": null,
    "longitude": 1.29999995231628,
    "latitude": 46.4333000183105,
    "regions": [
      "106f"
    ]
  },
  {
    "code": "1724a",
    "name": "Chaintré",
    "updated_at": "2014-09-22T21:22:15.621377Z",
    "country": "fr",
    "parent": null,
    "longitude": 4.76667022705078,
    "latitude": 46.2667007446289,
    "regions": [
      "106e"
    ]
  },
  {
    "code": "17249",
    "name": "Chaise-Dieu-du-Theil",
    "updated_at": "2014-09-22T21:22:15.603331Z",
    "country": "fr",
    "parent": null,
    "longitude": 0.766667008399963,
    "latitude": 48.7667007446289,
    "regions": [
      "1335"
    ]
  },
  {
    "code": "17248",
    "name": "Chalabre",
    "updated_at": "2014-09-22T21:22:15.585133Z",
    "country": "fr",
    "parent": null,
    "longitude": 2.0,
    "latitude": 42.9832992553711,
    "regions": [
      "1072"
    ]
  },
  {
    "code": "17247",
    "name": "Chalais",
    "updated_at": "2014-09-22T21:22:15.567131Z",
    "country": "fr",
    "parent": null,
    "longitude": 0.0333333015441895,
    "latitude": 45.2832984924316,
    "regions": [
      "1232"
    ]
  },
  {
    "code": "17246",
    "name": "Chalandry-Élaire",
    "updated_at": "2014-09-22T21:22:15.541635Z",
    "country": "fr",
    "parent": null,
    "longitude": 4.75,
    "latitude": 49.7167015075684,
    "regions": [
      "1070"
    ]
  },
  {
    "code": "17245",
    "name": "Chaleix",
    "updated_at": "2014-09-22T21:22:15.512452Z",
    "country": "fr",
    "parent": null,
    "longitude": 0.916666984558105,
    "latitude": 45.5167007446289,
    "regions": [
      "106b"
    ]
  },
  {
    "code": "17244",
    "name": "Chalezeule",
    "updated_at": "2014-09-22T21:22:15.489119Z",
    "country": "fr",
    "parent": null,
    "longitude": 6.08333015441895,
    "latitude": 47.2667007446289,
    "regions": [
      "1071"
    ]
  },
  {
    "code": "17243",
    "name": "Chalifert",
    "updated_at": "2014-09-22T21:22:15.457946Z",
    "country": "fr",
    "parent": null,
    "longitude": 2.7666699886322,
    "latitude": 48.88330078125,
    "regions": [
      "116b"
    ]
  },
  {
    "code": "17242",
    "name": "Chalinargues",
    "updated_at": "2014-09-22T21:22:15.426587Z",
    "country": "fr",
    "parent": null,
    "longitude": 2.93333005905151,
    "latitude": 45.1500015258789,
    "regions": [
      "106c"
    ]
  },
  {
    "code": "17241",
    "name": "Challans",
    "updated_at": "2014-09-22T21:22:15.397580Z",
    "country": "fr",
    "parent": null,
    "longitude": -1.88332998752594,
    "latitude": 46.8499984741211,
    "regions": [
      "1077"
    ]
  },
  {
    "code": "17240",
    "name": "Challes",
    "updated_at": "2014-09-22T21:22:15.378324Z",
    "country": "fr",
    "parent": null,
    "longitude": 5.46667003631592,
    "latitude": 46.13330078125,
    "regions": []
  },
  {
    "code": "1723f",
    "name": "Challes-les-Eaux",
    "updated_at": "2014-09-22T21:22:15.342612Z",
    "country": "fr",
    "parent": null,
    "longitude": 5.98332977294922,
    "latitude": 45.5499992370605,
    "regions": [
      "107a"
    ]
  },
  {
    "code": "1723e",
    "name": "Challuy",
    "updated_at": "2014-09-22T21:22:15.324672Z",
    "country": "fr",
    "parent": null,
    "longitude": 3.15000009536743,
    "latitude": 46.9500007629395,
    "regions": [
      "106e"
    ]
  },
  {
    "code": "1723d",
    "name": "Chalmazel",
    "updated_at": "2014-09-22T21:22:15.306476Z",
    "country": "fr",
    "parent": null,
    "longitude": 3.84999990463257,
    "latitude": 45.7000007629395,
    "regions": [
      "107a"
    ]
  },
  {
    "code": "1723c",
    "name": "Chalonnes-sur-Loire",
    "updated_at": "2014-09-22T21:22:15.283130Z",
    "country": "fr",
    "parent": null,
    "longitude": -0.766667008399963,
    "latitude": 47.3499984741211,
    "regions": [
      "1077"
    ]
  },
  {
    "code": "1723b",
    "name": "Chalon-sur-Saône",
    "updated_at": "2014-09-22T21:22:15.253801Z",
    "country": "fr",
    "parent": null,
    "longitude": 4.84999990463257,
    "latitude": 46.7832984924316,
    "regions": [
      "106e"
    ]
  },
  {
    "code": "1723a",
    "name": "Chalvignac",
    "updated_at": "2014-09-22T21:22:15.224587Z",
    "country": "fr",
    "parent": null,
    "longitude": 2.25,
    "latitude": 45.25,
    "regions": [
      "106c"
    ]
  },
  {
    "code": "17239",
    "name": "Chamalières",
    "updated_at": "2014-09-22T21:22:15.199872Z",
    "country": "fr",
    "parent": null,
    "longitude": 3.06666994094849,
    "latitude": 45.7832984924316,
    "regions": [
      "106c"
    ]
  },
  {
    "code": "17238",
    "name": "Chamalières-sur-Loire",
    "updated_at": "2014-09-22T21:22:15.169381Z",
    "country": "fr",
    "parent": null,
    "longitude": 3.9833300113678,
    "latitude": 45.2000007629395,
    "regions": [
      "106c"
    ]
  },
  {
    "code": "17237",
    "name": "Chamant",
    "updated_at": "2014-09-22T21:22:15.134401Z",
    "country": "fr",
    "parent": null,
    "longitude": 2.61666989326477,
    "latitude": 49.2167015075684,
    "regions": [
      "1078"
    ]
  },
  {
    "code": "17236",
    "name": "Chambellay",
    "updated_at": "2014-09-22T21:22:15.112915Z",
    "country": "fr",
    "parent": null,
    "longitude": -0.683332979679108,
    "latitude": 47.6833000183105,
    "regions": [
      "1077"
    ]
  },
  {
    "code": "17235",
    "name": "Chambéry",
    "updated_at": "2014-09-22T21:22:15.077693Z",
    "country": "fr",
    "parent": null,
    "longitude": 5.93333005905151,
    "latitude": 45.5666999816895,
    "regions": [
      "107a"
    ]
  },
  {
    "code": "17234",
    "name": "Chambles",
    "updated_at": "2014-09-22T21:22:15.059617Z",
    "country": "fr",
    "parent": null,
    "longitude": 4.23332977294922,
    "latitude": 45.4500007629395,
    "regions": [
      "107a"
    ]
  },
  {
    "code": "17233",
    "name": "Chambly",
    "updated_at": "2014-09-22T21:22:15.041349Z",
    "country": "fr",
    "parent": null,
    "longitude": 2.25,
    "latitude": 49.1666984558105,
    "regions": [
      "1078"
    ]
  },
  {
    "code": "17232",
    "name": "Chamboeuf",
    "updated_at": "2014-09-22T21:22:15.023390Z",
    "country": "fr",
    "parent": null,
    "longitude": 4.90000009536743,
    "latitude": 47.2332992553711,
    "regions": [
      "106e"
    ]
  },
  {
    "code": "17231",
    "name": "Chambolle-Musigny",
    "updated_at": "2014-09-22T21:22:14.994689Z",
    "country": "fr",
    "parent": null,
    "longitude": 4.94999980926514,
    "latitude": 47.1833000183105,
    "regions": [
      "106e"
    ]
  },
  {
    "code": "17230",
    "name": "Chambon",
    "updated_at": "2014-09-22T21:22:14.965807Z",
    "country": "fr",
    "parent": null,
    "longitude": 4.0,
    "latitude": 44.2999992370605,
    "regions": [
      "1072"
    ]
  },
  {
    "code": "1722f",
    "name": "Chambonas",
    "updated_at": "2014-09-22T21:22:14.935324Z",
    "country": "fr",
    "parent": null,
    "longitude": 4.09999990463257,
    "latitude": 44.4166984558105,
    "regions": [
      "107a"
    ]
  },
  {
    "code": "1722e",
    "name": "Chambon-sur-Cisse",
    "updated_at": "2014-09-22T21:22:14.898631Z",
    "country": "fr",
    "parent": null,
    "longitude": 1.21667003631592,
    "latitude": 47.5666999816895,
    "regions": [
      "106f"
    ]
  },
  {
    "code": "1722d",
    "name": "Chambon-sur-Lac",
    "updated_at": "2014-09-22T21:22:14.840995Z",
    "country": "fr",
    "parent": null,
    "longitude": 2.90000009536743,
    "latitude": 45.5666999816895,
    "regions": [
      "106c"
    ]
  },
  {
    "code": "1722c",
    "name": "Chambon-sur-Voueize",
    "updated_at": "2014-09-22T21:22:14.821714Z",
    "country": "fr",
    "parent": null,
    "longitude": 2.41667008399963,
    "latitude": 46.1833000183105,
    "regions": [
      "1073"
    ]
  },
  {
    "code": "1722b",
    "name": "Chambord",
    "updated_at": "2014-09-22T21:22:14.802291Z",
    "country": "fr",
    "parent": null,
    "longitude": 1.5166699886322,
    "latitude": 47.61669921875,
    "regions": []
  },
  {
    "code": "1722a",
    "name": "Chamboret",
    "updated_at": "2014-09-22T21:22:14.782703Z",
    "country": "fr",
    "parent": null,
    "longitude": 1.13332998752594,
    "latitude": 46.0,
    "regions": [
      "1073"
    ]
  },
  {
    "code": "17229",
    "name": "Chamboulive",
    "updated_at": "2014-09-22T21:22:14.740863Z",
    "country": "fr",
    "parent": null,
    "longitude": 1.70000004768372,
    "latitude": 45.4333000183105,
    "regions": [
      "1073"
    ]
  },
  {
    "code": "17228",
    "name": "Chambourg-sur-Indre",
    "updated_at": "2014-09-22T21:22:14.714444Z",
    "country": "fr",
    "parent": null,
    "longitude": 0.966666996479034,
    "latitude": 47.1833000183105,
    "regions": [
      "106f"
    ]
  },
  {
    "code": "17227",
    "name": "Chambray",
    "updated_at": "2014-09-22T21:22:14.688228Z",
    "country": "fr",
    "parent": null,
    "longitude": 1.31666994094849,
    "latitude": 49.0833015441895,
    "regions": []
  },
  {
    "code": "17226",
    "name": "Chambray-lès-Tours",
    "updated_at": "2014-09-22T21:22:14.656325Z",
    "country": "fr",
    "parent": null,
    "longitude": 0.716666996479034,
    "latitude": 47.3333015441895,
    "regions": [
      "106f"
    ]
  },
  {
    "code": "17225",
    "name": "Chambretaud",
    "updated_at": "2014-09-22T21:22:14.626710Z",
    "country": "fr",
    "parent": null,
    "longitude": -0.966666996479034,
    "latitude": 46.9166984558105,
    "regions": [
      "1077"
    ]
  },
  {
    "code": "17224",
    "name": "Chamelet",
    "updated_at": "2014-09-22T21:22:14.589315Z",
    "country": "fr",
    "parent": null,
    "longitude": 4.51667022705078,
    "latitude": 45.9832992553711,
    "regions": []
  },
  {
    "code": "17223",
    "name": "Chamery",
    "updated_at": "2014-09-22T21:22:14.568345Z",
    "country": "fr",
    "parent": null,
    "longitude": 3.96667003631592,
    "latitude": 49.1666984558105,
    "regions": [
      "1070"
    ]
  },
  {
    "code": "17222",
    "name": "Chamigny",
    "updated_at": "2014-09-22T21:22:14.548992Z",
    "country": "fr",
    "parent": null,
    "longitude": 3.15000009536743,
    "latitude": 48.9832992553711,
    "regions": [
      "116b"
    ]
  },
  {
    "code": "17221",
    "name": "Chamonix-Mont-Blanc",
    "updated_at": "2014-09-22T21:22:14.529658Z",
    "country": "fr",
    "parent": null,
    "longitude": 6.86761522258166,
    "latitude": 45.9235338824777,
    "regions": [
      "107a"
    ]
  },
  {
    "code": "17220",
    "name": "Chamouille",
    "updated_at": "2014-09-22T21:22:14.510177Z",
    "country": "fr",
    "parent": null,
    "longitude": 3.66667008399963,
    "latitude": 49.4667015075684,
    "regions": [
      "1078"
    ]
  },
  {
    "code": "1721f",
    "name": "Chamouilley",
    "updated_at": "2014-09-22T21:22:14.490576Z",
    "country": "fr",
    "parent": null,
    "longitude": 5.05000019073486,
    "latitude": 48.5999984741211,
    "regions": [
      "1070"
    ]
  },
  {
    "code": "1721e",
    "name": "Champagnac-de-Bélair",
    "updated_at": "2014-09-22T21:22:14.467432Z",
    "country": "fr",
    "parent": null,
    "longitude": 0.699999988079071,
    "latitude": 45.4000015258789,
    "regions": [
      "106b"
    ]
  },
  {
    "code": "1721d",
    "name": "Champagnac-le-Vieux",
    "updated_at": "2014-09-22T21:22:14.440991Z",
    "country": "fr",
    "parent": null,
    "longitude": 3.5,
    "latitude": 45.3499984741211,
    "regions": [
      "106c"
    ]
  },
  {
    "code": "1721c",
    "name": "Champagne-au-Mont-dʼOr",
    "updated_at": "2014-09-22T21:22:14.414901Z",
    "country": "fr",
    "parent": null,
    "longitude": 4.78332996368408,
    "latitude": 45.7999992370605,
    "regions": [
      "107a"
    ]
  },
  {
    "code": "1721b",
    "name": "Champagne-et-Fontaine",
    "updated_at": "2014-09-22T21:22:14.380137Z",
    "country": "fr",
    "parent": null,
    "longitude": 0.31666699051857,
    "latitude": 45.4166984558105,
    "regions": [
      "106b"
    ]
  },
  {
    "code": "1721a",
    "name": "Champagné-les-Marais",
    "updated_at": "2014-09-22T21:22:14.346223Z",
    "country": "fr",
    "parent": null,
    "longitude": -1.13332998752594,
    "latitude": 46.36669921875,
    "regions": [
      "1077"
    ]
  },
  {
    "code": "17219",
    "name": "Champagne-sur-Vingeanne",
    "updated_at": "2014-09-22T21:22:14.318323Z",
    "country": "fr",
    "parent": null,
    "longitude": 5.40000009536743,
    "latitude": 47.4500007629395,
    "regions": [
      "106e"
    ]
  },
  {
    "code": "17218",
    "name": "Champagneux",
    "updated_at": "2014-09-22T21:22:14.299021Z",
    "country": "fr",
    "parent": null,
    "longitude": 5.66666984558105,
    "latitude": 45.61669921875,
    "regions": [
      "107a"
    ]
  },
  {
    "code": "17217",
    "name": "Champagney",
    "updated_at": "2014-09-22T21:22:14.279668Z",
    "country": "fr",
    "parent": null,
    "longitude": 6.68333005905151,
    "latitude": 47.7000007629395,
    "regions": [
      "1071"
    ]
  },
  {
    "code": "17216",
    "name": "Champagnole",
    "updated_at": "2014-09-22T21:22:14.260210Z",
    "country": "fr",
    "parent": null,
    "longitude": 5.91666984558105,
    "latitude": 46.75,
    "regions": [
      "1071"
    ]
  },
  {
    "code": "17215",
    "name": "Champagny En Vanoise",
    "updated_at": "2014-09-22T21:22:14.240474Z",
    "country": "fr",
    "parent": null,
    "longitude": 6.69999980926514,
    "latitude": 45.4500007629395,
    "regions": [
      "107a"
    ]
  },
  {
    "code": "17214",
    "name": "Champagny-sous-Uxelles",
    "updated_at": "2014-09-22T21:22:14.220995Z",
    "country": "fr",
    "parent": null,
    "longitude": 4.73332977294922,
    "latitude": 46.5833015441895,
    "regions": [
      "106e"
    ]
  },
  {
    "code": "17213",
    "name": "Champanges",
    "updated_at": "2014-09-22T21:22:14.194915Z",
    "country": "fr",
    "parent": null,
    "longitude": 6.55000019073486,
    "latitude": 46.36669921875,
    "regions": [
      "107a"
    ]
  },
  {
    "code": "17212",
    "name": "Champcerie",
    "updated_at": "2014-09-22T21:22:14.168431Z",
    "country": "fr",
    "parent": null,
    "longitude": -0.216666996479034,
    "latitude": 48.7999992370605,
    "regions": [
      "1334"
    ]
  },
  {
    "code": "17211",
    "name": "Champcervon",
    "updated_at": "2014-09-22T21:22:14.139391Z",
    "country": "fr",
    "parent": null,
    "longitude": -1.39999997615814,
    "latitude": 48.7832984924316,
    "regions": [
      "1334"
    ]
  },
  {
    "code": "17210",
    "name": "Champcevinel",
    "updated_at": "2014-09-22T21:22:10.648039Z",
    "country": "fr",
    "parent": null,
    "longitude": 0.733332991600037,
    "latitude": 45.2167015075684,
    "regions": [
      "106b"
    ]
  },
  {
    "code": "1720f",
    "name": "Champdeniers",
    "updated_at": "2014-09-22T21:22:10.613194Z",
    "country": "fr",
    "parent": null,
    "longitude": -0.400000005960464,
    "latitude": 46.4832992553711,
    "regions": [
      "1232"
    ]
  },
  {
    "code": "1720e",
    "name": "Champdray",
    "updated_at": "2014-09-22T21:22:10.593836Z",
    "country": "fr",
    "parent": null,
    "longitude": 6.75,
    "latitude": 48.13330078125,
    "regions": [
      "1074"
    ]
  },
  {
    "code": "1720d",
    "name": "Champ-du-Boult",
    "updated_at": "2014-09-22T21:22:10.574602Z",
    "country": "fr",
    "parent": null,
    "longitude": -1.0,
    "latitude": 48.7999992370605,
    "regions": [
      "1334"
    ]
  },
  {
    "code": "1720c",
    "name": "Champeaux",
    "updated_at": "2014-09-22T21:22:10.555154Z",
    "country": "fr",
    "parent": null,
    "longitude": -1.53332996368408,
    "latitude": 48.7332992553711,
    "regions": [
      "1334"
    ]
  },
  {
    "code": "1720b",
    "name": "Champclause",
    "updated_at": "2014-09-22T21:22:10.535608Z",
    "country": "fr",
    "parent": null,
    "longitude": 4.16666984558105,
    "latitude": 45.0167007446289,
    "regions": [
      "106c"
    ]
  },
  {
    "code": "1720a",
    "name": "Champforgeuil",
    "updated_at": "2014-09-22T21:22:10.516047Z",
    "country": "fr",
    "parent": null,
    "longitude": 4.83333015441895,
    "latitude": 46.8166999816895,
    "regions": [
      "106e"
    ]
  },
  {
    "code": "17209",
    "name": "Champfrémont",
    "updated_at": "2014-09-22T21:22:10.492777Z",
    "country": "fr",
    "parent": null,
    "longitude": -0.0833332985639572,
    "latitude": 48.4333000183105,
    "regions": [
      "1077"
    ]
  },
  {
    "code": "17208",
    "name": "Champigné",
    "updated_at": "2014-09-22T21:22:10.466593Z",
    "country": "fr",
    "parent": null,
    "longitude": -0.566667020320892,
    "latitude": 47.6666984558105,
    "regions": [
      "1077"
    ]
  },
  {
    "code": "17207",
    "name": "Champignolles",
    "updated_at": "2014-09-22T21:22:10.440900Z",
    "country": "fr",
    "parent": null,
    "longitude": 0.766667008399963,
    "latitude": 48.9667015075684,
    "regions": [
      "1335"
    ]
  },
  {
    "code": "17206",
    "name": "Champigny-en-Beauce",
    "updated_at": "2014-09-22T21:22:10.406895Z",
    "country": "fr",
    "parent": null,
    "longitude": 1.25,
    "latitude": 47.7167015075684,
    "regions": []
  },
  {
    "code": "17205",
    "name": "Champigny-sur-Marne",
    "updated_at": "2014-09-22T21:22:10.372869Z",
    "country": "fr",
    "parent": null,
    "longitude": 2.5166699886322,
    "latitude": 48.8166999816895,
    "regions": [
      "116b"
    ]
  },
  {
    "code": "17204",
    "name": "Champillon",
    "updated_at": "2014-09-22T21:22:10.324616Z",
    "country": "fr",
    "parent": null,
    "longitude": 3.9833300113678,
    "latitude": 49.0833015441895,
    "regions": [
      "1070"
    ]
  },
  {
    "code": "17203",
    "name": "Champ-le-Duc",
    "updated_at": "2014-09-22T21:22:10.305326Z",
    "country": "fr",
    "parent": null,
    "longitude": 6.71667003631592,
    "latitude": 48.2000007629395,
    "regions": [
      "1074"
    ]
  },
  {
    "code": "17202",
    "name": "Champlitte-et-le-Prélot",
    "updated_at": "2014-09-22T21:22:10.287751Z",
    "country": "fr",
    "parent": null,
    "longitude": 5.51667022705078,
    "latitude": 47.61669921875,
    "regions": [
      "1071"
    ]
  },
  {
    "code": "17201",
    "name": "Champniers",
    "updated_at": "2014-09-22T21:22:10.269484Z",
    "country": "fr",
    "parent": null,
    "longitude": 0.200000002980232,
    "latitude": 45.7167015075684,
    "regions": [
      "1232"
    ]
  },
  {
    "code": "17200",
    "name": "Champoléon",
    "updated_at": "2014-09-22T21:22:10.228227Z",
    "country": "fr",
    "parent": null,
    "longitude": 6.23332977294922,
    "latitude": 44.7332992553711,
    "regions": [
      "1079"
    ]
  },
  {
    "code": "171ff",
    "name": "Champs-Sur-Marne",
    "updated_at": "2014-09-22T21:22:10.202222Z",
    "country": "fr",
    "parent": null,
    "longitude": 2.59999990463257,
    "latitude": 48.8499984741211,
    "regions": [
      "116b"
    ]
  },
  {
    "code": "171fe",
    "name": "Champtoceaux",
    "updated_at": "2014-09-22T21:22:10.176481Z",
    "country": "fr",
    "parent": null,
    "longitude": -1.2666699886322,
    "latitude": 47.3333015441895,
    "regions": [
      "1077"
    ]
  },
  {
    "code": "171fd",
    "name": "Chamrousse",
    "updated_at": "2014-09-22T21:22:10.105529Z",
    "country": "fr",
    "parent": null,
    "longitude": 5.90000009536743,
    "latitude": 45.13330078125,
    "regions": [
      "107a"
    ]
  },
  {
    "code": "171fc",
    "name": "Chanac",
    "updated_at": "2014-09-22T21:22:10.077373Z",
    "country": "fr",
    "parent": null,
    "longitude": 3.33332991600037,
    "latitude": 44.4667015075684,
    "regions": [
      "1072"
    ]
  },
  {
    "code": "171fb",
    "name": "Chanas",
    "updated_at": "2014-09-22T21:22:10.057514Z",
    "country": "fr",
    "parent": null,
    "longitude": 4.81666994094849,
    "latitude": 45.2999992370605,
    "regions": [
      "107a"
    ]
  },
  {
    "code": "171fa",
    "name": "Chanaz",
    "updated_at": "2014-09-22T21:22:10.038014Z",
    "country": "fr",
    "parent": null,
    "longitude": 5.78332996368408,
    "latitude": 45.7999992370605,
    "regions": [
      "107a"
    ]
  },
  {
    "code": "171f9",
    "name": "Chancelade",
    "updated_at": "2014-09-22T21:22:09.998487Z",
    "country": "fr",
    "parent": null,
    "longitude": 0.666666984558105,
    "latitude": 45.2000007629395,
    "regions": [
      "106b"
    ]
  },
  {
    "code": "171f8",
    "name": "Chandelles",
    "updated_at": "2014-09-22T21:22:09.978326Z",
    "country": "fr",
    "parent": null,
    "longitude": 1.54999995231628,
    "latitude": 48.63330078125,
    "regions": [
      "106f"
    ]
  },
  {
    "code": "171f7",
    "name": "Chandolas",
    "updated_at": "2014-09-22T21:22:09.952647Z",
    "country": "fr",
    "parent": null,
    "longitude": 4.26667022705078,
    "latitude": 44.4000015258789,
    "regions": [
      "107a"
    ]
  },
  {
    "code": "171f6",
    "name": "Chaneins",
    "updated_at": "2014-09-22T21:22:09.924015Z",
    "country": "fr",
    "parent": null,
    "longitude": 4.84999990463257,
    "latitude": 46.0999984741211,
    "regions": [
      "107a"
    ]
  },
  {
    "code": "171f5",
    "name": "Changé",
    "updated_at": "2014-09-22T21:22:09.893968Z",
    "country": "fr",
    "parent": null,
    "longitude": -0.800000011920929,
    "latitude": 48.0999984741211,
    "regions": [
      "1077"
    ]
  },
  {
    "code": "171f4",
    "name": "Chaniers",
    "updated_at": "2014-09-22T21:22:09.820635Z",
    "country": "fr",
    "parent": null,
    "longitude": -0.550000011920929,
    "latitude": 45.7167015075684,
    "regions": [
      "1232"
    ]
  },
  {
    "code": "171f3",
    "name": "Channay-sur-Lathan",
    "updated_at": "2014-09-22T21:22:09.796835Z",
    "country": "fr",
    "parent": null,
    "longitude": 0.266667008399963,
    "latitude": 47.4832992553711,
    "regions": []
  },
  {
    "code": "171f2",
    "name": "Chanteix",
    "updated_at": "2014-09-22T21:22:09.760636Z",
    "country": "fr",
    "parent": null,
    "longitude": 1.63332998752594,
    "latitude": 45.2999992370605,
    "regions": [
      "1073"
    ]
  },
  {
    "code": "171f1",
    "name": "Chanteloup-en-Brie",
    "updated_at": "2014-09-22T21:22:09.740840Z",
    "country": "fr",
    "parent": null,
    "longitude": 2.73920011520386,
    "latitude": 48.8566017150879,
    "regions": [
      "116b"
    ]
  },
  {
    "code": "171f0",
    "name": "Chanteloup-les-Vignes",
    "updated_at": "2014-09-22T21:22:09.720894Z",
    "country": "fr",
    "parent": null,
    "longitude": 2.03332996368408,
    "latitude": 48.9832992553711,
    "regions": [
      "116b"
    ]
  },
  {
    "code": "171ef",
    "name": "Chantemerle",
    "updated_at": "2014-09-22T21:22:09.700442Z",
    "country": "fr",
    "parent": null,
    "longitude": 6.58333015441895,
    "latitude": 44.9333000183105,
    "regions": [
      "1079"
    ]
  },
  {
    "code": "171ee",
    "name": "Chantemerle",
    "updated_at": "2014-09-22T21:22:09.673935Z",
    "country": "fr",
    "parent": null,
    "longitude": 3.66667008399963,
    "latitude": 48.61669921875,
    "regions": [
      "1070"
    ]
  },
  {
    "code": "171ed",
    "name": "Chantemerle-les-Blés",
    "updated_at": "2014-09-22T21:22:09.647731Z",
    "country": "fr",
    "parent": null,
    "longitude": 4.91666984558105,
    "latitude": 45.0999984741211,
    "regions": [
      "107a"
    ]
  },
  {
    "code": "171ec",
    "name": "Chantemerle-lès-Grignan",
    "updated_at": "2014-09-22T21:22:09.617474Z",
    "country": "fr",
    "parent": null,
    "longitude": 4.83333015441895,
    "latitude": 44.4000015258789,
    "regions": [
      "107a"
    ]
  },
  {
    "code": "171eb",
    "name": "Chantenay-Saint-Imbert",
    "updated_at": "2014-09-22T21:22:09.586231Z",
    "country": "fr",
    "parent": null,
    "longitude": 3.18333005905151,
    "latitude": 46.7332992553711,
    "regions": [
      "106e"
    ]
  },
  {
    "code": "171ea",
    "name": "Chantenay-Villedieu",
    "updated_at": "2014-09-22T21:22:09.551435Z",
    "country": "fr",
    "parent": null,
    "longitude": -0.166666999459267,
    "latitude": 47.9166984558105,
    "regions": [
      "1077"
    ]
  },
  {
    "code": "171e9",
    "name": "Chantepie",
    "updated_at": "2014-09-22T21:22:09.529152Z",
    "country": "fr",
    "parent": null,
    "longitude": -1.61667001247406,
    "latitude": 48.0833015441895,
    "regions": [
      "106d"
    ]
  },
  {
    "code": "171e8",
    "name": "Chanteuges",
    "updated_at": "2014-09-22T21:22:09.511684Z",
    "country": "fr",
    "parent": null,
    "longitude": 3.54999995231628,
    "latitude": 45.0666999816895,
    "regions": [
      "106c"
    ]
  },
  {
    "code": "171e7",
    "name": "Chantilly",
    "updated_at": "2014-09-22T21:22:09.493798Z",
    "country": "fr",
    "parent": null,
    "longitude": 2.46827602386475,
    "latitude": 49.1931190490723,
    "regions": [
      "1078"
    ]
  },
  {
    "code": "171e6",
    "name": "Chantonnay",
    "updated_at": "2014-09-22T21:22:09.475460Z",
    "country": "fr",
    "parent": null,
    "longitude": -1.04999995231628,
    "latitude": 46.6833000183105,
    "regions": [
      "1077"
    ]
  },
  {
    "code": "171e5",
    "name": "Chanzeaux",
    "updated_at": "2014-09-22T21:22:09.457009Z",
    "country": "fr",
    "parent": null,
    "longitude": -0.649999976158142,
    "latitude": 47.2667007446289,
    "regions": [
      "1077"
    ]
  },
  {
    "code": "171e4",
    "name": "Chaon",
    "updated_at": "2014-09-22T21:22:09.433516Z",
    "country": "fr",
    "parent": null,
    "longitude": 2.16667008399963,
    "latitude": 47.61669921875,
    "regions": [
      "106f"
    ]
  },
  {
    "code": "171e3",
    "name": "Chaource",
    "updated_at": "2014-09-22T21:22:09.404630Z",
    "country": "fr",
    "parent": null,
    "longitude": 4.13332986831665,
    "latitude": 48.0666999816895,
    "regions": [
      "1070"
    ]
  },
  {
    "code": "171e2",
    "name": "Chapareillan",
    "updated_at": "2014-09-22T21:22:09.375885Z",
    "country": "fr",
    "parent": null,
    "longitude": 5.96667003631592,
    "latitude": 45.4667015075684,
    "regions": []
  },
  {
    "code": "171e1",
    "name": "Chaponnay",
    "updated_at": "2014-09-22T21:22:09.342884Z",
    "country": "fr",
    "parent": null,
    "longitude": 4.93333005905151,
    "latitude": 45.61669921875,
    "regions": [
      "107a"
    ]
  },
  {
    "code": "171e0",
    "name": "Chaponost",
    "updated_at": "2014-09-22T21:22:09.307973Z",
    "country": "fr",
    "parent": null,
    "longitude": 4.75,
    "latitude": 45.7000007629395,
    "regions": [
      "107a"
    ]
  },
  {
    "code": "171df",
    "name": "Charavines",
    "updated_at": "2014-09-22T21:22:09.255051Z",
    "country": "fr",
    "parent": null,
    "longitude": 5.51667022705078,
    "latitude": 45.4333000183105,
    "regions": [
      "107a"
    ]
  },
  {
    "code": "171de",
    "name": "Charbonnières-les-Bains",
    "updated_at": "2014-09-22T21:22:09.235569Z",
    "country": "fr",
    "parent": null,
    "longitude": 4.73332977294922,
    "latitude": 45.7832984924316,
    "regions": [
      "107a"
    ]
  },
  {
    "code": "171dd",
    "name": "Chardonnay",
    "updated_at": "2014-09-22T21:22:09.195893Z",
    "country": "fr",
    "parent": null,
    "longitude": 4.86667013168335,
    "latitude": 46.5,
    "regions": [
      "106e"
    ]
  },
  {
    "code": "171dc",
    "name": "Charensat",
    "updated_at": "2014-09-22T21:22:09.152894Z",
    "country": "fr",
    "parent": null,
    "longitude": 2.65000009536743,
    "latitude": 45.9832992553711,
    "regions": [
      "106c"
    ]
  },
  {
    "code": "171db",
    "name": "Charenton sur Cher",
    "updated_at": "2014-09-22T21:22:09.126768Z",
    "country": "fr",
    "parent": null,
    "longitude": 2.65000009536743,
    "latitude": 46.7332992553711,
    "regions": [
      "106f"
    ]
  },
  {
    "code": "171da",
    "name": "Charenton-le-Pont",
    "updated_at": "2014-09-22T21:22:09.102717Z",
    "country": "fr",
    "parent": null,
    "longitude": 2.41667008399963,
    "latitude": 48.8166999816895,
    "regions": [
      "116b"
    ]
  },
  {
    "code": "171d9",
    "name": "Charette",
    "updated_at": "2014-09-22T21:22:09.066219Z",
    "country": "fr",
    "parent": null,
    "longitude": 5.36667013168335,
    "latitude": 45.8166999816895,
    "regions": [
      "107a"
    ]
  },
  {
    "code": "171d8",
    "name": "Charette",
    "updated_at": "2014-09-22T21:22:09.031660Z",
    "country": "fr",
    "parent": null,
    "longitude": 5.19999980926514,
    "latitude": 46.9166984558105,
    "regions": [
      "106e"
    ]
  },
  {
    "code": "171d7",
    "name": "Chargey-lès-Gray",
    "updated_at": "2014-09-22T21:22:09.001699Z",
    "country": "fr",
    "parent": null,
    "longitude": 5.58333015441895,
    "latitude": 47.4832992553711,
    "regions": [
      "1071"
    ]
  },
  {
    "code": "171d6",
    "name": "Charleval",
    "updated_at": "2014-09-22T21:22:08.962308Z",
    "country": "fr",
    "parent": null,
    "longitude": 5.25,
    "latitude": 43.7167015075684,
    "regions": []
  },
  {
    "code": "171d5",
    "name": "Charleville-Mézières",
    "updated_at": "2014-09-22T21:22:08.922780Z",
    "country": "fr",
    "parent": null,
    "longitude": 4.71667003631592,
    "latitude": 49.7667007446289,
    "regions": [
      "1070"
    ]
  },
  {
    "code": "171d4",
    "name": "Charlieu",
    "updated_at": "2014-09-22T21:22:08.902736Z",
    "country": "fr",
    "parent": null,
    "longitude": 4.18333005905151,
    "latitude": 46.1500015258789,
    "regions": [
      "107a"
    ]
  },
  {
    "code": "171d3",
    "name": "Charly",
    "updated_at": "2014-09-22T21:22:08.853700Z",
    "country": "fr",
    "parent": null,
    "longitude": 2.75,
    "latitude": 46.9000015258789,
    "regions": [
      "106f"
    ]
  },
  {
    "code": "171d2",
    "name": "Charmes",
    "updated_at": "2014-09-22T21:22:08.824846Z",
    "country": "fr",
    "parent": null,
    "longitude": 6.28332996368408,
    "latitude": 48.36669921875,
    "regions": [
      "1074"
    ]
  },
  {
    "code": "171d1",
    "name": "Charmes-sur-Rhône",
    "updated_at": "2014-09-22T21:22:08.790962Z",
    "country": "fr",
    "parent": null,
    "longitude": 4.83333015441895,
    "latitude": 44.86669921875,
    "regions": [
      "107a"
    ]
  },
  {
    "code": "171d0",
    "name": "Charnay-lès-Mâcon",
    "updated_at": "2014-09-22T21:22:08.759845Z",
    "country": "fr",
    "parent": null,
    "longitude": 4.78332996368408,
    "latitude": 46.2999992370605,
    "regions": [
      "106e"
    ]
  },
  {
    "code": "171cf",
    "name": "Charny",
    "updated_at": "2014-09-22T21:22:08.732351Z",
    "country": "fr",
    "parent": null,
    "longitude": 3.09999990463257,
    "latitude": 47.88330078125,
    "regions": [
      "106e"
    ]
  },
  {
    "code": "171ce",
    "name": "Charolles",
    "updated_at": "2014-09-22T21:22:08.714215Z",
    "country": "fr",
    "parent": null,
    "longitude": 4.28332996368408,
    "latitude": 46.4333000183105,
    "regions": [
      "106e"
    ]
  },