[
  {
    "code": "21b56",
    "name": "Frohnleiten",
    "updated_at": "2014-09-22T21:13:16.115769Z",
    "country": "at",
    "parent": null,
    "longitude": 15.3166999816895,
    "latitude": 47.2667007446289,
    "regions": []
  },
  {
    "code": "21b55",
    "name": "Gansbach",
    "updated_at": "2014-09-22T21:13:15.679880Z",
    "country": "at",
    "parent": null,
    "longitude": 15.4666996002197,
    "latitude": 48.2999992370605,
    "regions": []
  },
  {
    "code": "21b54",
    "name": "Gasen",
    "updated_at": "2014-09-22T21:13:15.579726Z",
    "country": "at",
    "parent": null,
    "longitude": 15.5666999816895,
    "latitude": 47.38330078125,
    "regions": []
  },
  {
    "code": "21b53",
    "name": "Gorintschach",
    "updated_at": "2014-09-22T21:13:14.926181Z",
    "country": "at",
    "parent": null,
    "longitude": 14.0166997909546,
    "latitude": 46.5499992370605,
    "regions": []
  },
  {
    "code": "21b52",
    "name": "Gössl",
    "updated_at": "2014-09-22T21:13:14.797134Z",
    "country": "at",
    "parent": null,
    "longitude": 13.8999996185303,
    "latitude": 47.63330078125,
    "regions": []
  },
  {
    "code": "21b51",
    "name": "Götzis",
    "updated_at": "2014-09-22T21:13:14.704260Z",
    "country": "at",
    "parent": null,
    "longitude": 9.63306045532227,
    "latitude": 47.3330993652344,
    "regions": []
  },
  {
    "code": "21b50",
    "name": "Großsölk",
    "updated_at": "2014-09-22T21:13:14.024671Z",
    "country": "at",
    "parent": null,
    "longitude": 13.9666996002197,
    "latitude": 47.4166984558105,
    "regions": []
  },
  {
    "code": "21b4f",
    "name": "Gutenbrunn",
    "updated_at": "2014-09-22T21:13:13.702127Z",
    "country": "at",
    "parent": null,
    "longitude": 15.1167001724243,
    "latitude": 48.3499984741211,
    "regions": []
  },
  {
    "code": "21b4e",
    "name": "Haiden",
    "updated_at": "2014-09-22T21:13:13.638659Z",
    "country": "at",
    "parent": null,
    "longitude": 13.8332996368408,
    "latitude": 47.1500015258789,
    "regions": []
  },
  {
    "code": "21b4d",
    "name": "Haidenbach",
    "updated_at": "2014-09-22T21:13:13.621798Z",
    "country": "at",
    "parent": null,
    "longitude": 13.8999996185303,
    "latitude": 46.7999992370605,
    "regions": []
  },
  {
    "code": "21b4c",
    "name": "Häusling",
    "updated_at": "2014-09-22T21:13:13.139781Z",
    "country": "at",
    "parent": null,
    "longitude": 11.9666996002197,
    "latitude": 47.1500015258789,
    "regions": []
  },
  {
    "code": "21b4b",
    "name": "Helfenstein",
    "updated_at": "2014-09-22T21:13:12.951508Z",
    "country": "at",
    "parent": null,
    "longitude": 11.8667001724243,
    "latitude": 47.3333015441895,
    "regions": []
  },
  {
    "code": "21b4a",
    "name": "Hohenweiler",
    "updated_at": "2014-09-22T21:13:12.178324Z",
    "country": "at",
    "parent": null,
    "longitude": 9.78332996368408,
    "latitude": 47.5833015441895,
    "regions": []
  },
  {
    "code": "21b49",
    "name": "Hundsdorf",
    "updated_at": "2014-09-22T21:13:11.888499Z",
    "country": "at",
    "parent": null,
    "longitude": 12.8500003814697,
    "latitude": 47.2832984924316,
    "regions": []
  },
  {
    "code": "21b48",
    "name": "Innerschwand",
    "updated_at": "2014-09-22T21:13:11.635621Z",
    "country": "at",
    "parent": null,
    "longitude": 13.3999996185303,
    "latitude": 47.8333015441895,
    "regions": []
  },
  {
    "code": "21b47",
    "name": "Kaltenberg",
    "updated_at": "2014-09-22T21:13:11.075767Z",
    "country": "at",
    "parent": null,
    "longitude": 14.7666997909546,
    "latitude": 48.4500007629395,
    "regions": []
  },
  {
    "code": "21b46",
    "name": "Kamering",
    "updated_at": "2014-09-22T21:13:11.050034Z",
    "country": "at",
    "parent": null,
    "longitude": 13.5996999740601,
    "latitude": 46.7383003234863,
    "regions": []
  },
  {
    "code": "21b45",
    "name": "Kammern im Liesingtal",
    "updated_at": "2014-09-22T21:13:11.022678Z",
    "country": "at",
    "parent": null,
    "longitude": 14.8999996185303,
    "latitude": 47.38330078125,
    "regions": []
  },
  {
    "code": "21b44",
    "name": "Kapellen",
    "updated_at": "2014-09-22T21:13:10.954619Z",
    "country": "at",
    "parent": null,
    "longitude": 15.6167001724243,
    "latitude": 47.63330078125,
    "regions": []
  },
  {
    "code": "21b43",
    "name": "Kirchham",
    "updated_at": "2014-09-22T21:13:10.252723Z",
    "country": "at",
    "parent": null,
    "longitude": 12.8000001907349,
    "latitude": 47.36669921875,
    "regions": []
  },
  {
    "code": "21b42",
    "name": "Kliening",
    "updated_at": "2014-09-22T21:13:09.992471Z",
    "country": "at",
    "parent": null,
    "longitude": 14.7666997909546,
    "latitude": 46.9500007629395,
    "regions": []
  },
  {
    "code": "21b41",
    "name": "Kottingbrunn",
    "updated_at": "2014-09-22T21:13:09.515349Z",
    "country": "at",
    "parent": null,
    "longitude": 16.2273273454048,
    "latitude": 47.9504661221099,
    "regions": []
  },
  {
    "code": "21b40",
    "name": "Kreith über Innsbruck",
    "updated_at": "2014-09-22T21:13:09.378069Z",
    "country": "at",
    "parent": null,
    "longitude": 11.3832998275757,
    "latitude": 47.2000007629395,
    "regions": []
  },
  {
    "code": "21b3f",
    "name": "Kukmirn",
    "updated_at": "2014-09-22T21:13:09.044503Z",
    "country": "at",
    "parent": null,
    "longitude": 16.2166996002197,
    "latitude": 47.0666999816895,
    "regions": []
  },
  {
    "code": "21b3e",
    "name": "Laimbach am Ostrong",
    "updated_at": "2014-09-22T21:13:08.941881Z",
    "country": "at",
    "parent": null,
    "longitude": 15.1167001724243,
    "latitude": 48.3166999816895,
    "regions": []
  },
  {
    "code": "21b3d",
    "name": "Leiben",
    "updated_at": "2014-09-22T21:13:08.394461Z",
    "country": "at",
    "parent": null,
    "longitude": 15.2666997909546,
    "latitude": 48.2332992553711,
    "regions": []
  },
  {
    "code": "21b3c",
    "name": "Lenzing",
    "updated_at": "2014-09-22T21:13:05.767222Z",
    "country": "at",
    "parent": null,
    "longitude": 13.6167001724243,
    "latitude": 47.9667015075684,
    "regions": []
  },
  {
    "code": "21b3b",
    "name": "Leobersdorf",
    "updated_at": "2014-09-22T21:13:05.729165Z",
    "country": "at",
    "parent": null,
    "longitude": 16.2156500812853,
    "latitude": 47.9260686051722,
    "regions": []
  },
  {
    "code": "21b3a",
    "name": "Lichtenbuch",
    "updated_at": "2014-09-22T21:13:05.578757Z",
    "country": "at",
    "parent": null,
    "longitude": 13.4833002090454,
    "latitude": 47.8499984741211,
    "regions": []
  },
  {
    "code": "21b39",
    "name": "Lilienfeld",
    "updated_at": "2014-09-22T21:13:05.421435Z",
    "country": "at",
    "parent": null,
    "longitude": 15.6332998275757,
    "latitude": 48.0167007446289,
    "regions": []
  },
  {
    "code": "21b38",
    "name": "Litzldorf",
    "updated_at": "2014-09-22T21:13:05.304099Z",
    "country": "at",
    "parent": null,
    "longitude": 12.5500001907349,
    "latitude": 47.2832984924316,
    "regions": []
  },
  {
    "code": "21b37",
    "name": "Loibichl",
    "updated_at": "2014-09-22T21:13:05.225385Z",
    "country": "at",
    "parent": null,
    "longitude": 13.3999996185303,
    "latitude": 47.8333015441895,
    "regions": []
  },
  {
    "code": "21b36",
    "name": "Marchtrenk",
    "updated_at": "2014-09-22T21:13:04.759807Z",
    "country": "at",
    "parent": null,
    "longitude": 14.1167001724243,
    "latitude": 48.1833000183105,
    "regions": []
  },
  {
    "code": "21b35",
    "name": "Maria Laach am Jauerling",
    "updated_at": "2014-09-22T21:13:04.619323Z",
    "country": "at",
    "parent": null,
    "longitude": 15.3442001342773,
    "latitude": 48.3033981323242,
    "regions": []
  },
  {
    "code": "21b34",
    "name": "Mathon",
    "updated_at": "2014-09-22T21:13:04.312638Z",
    "country": "at",
    "parent": null,
    "longitude": 10.25,
    "latitude": 46.9832992553711,
    "regions": []
  },
  {
    "code": "21b33",
    "name": "Micheldorf",
    "updated_at": "2014-09-22T21:13:03.939516Z",
    "country": "at",
    "parent": null,
    "longitude": 14.4167003631592,
    "latitude": 46.9166984558105,
    "regions": []
  },
  {
    "code": "21b32",
    "name": "Ahrnbach",
    "updated_at": "2014-09-22T21:13:03.717596Z",
    "country": "at",
    "parent": null,
    "longitude": 11.8999996185303,
    "latitude": 47.2832984924316,
    "regions": []
  },
  {
    "code": "21b31",
    "name": "Mitterhofen",
    "updated_at": "2014-09-22T21:13:03.683569Z",
    "country": "at",
    "parent": null,
    "longitude": 12.8000001907349,
    "latitude": 47.38330078125,
    "regions": []
  },
  {
    "code": "21b30",
    "name": "Mutters",
    "updated_at": "2014-09-22T21:13:03.005867Z",
    "country": "at",
    "parent": null,
    "longitude": 11.3832998275757,
    "latitude": 47.2332992553711,
    "regions": []
  },
  {
    "code": "21b2f",
    "name": "Nadelbach",
    "updated_at": "2014-09-22T21:13:02.989964Z",
    "country": "at",
    "parent": null,
    "longitude": 15.6000003814697,
    "latitude": 48.1833000183105,
    "regions": []
  },
  {
    "code": "21b2e",
    "name": "Neidling",
    "updated_at": "2014-09-22T21:13:02.870739Z",
    "country": "at",
    "parent": null,
    "longitude": 15.5500001907349,
    "latitude": 48.2332992553711,
    "regions": []
  },
  {
    "code": "21b2d",
    "name": "Neuberg an der Mürz",
    "updated_at": "2014-09-22T21:13:02.758954Z",
    "country": "at",
    "parent": null,
    "longitude": 15.5666999816895,
    "latitude": 47.6666984558105,
    "regions": []
  },
  {
    "code": "21b2c",
    "name": "Neukirchen am Walde",
    "updated_at": "2014-09-22T21:13:02.602251Z",
    "country": "at",
    "parent": null,
    "longitude": 13.7666997909546,
    "latitude": 48.4000015258789,
    "regions": []
  },
  {
    "code": "21b2b",
    "name": "Neukirchen an der Vöckla",
    "updated_at": "2014-09-22T21:13:02.575632Z",
    "country": "at",
    "parent": null,
    "longitude": 13.5333003997803,
    "latitude": 48.0332984924316,
    "regions": []
  },
  {
    "code": "21b2a",
    "name": "Neunkirchen",
    "updated_at": "2014-09-22T21:13:02.483022Z",
    "country": "at",
    "parent": null,
    "longitude": 16.0832996368408,
    "latitude": 47.7167015075684,
    "regions": []
  },
  {
    "code": "21b29",
    "name": "Neutal",
    "updated_at": "2014-09-22T21:13:02.415257Z",
    "country": "at",
    "parent": null,
    "longitude": 16.4333000183105,
    "latitude": 47.5332984924316,
    "regions": []
  },
  {
    "code": "21b28",
    "name": "Oberkrimml",
    "updated_at": "2014-09-22T21:13:01.845570Z",
    "country": "at",
    "parent": null,
    "longitude": 12.1667003631592,
    "latitude": 47.2167015075684,
    "regions": []
  },
  {
    "code": "21b27",
    "name": "Oberlienz",
    "updated_at": "2014-09-22T21:13:01.828382Z",
    "country": "at",
    "parent": null,
    "longitude": 12.7313995361328,
    "latitude": 46.8471984863281,
    "regions": []
  },
  {
    "code": "21b26",
    "name": "Öblarn",
    "updated_at": "2014-09-22T21:13:01.501216Z",
    "country": "at",
    "parent": null,
    "longitude": 13.9833002090454,
    "latitude": 47.4500007629395,
    "regions": []
  },
  {
    "code": "21b25",
    "name": "Offenegg",
    "updated_at": "2014-09-22T21:13:01.484111Z",
    "country": "at",
    "parent": null,
    "longitude": 15.6167001724243,
    "latitude": 47.3333015441895,
    "regions": []
  },
  {
    "code": "21b24",
    "name": "Palbersdorf",
    "updated_at": "2014-09-22T21:13:01.350413Z",
    "country": "at",
    "parent": null,
    "longitude": 15.2333002090454,
    "latitude": 47.5332984924316,
    "regions": []
  },
  {
    "code": "21b23",
    "name": "Paternion",
    "updated_at": "2014-09-22T21:13:01.202917Z",
    "country": "at",
    "parent": null,
    "longitude": 13.6360998153687,
    "latitude": 46.7141990661621,
    "regions": []
  },
  {
    "code": "21b22",
    "name": "Quadratsch",
    "updated_at": "2014-09-22T21:13:00.115832Z",
    "country": "at",
    "parent": null,
    "longitude": 10.5,
    "latitude": 47.13330078125,
    "regions": []
  },
  {
    "code": "21b21",
    "name": "Rainfeld",
    "updated_at": "2014-09-22T21:12:59.858767Z",
    "country": "at",
    "parent": null,
    "longitude": 15.6999998092651,
    "latitude": 48.0332984924316,
    "regions": []
  },
  {
    "code": "21b20",
    "name": "Reinsberg",
    "updated_at": "2014-09-22T21:12:59.258106Z",
    "country": "at",
    "parent": null,
    "longitude": 15.0666999816895,
    "latitude": 47.9832992553711,
    "regions": []
  },
  {
    "code": "21b1f",
    "name": "Ritzing",
    "updated_at": "2014-09-22T21:12:58.787079Z",
    "country": "at",
    "parent": null,
    "longitude": 16.5,
    "latitude": 47.5999984741211,
    "regions": []
  },
  {
    "code": "21b1e",
    "name": "Röhrabrunn",
    "updated_at": "2014-09-22T21:12:58.765934Z",
    "country": "at",
    "parent": null,
    "longitude": 16.3332996368408,
    "latitude": 48.61669921875,
    "regions": []
  },
  {
    "code": "21b1d",
    "name": "Rossatz",
    "updated_at": "2014-09-22T21:12:58.634945Z",
    "country": "at",
    "parent": null,
    "longitude": 15.5,
    "latitude": 48.38330078125,
    "regions": []
  },
  {
    "code": "21b1c",
    "name": "Sankt Christofen",
    "updated_at": "2014-09-22T21:12:58.116829Z",
    "country": "at",
    "parent": null,
    "longitude": 15.8832998275757,
    "latitude": 48.1666984558105,
    "regions": []
  },
  {
    "code": "21b1b",
    "name": "Sankt Margarethen im Burgenland",
    "updated_at": "2014-09-22T21:12:57.270895Z",
    "country": "at",
    "parent": null,
    "longitude": 16.6000003814697,
    "latitude": 47.7999992370605,
    "regions": []
  },
  {
    "code": "21b1a",
    "name": "Sankt Pankrazen",
    "updated_at": "2014-09-22T21:12:56.817341Z",
    "country": "at",
    "parent": null,
    "longitude": 15.1833000183105,
    "latitude": 47.13330078125,
    "regions": []
  },
  {
    "code": "21b19",
    "name": "Sankt Pantaleon",
    "updated_at": "2014-09-22T21:12:56.801545Z",
    "country": "at",
    "parent": null,
    "longitude": 12.8999996185303,
    "latitude": 48.0167007446289,
    "regions": []
  },
  {
    "code": "21b18",
    "name": "Sankt Ruprecht ob Murau",
    "updated_at": "2014-09-22T21:12:56.561761Z",
    "country": "at",
    "parent": null,
    "longitude": 14.0166997909546,
    "latitude": 47.0999984741211,
    "regions": []
  },
  {
    "code": "21b17",
    "name": "Scheibbs",
    "updated_at": "2014-09-22T21:12:55.916965Z",
    "country": "at",
    "parent": null,
    "longitude": 15.1667003631592,
    "latitude": 48.0,
    "regions": []
  },
  {
    "code": "21b16",
    "name": "Selpritsch",
    "updated_at": "2014-09-22T21:12:52.283273Z",
    "country": "at",
    "parent": null,
    "longitude": 14.0166997909546,
    "latitude": 46.5999984741211,
    "regions": []
  },
  {
    "code": "21b15",
    "name": "Selzthal",
    "updated_at": "2014-09-22T21:12:52.255993Z",
    "country": "at",
    "parent": null,
    "longitude": 14.3332996368408,
    "latitude": 47.5499992370605,
    "regions": []
  },
  {
    "code": "21b14",
    "name": "Sierndorf an der March",
    "updated_at": "2014-09-22T21:12:52.128435Z",
    "country": "at",
    "parent": null,
    "longitude": 16.88330078125,
    "latitude": 48.5167007446289,
    "regions": []
  },
  {
    "code": "21b13",
    "name": "Steinbach am Ziehberg",
    "updated_at": "2014-09-22T21:12:51.260151Z",
    "country": "at",
    "parent": null,
    "longitude": 14.0166997909546,
    "latitude": 47.88330078125,
    "regions": []
  },
  {
    "code": "21b12",
    "name": "Strallegg",
    "updated_at": "2014-09-22T21:12:51.008119Z",
    "country": "at",
    "parent": null,
    "longitude": 15.7166996002197,
    "latitude": 47.4000015258789,
    "regions": []
  },
  {
    "code": "21b11",
    "name": "Tadten",
    "updated_at": "2014-09-22T21:12:50.641111Z",
    "country": "at",
    "parent": null,
    "longitude": 16.9832992553711,
    "latitude": 47.7667007446289,
    "regions": []
  },
  {
    "code": "21b10",
    "name": "Tarsdorf",
    "updated_at": "2014-09-22T21:12:50.547916Z",
    "country": "at",
    "parent": null,
    "longitude": 12.8332996368408,
    "latitude": 48.0833015441895,
    "regions": []
  },
  {
    "code": "21b0f",
    "name": "Ullrichs",
    "updated_at": "2014-09-22T21:12:49.491038Z",
    "country": "at",
    "parent": null,
    "longitude": 15.0666999816895,
    "latitude": 48.75,
    "regions": []
  },
  {
    "code": "21b0e",
    "name": "Unterfrauenhaid",
    "updated_at": "2014-09-22T21:12:49.297052Z",
    "country": "at",
    "parent": null,
    "longitude": 16.5,
    "latitude": 47.5666999816895,
    "regions": []
  },
  {
    "code": "21b0d",
    "name": "Vomp",
    "updated_at": "2014-09-22T21:12:48.507689Z",
    "country": "at",
    "parent": null,
    "longitude": 11.6833000183105,
    "latitude": 47.3333015441895,
    "regions": []
  },
  {
    "code": "21b0c",
    "name": "Wald am Schoberpaß",
    "updated_at": "2014-09-22T21:12:48.136743Z",
    "country": "at",
    "parent": null,
    "longitude": 14.6667003631592,
    "latitude": 47.4500007629395,
    "regions": []
  },
  {
    "code": "21b0b",
    "name": "Weiz",
    "updated_at": "2014-09-22T21:12:47.673824Z",
    "country": "at",
    "parent": null,
    "longitude": 15.6167001724243,
    "latitude": 47.2167015075684,
    "regions": []
  },
  {
    "code": "21b0a",
    "name": "Wetzleinsdorf",
    "updated_at": "2014-09-22T21:12:47.492666Z",
    "country": "at",
    "parent": null,
    "longitude": 16.36669921875,
    "latitude": 48.4667015075684,
    "regions": []
  },
  {
    "code": "21b09",
    "name": "Wilfersdorf",
    "updated_at": "2014-09-22T21:12:47.184440Z",
    "country": "at",
    "parent": null,
    "longitude": 16.1000003814697,
    "latitude": 48.2667007446289,
    "regions": []
  },
  {
    "code": "21b08",
    "name": "Wilhelmsburg",
    "updated_at": "2014-09-22T21:12:47.126673Z",
    "country": "at",
    "parent": null,
    "longitude": 15.6000003814697,
    "latitude": 48.0999984741211,
    "regions": []
  },
  {
    "code": "21b07",
    "name": "Wolkersdorf",
    "updated_at": "2014-09-22T21:12:46.873960Z",
    "country": "at",
    "parent": null,
    "longitude": 15.0333003997803,
    "latitude": 47.4166984558105,
    "regions": []
  },
  {
    "code": "21b06",
    "name": "Zaunhof",
    "updated_at": "2014-09-22T21:12:46.714990Z",
    "country": "at",
    "parent": null,
    "longitude": 10.8000001907349,
    "latitude": 47.11669921875,
    "regions": []
  },
  {
    "code": "21b05",
    "name": "Zedlitzdorf",
    "updated_at": "2014-09-22T21:12:46.661769Z",
    "country": "at",
    "parent": null,
    "longitude": 13.9222002029419,
    "latitude": 46.7991981506348,
    "regions": []
  },
  {
    "code": "21b04",
    "name": "Abeokuta",
    "updated_at": "2014-09-22T21:12:46.181703Z",
    "country": "ng",
    "parent": null,
    "longitude": 3.34999990463257,
    "latitude": 7.15000009536743,
    "regions": []
  },
  {
    "code": "21b03",
    "name": "Adegbite",
    "updated_at": "2014-09-22T21:12:46.124936Z",
    "country": "ng",
    "parent": null,
    "longitude": 3.85472011566162,
    "latitude": 7.36082983016968,
    "regions": []
  },
  {
    "code": "21b02",
    "name": "Asi",
    "updated_at": "2014-09-22T21:12:46.031623Z",
    "country": "ng",
    "parent": null,
    "longitude": 3.93194007873535,
    "latitude": 7.42639017105103,
    "regions": []
  },
  {
    "code": "21b01",
    "name": "Baruwa",
    "updated_at": "2014-09-22T21:12:46.015191Z",
    "country": "ng",
    "parent": null,
    "longitude": 3.27250003814697,
    "latitude": 6.60333013534546,
    "regions": []
  },
  {
    "code": "21b00",
    "name": "Duku",
    "updated_at": "2014-09-22T21:12:45.998818Z",
    "country": "ng",
    "parent": null,
    "longitude": 10.7666997909546,
    "latitude": 10.8166999816895,
    "regions": []
  },
  {
    "code": "21aff",
    "name": "Ibese",
    "updated_at": "2014-09-22T21:12:45.831711Z",
    "country": "ng",
    "parent": null,
    "longitude": 3.47416996955872,
    "latitude": 6.55306005477905,
    "regions": []
  },
  {
    "code": "21afe",
    "name": "Igando",
    "updated_at": "2014-09-22T21:12:45.810365Z",
    "country": "ng",
    "parent": null,
    "longitude": 3.25,
    "latitude": 6.55000019073486,
    "regions": []
  },
  {
    "code": "21afd",
    "name": "Ijebu Ode",
    "updated_at": "2014-09-22T21:12:45.791941Z",
    "country": "ng",
    "parent": null,
    "longitude": 3.93333005905151,
    "latitude": 6.81666994094849,
    "regions": []
  },
  {
    "code": "21afc",
    "name": "Ijero Ekiti",
    "updated_at": "2014-09-22T21:12:45.774041Z",
    "country": "ng",
    "parent": null,
    "longitude": 5.08333015441895,
    "latitude": 7.81666994094849,
    "regions": []
  },
  {
    "code": "21afb",
    "name": "Ikotun",
    "updated_at": "2014-09-22T21:12:45.718144Z",
    "country": "ng",
    "parent": null,
    "longitude": 3.2677800655365,
    "latitude": 6.54582977294922,
    "regions": []
  },
  {
    "code": "21afa",
    "name": "Kunkwaba",
    "updated_at": "2014-09-22T21:12:45.633778Z",
    "country": "ng",
    "parent": null,
    "longitude": 7.45972013473511,
    "latitude": 9.03777980804443,
    "regions": []
  },
  {
    "code": "21af9",
    "name": "Mbak Uyo",
    "updated_at": "2014-09-22T21:12:45.520810Z",
    "country": "ng",
    "parent": null,
    "longitude": 8.10000038146973,
    "latitude": 4.66666984558105,
    "regions": []
  },
  {
    "code": "21af8",
    "name": "Mbiakong",
    "updated_at": "2014-09-22T21:12:45.504427Z",
    "country": "ng",
    "parent": null,
    "longitude": 8.01667022705078,
    "latitude": 5.06666994094849,
    "regions": []
  },
  {
    "code": "21af7",
    "name": "Moniya",
    "updated_at": "2014-09-22T21:12:45.464459Z",
    "country": "ng",
    "parent": null,
    "longitude": 3.91194009780884,
    "latitude": 7.52832984924316,
    "regions": []
  },
  {
    "code": "21af6",
    "name": "Odogbolu",
    "updated_at": "2014-09-22T21:12:45.410882Z",
    "country": "ng",
    "parent": null,
    "longitude": 3.7666699886322,
    "latitude": 6.84999990463257,
    "regions": []
  },
  {
    "code": "21af5",
    "name": "Okopedi",
    "updated_at": "2014-09-22T21:12:45.345834Z",
    "country": "ng",
    "parent": null,
    "longitude": 8.11666965484619,
    "latitude": 4.84999990463257,
    "regions": []
  },
  {
    "code": "21af4",
    "name": "Oruba",
    "updated_at": "2014-09-22T21:12:45.315390Z",
    "country": "ng",
    "parent": null,
    "longitude": 3.41083002090454,
    "latitude": 6.57860994338989,
    "regions": []
  },
  {
    "code": "21af3",
    "name": "Owerri",
    "updated_at": "2014-09-22T21:12:45.299335Z",
    "country": "ng",
    "parent": null,
    "longitude": 7.03332996368408,
    "latitude": 5.48332977294922,
    "regions": []
  },
  {
    "code": "21af2",
    "name": "Sagamu",
    "updated_at": "2014-09-22T21:12:45.266884Z",
    "country": "ng",
    "parent": null,
    "longitude": 3.65000009536743,
    "latitude": 6.84999990463257,
    "regions": []
  },
  {
    "code": "21af1",
    "name": "Uyo",
    "updated_at": "2014-09-22T21:12:45.250320Z",
    "country": "ng",
    "parent": null,
    "longitude": 7.93333005905151,
    "latitude": 5.05000019073486,
    "regions": []
  },
  {
    "code": "21af0",
    "name": "Yenagoa",
    "updated_at": "2014-09-22T21:12:45.210844Z",
    "country": "ng",
    "parent": null,
    "longitude": 6.26417016983032,
    "latitude": 4.92471981048584,
    "regions": []
  },
  {
    "code": "21aef",
    "name": "Ablekuma",
    "updated_at": "2014-09-22T21:12:45.183994Z",
    "country": "gh",
    "parent": null,
    "longitude": -0.100000001490116,
    "latitude": 5.63332986831665,
    "regions": []
  },
  {
    "code": "21aee",
    "name": "Awusiejo",
    "updated_at": "2014-09-22T21:12:44.985585Z",
    "country": "gh",
    "parent": null,
    "longitude": -1.89999997615814,
    "latitude": 4.88332986831665,
    "regions": []
  },
  {
    "code": "21aed",
    "name": "Axim",
    "updated_at": "2014-09-22T21:12:44.961383Z",
    "country": "gh",
    "parent": null,
    "longitude": -2.24138998985291,
    "latitude": 4.86833000183105,
    "regions": []
  },
  {
    "code": "21aec",
    "name": "Bogoso",
    "updated_at": "2014-09-22T21:12:44.912733Z",
    "country": "gh",
    "parent": null,
    "longitude": -2.0166699886322,
    "latitude": 5.56666994094849,
    "regions": []
  },
  {
    "code": "21aeb",
    "name": "Chantan",
    "updated_at": "2014-09-22T21:12:44.819706Z",
    "country": "gh",
    "parent": null,
    "longitude": -0.25,
    "latitude": 5.61667013168335,
    "regions": []
  },
  {
    "code": "21aea",
    "name": "Kumasi",
    "updated_at": "2014-09-22T21:12:44.788578Z",
    "country": "gh",
    "parent": null,
    "longitude": -1.61667001247406,
    "latitude": 6.68333005905151,
    "regions": []
  },
  {
    "code": "21ae9",
    "name": "Kwabenyan",
    "updated_at": "2014-09-22T21:12:44.772689Z",
    "country": "gh",
    "parent": null,
    "longitude": -0.25,
    "latitude": 5.69999980926514,
    "regions": []
  },
  {
    "code": "21ae8",
    "name": "Madina",
    "updated_at": "2014-09-22T21:12:44.756815Z",
    "country": "gh",
    "parent": null,
    "longitude": -0.166666999459267,
    "latitude": 5.68333005905151,
    "regions": []
  },
  {
    "code": "21ae7",
    "name": "Nyanyanu",
    "updated_at": "2014-09-22T21:12:44.688821Z",
    "country": "gh",
    "parent": null,
    "longitude": -0.400000005960464,
    "latitude": 5.46667003631592,
    "regions": []
  },
  {
    "code": "21ae6",
    "name": "Obo",
    "updated_at": "2014-09-22T21:12:44.660169Z",
    "country": "gh",
    "parent": null,
    "longitude": -1.41666996479034,
    "latitude": 6.53332996368408,
    "regions": []
  },
  {
    "code": "21ae5",
    "name": "Kasoa",
    "updated_at": "2014-09-22T21:12:44.592867Z",
    "country": "gh",
    "parent": null,
    "longitude": -0.422512,
    "latitude": 5.532907,
    "regions": []
  },
  {
    "code": "21ae4",
    "name": "Sunyani",
    "updated_at": "2014-09-22T21:12:44.534878Z",
    "country": "gh",
    "parent": null,
    "longitude": -2.337434,
    "latitude": 7.340036,
    "regions": []
  },
  {
    "code": "21ae3",
    "name": "Tamale",
    "updated_at": "2014-09-22T21:12:44.501492Z",
    "country": "gh",
    "parent": null,
    "longitude": -0.833333015441895,
    "latitude": 9.39999961853027,
    "regions": []
  },
  {
    "code": "21ae2",
    "name": "Tarkwa",
    "updated_at": "2014-09-22T21:12:44.481718Z",
    "country": "gh",
    "parent": null,
    "longitude": -1.9833300113678,
    "latitude": 5.30000019073486,
    "regions": []
  },
  {
    "code": "21ae1",
    "name": "Wa",
    "updated_at": "2014-09-22T21:12:44.369773Z",
    "country": "gh",
    "parent": null,
    "longitude": -2.4833300113678,
    "latitude": 10.0500001907349,
    "regions": []
  },
  {
    "code": "21ae0",
    "name": "Narsaq",
    "updated_at": "2014-09-22T21:12:44.251808Z",
    "country": "gl",
    "parent": null,
    "longitude": -46.0499992370605,
    "latitude": 60.9166984558105,
    "regions": []
  },
  {
    "code": "21adf",
    "name": "Narssaq",
    "updated_at": "2014-09-22T21:12:44.230120Z",
    "country": "gl",
    "parent": null,
    "longitude": -68.8424987792969,
    "latitude": 77.3024978637695,
    "regions": []
  },
  {
    "code": "21ade",
    "name": "Adalaj",
    "updated_at": "2014-09-22T21:12:44.026286Z",
    "country": "in",
    "parent": null,
    "longitude": 72.5832977294922,
    "latitude": 23.1667003631592,
    "regions": []
  },
  {
    "code": "21add",
    "name": "Ambalapulai",
    "updated_at": "2014-09-22T21:12:43.610994Z",
    "country": "in",
    "parent": null,
    "longitude": 76.36669921875,
    "latitude": 9.39999961853027,
    "regions": []
  },
  {
    "code": "21adc",
    "name": "Amrāvati",
    "updated_at": "2014-09-22T21:12:43.527275Z",
    "country": "in",
    "parent": null,
    "longitude": 77.75,
    "latitude": 20.9333000183105,
    "regions": []
  },
  {
    "code": "21adb",
    "name": "Angamali",
    "updated_at": "2014-09-22T21:12:43.467491Z",
    "country": "in",
    "parent": null,
    "longitude": 76.4000015258789,
    "latitude": 10.1999998092651,
    "regions": []
  },
  {
    "code": "21ada",
    "name": "Angul",
    "updated_at": "2014-09-22T21:12:43.450954Z",
    "country": "in",
    "parent": null,
    "longitude": 85.0999984741211,
    "latitude": 20.8500003814697,
    "regions": []
  },
  {
    "code": "21ad9",
    "name": "Aranmūla",
    "updated_at": "2014-09-22T21:12:43.376587Z",
    "country": "in",
    "parent": null,
    "longitude": 76.6832962036133,
    "latitude": 9.33333015441895,
    "regions": []
  },
  {
    "code": "21ad8",
    "name": "Ayyampālaiyam",
    "updated_at": "2014-09-22T21:12:43.213919Z",
    "country": "in",
    "parent": null,
    "longitude": 77.7332992553711,
    "latitude": 10.2333002090454,
    "regions": []
  },
  {
    "code": "21ad7",
    "name": "Balāngīr",
    "updated_at": "2014-09-22T21:12:43.043766Z",
    "country": "in",
    "parent": null,
    "longitude": 83.4832992553711,
    "latitude": 20.7166996002197,
    "regions": []
  },
  {
    "code": "21ad6",
    "name": "Bandikui",
    "updated_at": "2014-09-22T21:12:42.943438Z",
    "country": "in",
    "parent": null,
    "longitude": 76.5667037963867,
    "latitude": 27.0499992370605,
    "regions": []
  },
  {
    "code": "21ad5",
    "name": "Baratang Island",
    "updated_at": "2014-09-22T21:12:42.859135Z",
    "country": "in",
    "parent": null,
    "longitude": 92.75,
    "latitude": 12.2166996002197,
    "regions": []
  },
  {
    "code": "21ad4",
    "name": "Bārmer",
    "updated_at": "2014-09-22T21:12:42.795899Z",
    "country": "in",
    "parent": null,
    "longitude": 71.38330078125,
    "latitude": 25.75,
    "regions": []
  },
  {
    "code": "21ad3",
    "name": "Bāsni",
    "updated_at": "2014-09-22T21:12:42.713260Z",
    "country": "in",
    "parent": null,
    "longitude": 73.0167007446289,
    "latitude": 26.2332992553711,
    "regions": []
  },
  {
    "code": "21ad2",
    "name": "Behrai",
    "updated_at": "2014-09-22T21:12:42.610555Z",
    "country": "in",
    "parent": null,
    "longitude": 79.88330078125,
    "latitude": 22.0167007446289,
    "regions": []
  },
  {
    "code": "21ad1",
    "name": "Belagula",
    "updated_at": "2014-09-22T21:12:42.560440Z",
    "country": "in",
    "parent": null,
    "longitude": 76.5903015136719,
    "latitude": 12.3846998214722,
    "regions": []
  },
  {
    "code": "21ad0",
    "name": "Settahalasūr",
    "updated_at": "2014-09-22T21:12:42.461470Z",
    "country": "in",
    "parent": null,
    "longitude": 77.5999984741211,
    "latitude": 13.1332998275757,
    "regions": []
  },
  {
    "code": "21acf",
    "name": "Betūl",
    "updated_at": "2014-09-22T21:12:42.416078Z",
    "country": "in",
    "parent": null,
    "longitude": 77.8961029052734,
    "latitude": 21.9153003692627,
    "regions": []
  },
  {
    "code": "21ace",
    "name": "Bhakur",
    "updated_at": "2014-09-22T21:12:42.378905Z",
    "country": "in",
    "parent": null,
    "longitude": 86.1832962036133,
    "latitude": 20.61669921875,
    "regions": []
  },
  {
    "code": "21acd",
    "name": "Bīla",
    "updated_at": "2014-09-22T21:12:42.048940Z",
    "country": "in",
    "parent": null,
    "longitude": 76.9332962036133,
    "latitude": 30.63330078125,
    "regions": []
  },
  {
    "code": "21acc",
    "name": "Bilāspur",
    "updated_at": "2014-09-22T21:12:42.016118Z",
    "country": "in",
    "parent": null,
    "longitude": 76.75,
    "latitude": 31.3332996368408,
    "regions": []
  },
  {
    "code": "21acb",
    "name": "Bīnāwās",
    "updated_at": "2014-09-22T21:12:42.000082Z",
    "country": "in",
    "parent": null,
    "longitude": 73.3747024536133,
    "latitude": 26.2772006988525,
    "regions": []
  },
  {
    "code": "21aca",
    "name": "Būdalūr",
    "updated_at": "2014-09-22T21:12:41.851158Z",
    "country": "in",
    "parent": null,
    "longitude": 78.9832992553711,
    "latitude": 10.8000001907349,
    "regions": []
  },
  {
    "code": "21ac9",
    "name": "Buin",
    "updated_at": "2014-09-22T21:12:41.833966Z",
    "country": "in",
    "parent": null,
    "longitude": 80.2667007446289,
    "latitude": 30.1499996185303,
    "regions": []
  },
  {
    "code": "21ac8",
    "name": "Chandīgarh",
    "updated_at": "2014-09-22T21:12:41.571244Z",
    "country": "in",
    "parent": null,
    "longitude": 76.9167022705078,
    "latitude": 30.7332992553711,
    "regions": []
  },
  {
    "code": "21ac7",
    "name": "Chānod",
    "updated_at": "2014-09-22T21:12:41.521814Z",
    "country": "in",
    "parent": null,
    "longitude": 73.11669921875,
    "latitude": 25.5333003997803,
    "regions": []
  },
  {
    "code": "21ac6",
    "name": "Cheyūr",
    "updated_at": "2014-09-22T21:12:38.422213Z",
    "country": "in",
    "parent": null,
    "longitude": 80.0046997070312,
    "latitude": 12.3480997085571,
    "regions": []
  },
  {
    "code": "21ac5",
    "name": "Chotila",
    "updated_at": "2014-09-22T21:12:38.169923Z",
    "country": "in",
    "parent": null,
    "longitude": 71.1832962036133,
    "latitude": 22.4167003631592,
    "regions": []
  },
  {
    "code": "21ac4",
    "name": "Cotombi",
    "updated_at": "2014-09-22T21:12:38.051479Z",
    "country": "in",
    "parent": null,
    "longitude": 74.0333023071289,
    "latitude": 15.4666996002197,
    "regions": []
  },
  {
    "code": "21ac3",
    "name": "Dakan Kotra",
    "updated_at": "2014-09-22T21:12:37.893270Z",
    "country": "in",
    "parent": null,
    "longitude": 73.7166976928711,
    "latitude": 24.5,
    "regions": []
  },
  {
    "code": "21ac2",
    "name": "Dānishpet",
    "updated_at": "2014-09-22T21:12:37.807427Z",
    "country": "in",
    "parent": null,
    "longitude": 78.1500015258789,
    "latitude": 11.8667001724243,
    "regions": []
  },
  {
    "code": "21ac1",
    "name": "Daund",
    "updated_at": "2014-09-22T21:12:37.732021Z",
    "country": "in",
    "parent": null,
    "longitude": 74.5999984741211,
    "latitude": 18.4666996002197,
    "regions": []
  },
  {
    "code": "21ac0",
    "name": "Deskit",
    "updated_at": "2014-09-22T21:12:37.551172Z",
    "country": "in",
    "parent": null,
    "longitude": 77.5500030517578,
    "latitude": 34.5499992370605,
    "regions": []
  },
  {
    "code": "21abf",
    "name": "Dhanaulti",
    "updated_at": "2014-09-22T21:12:37.422898Z",
    "country": "in",
    "parent": null,
    "longitude": 78.25,
    "latitude": 30.4500007629395,
    "regions": []
  },
  {
    "code": "21abe",
    "name": "Dhānd",
    "updated_at": "2014-09-22T21:12:37.378072Z",
    "country": "in",
    "parent": null,
    "longitude": 75.9332962036133,
    "latitude": 27.0666999816895,
    "regions": []
  },
  {
    "code": "21abd",
    "name": "Dhanwār",
    "updated_at": "2014-09-22T21:12:37.352085Z",
    "country": "in",
    "parent": null,
    "longitude": 80.5,
    "latitude": 22.2667007446289,
    "regions": []
  },
  {
    "code": "21abc",
    "name": "Dharamgarh",
    "updated_at": "2014-09-22T21:12:37.327158Z",
    "country": "in",
    "parent": null,
    "longitude": 80.0167007446289,
    "latitude": 29.88330078125,
    "regions": []
  },
  {
    "code": "21abb",
    "name": "Dhārāpuram",
    "updated_at": "2014-09-22T21:12:37.294623Z",
    "country": "in",
    "parent": null,
    "longitude": 77.5167007446289,
    "latitude": 10.7333002090454,
    "regions": []
  },
  {
    "code": "21aba",
    "name": "Dindigul",
    "updated_at": "2014-09-22T21:12:37.166039Z",
    "country": "in",
    "parent": null,
    "longitude": 77.9499969482422,
    "latitude": 10.3500003814697,
    "regions": []
  },
  {
    "code": "21ab9",
    "name": "Dod Jāla",
    "updated_at": "2014-09-22T21:12:37.095118Z",
    "country": "in",
    "parent": null,
    "longitude": 77.6500015258789,
    "latitude": 13.1833000183105,
    "regions": []
  },
  {
    "code": "21ab8",
    "name": "Dombivli",
    "updated_at": "2014-09-22T21:12:37.031595Z",
    "country": "in",
    "parent": null,
    "longitude": 73.0832977294922,
    "latitude": 19.2166996002197,
    "regions": []
  },
  {
    "code": "21ab7",
    "name": "Dosapādu",
    "updated_at": "2014-09-22T21:12:36.964313Z",
    "country": "in",
    "parent": null,
    "longitude": 80.9666976928711,
    "latitude": 16.4832992553711,
    "regions": []
  },
  {
    "code": "21ab6",
    "name": "Edapalli",
    "updated_at": "2014-09-22T21:12:36.864095Z",
    "country": "in",
    "parent": null,
    "longitude": 76.3000030517578,
    "latitude": 10.0333003997803,
    "regions": []
  },
  {
    "code": "21ab5",
    "name": "Ferokh",
    "updated_at": "2014-09-22T21:12:36.671043Z",
    "country": "in",
    "parent": null,
    "longitude": 75.8499984741211,
    "latitude": 11.1833000183105,
    "regions": []
  },
  {
    "code": "21ab4",
    "name": "Golikatte",
    "updated_at": "2014-09-22T21:12:36.295527Z",
    "country": "in",
    "parent": null,
    "longitude": 74.86669921875,
    "latitude": 13.6000003814697,
    "regions": []
  },
  {
    "code": "21ab3",
    "name": "Gorākāpa Kachehri",
    "updated_at": "2014-09-22T21:12:36.196896Z",
    "country": "in",
    "parent": null,
    "longitude": 91.8000030517578,
    "latitude": 23.1499996185303,
    "regions": []
  },
  {
    "code": "21ab2",
    "name": "Gosaha",
    "updated_at": "2014-09-22T21:12:36.181229Z",
    "country": "in",
    "parent": null,
    "longitude": 88.8028030395508,
    "latitude": 22.1630992889404,
    "regions": []
  },
  {
    "code": "21ab1",
    "name": "Guhāgar",
    "updated_at": "2014-09-22T21:12:36.145308Z",
    "country": "in",
    "parent": null,
    "longitude": 73.1999969482422,
    "latitude": 17.4666996002197,
    "regions": []
  },
  {
    "code": "21ab0",
    "name": "Haridāspur",
    "updated_at": "2014-09-22T21:12:35.944637Z",
    "country": "in",
    "parent": null,
    "longitude": 86.11669921875,
    "latitude": 20.7332992553711,
    "regions": []
  },
  {
    "code": "21aaf",
    "name": "Haripūr",
    "updated_at": "2014-09-22T21:12:35.891969Z",
    "country": "in",
    "parent": null,
    "longitude": 77.1667022705078,
    "latitude": 32.1500015258789,
    "regions": []
  },
  {
    "code": "21aae",
    "name": "Hundar",
    "updated_at": "2014-09-22T21:12:35.671825Z",
    "country": "in",
    "parent": null,
    "longitude": 77.4666976928711,
    "latitude": 34.5999984741211,
    "regions": []
  },
  {
    "code": "21aad",
    "name": "Jabalpur",
    "updated_at": "2014-09-22T21:12:35.555302Z",
    "country": "in",
    "parent": null,
    "longitude": 79.9499969482422,
    "latitude": 23.1667003631592,
    "regions": []
  },
  {
    "code": "21aac",
    "name": "Jālna",
    "updated_at": "2014-09-22T21:12:35.385853Z",
    "country": "in",
    "parent": null,
    "longitude": 75.88330078125,
    "latitude": 19.8332996368408,
    "regions": []
  },
  {
    "code": "21aab",
    "name": "Jambughoda",
    "updated_at": "2014-09-22T21:12:35.361349Z",
    "country": "in",
    "parent": null,
    "longitude": 73.7166976928711,
    "latitude": 22.36669921875,
    "regions": []
  },
  {
    "code": "21aaa",
    "name": "Jāmnagar",
    "updated_at": "2014-09-22T21:12:35.278178Z",
    "country": "in",
    "parent": null,
    "longitude": 70.0667037963867,
    "latitude": 22.4666996002197,
    "regions": []
  },
  {
    "code": "21aa9",
    "name": "Jhānsi",
    "updated_at": "2014-09-22T21:12:35.132481Z",
    "country": "in",
    "parent": null,
    "longitude": 78.5832977294922,
    "latitude": 25.4333000183105,
    "regions": []
  },
  {
    "code": "21aa8",
    "name": "Kadus",
    "updated_at": "2014-09-22T21:12:34.900988Z",
    "country": "in",
    "parent": null,
    "longitude": 73.8167037963867,
    "latitude": 18.88330078125,
    "regions": []
  },
  {
    "code": "21aa7",
    "name": "Kālaj",
    "updated_at": "2014-09-22T21:12:34.705443Z",
    "country": "in",
    "parent": null,
    "longitude": 74.3167037963867,
    "latitude": 18.0,
    "regions": []
  },
  {
    "code": "21aa6",
    "name": "Kalial",
    "updated_at": "2016-02-09T09:32:32.422826Z",
    "country": "in",
    "parent": null,
    "longitude": 77.3000030517578,
    "latitude": 8.39999961853027,
    "regions": []
  },
  {
    "code": "21aa5",
    "name": "Kālva",
    "updated_at": "2014-09-22T21:12:34.553746Z",
    "country": "in",
    "parent": null,
    "longitude": 72.9832992553711,
    "latitude": 19.2000007629395,
    "regions": []
  },
  {
    "code": "21aa4",
    "name": "Kāndūr",
    "updated_at": "2014-09-22T21:12:34.345377Z",
    "country": "in",
    "parent": null,
    "longitude": 79.8332977294922,
    "latitude": 12.9499998092651,
    "regions": []
  },
  {
    "code": "21aa3",
    "name": "Karjat",
    "updated_at": "2014-09-22T21:12:34.120844Z",
    "country": "in",
    "parent": null,
    "longitude": 73.3332977294922,
    "latitude": 18.9167003631592,
    "regions": []
  },
  {
    "code": "21aa2",
    "name": "Varula",
    "updated_at": "2014-09-22T21:12:34.103127Z",
    "country": "in",
    "parent": null,
    "longitude": 73.4832992553711,
    "latitude": 18.75,
    "regions": []
  },
  {
    "code": "21aa1",
    "name": "Karumattampatti",
    "updated_at": "2014-09-22T21:12:34.016246Z",
    "country": "in",
    "parent": null,
    "longitude": 77.1832962036133,
    "latitude": 11.1167001724243,
    "regions": []
  },
  {
    "code": "21aa0",
    "name": "Karunāgapalli",
    "updated_at": "2014-09-22T21:12:33.981913Z",
    "country": "in",
    "parent": null,
    "longitude": 76.5500030517578,
    "latitude": 9.10000038146973,
    "regions": []
  },
  {
    "code": "21a9f",
    "name": "Karūr",
    "updated_at": "2014-09-22T21:12:33.951730Z",
    "country": "in",
    "parent": null,
    "longitude": 78.0832977294922,
    "latitude": 10.9499998092651,
    "regions": []
  },
  {
    "code": "21a9e",
    "name": "Kendrāparha",
    "updated_at": "2014-09-22T21:12:33.717816Z",
    "country": "in",
    "parent": null,
    "longitude": 86.4167022705078,
    "latitude": 20.5,
    "regions": []
  },
  {
    "code": "21a9d",
    "name": "Khandwa",
    "updated_at": "2014-09-22T21:12:33.567838Z",
    "country": "in",
    "parent": null,
    "longitude": 76.3332977294922,
    "latitude": 21.8332996368408,
    "regions": []
  },
  {
    "code": "21a9c",
    "name": "Khodāla",
    "updated_at": "2014-09-22T21:12:33.394276Z",
    "country": "in",
    "parent": null,
    "longitude": 73.4000015258789,
    "latitude": 19.7833003997803,
    "regions": []
  },
  {
    "code": "21a9b",
    "name": "Kolād",
    "updated_at": "2014-09-22T21:12:33.296965Z",
    "country": "in",
    "parent": null,
    "longitude": 73.1999969482422,
    "latitude": 18.3999996185303,
    "regions": []
  },
  {
    "code": "21a9a",
    "name": "Kolhāpur",
    "updated_at": "2014-09-22T21:12:33.270873Z",
    "country": "in",
    "parent": null,
    "longitude": 74.2166976928711,
    "latitude": 16.7000007629395,
    "regions": []
  },
  {
    "code": "21a99",
    "name": "Kollegāl",
    "updated_at": "2014-09-22T21:12:33.244865Z",
    "country": "in",
    "parent": null,
    "longitude": 77.11669921875,
    "latitude": 12.1499996185303,
    "regions": []
  },
  {
    "code": "21a98",
    "name": "Kollengode",
    "updated_at": "2014-09-22T21:12:33.214807Z",
    "country": "in",
    "parent": null,
    "longitude": 76.6999969482422,
    "latitude": 10.6167001724243,
    "regions": []
  },
  {
    "code": "21a97",
    "name": "Kolvan",
    "updated_at": "2014-09-22T21:12:33.180457Z",
    "country": "in",
    "parent": null,
    "longitude": 73.5333023071289,
    "latitude": 18.5832996368408,
    "regions": []
  },
  {
    "code": "21a96",
    "name": "Konārka",
    "updated_at": "2014-09-22T21:12:33.147459Z",
    "country": "in",
    "parent": null,
    "longitude": 86.11669921875,
    "latitude": 19.8999996185303,
    "regions": []
  },
  {
    "code": "21a95",
    "name": "Kovillūr",
    "updated_at": "2014-09-22T21:12:32.978797Z",
    "country": "in",
    "parent": null,
    "longitude": 77.1999969482422,
    "latitude": 8.46667003631592,
    "regions": []
  },
  {
    "code": "21a94",
    "name": "Kumguri",
    "updated_at": "2014-09-22T21:12:32.747328Z",
    "country": "in",
    "parent": null,
    "longitude": 91.0999984741211,
    "latitude": 26.7000007629395,
    "regions": []
  },
  {
    "code": "21a93",
    "name": "Kunnamangalam",
    "updated_at": "2014-09-22T21:12:32.687486Z",
    "country": "in",
    "parent": null,
    "longitude": 75.88330078125,
    "latitude": 11.3166999816895,
    "regions": []
  },
  {
    "code": "21a92",
    "name": "Kurābar",
    "updated_at": "2014-09-22T21:12:32.655930Z",
    "country": "in",
    "parent": null,
    "longitude": 73.9666976928711,
    "latitude": 24.4500007629395,
    "regions": []
  },
  {
    "code": "21a91",
    "name": "Kūri",
    "updated_at": "2014-09-22T21:12:32.628675Z",
    "country": "in",
    "parent": null,
    "longitude": 70.7166976928711,
    "latitude": 26.61669921875,
    "regions": []
  },
  {
    "code": "21a90",
    "name": "Lachung",
    "updated_at": "2014-09-22T21:12:32.562561Z",
    "country": "in",
    "parent": null,
    "longitude": 88.75,
    "latitude": 27.7000007629395,
    "regions": []
  },
  {
    "code": "21a8f",
    "name": "Lambāna",
    "updated_at": "2014-09-22T21:12:32.495763Z",
    "country": "in",
    "parent": null,
    "longitude": 74.4832992553711,
    "latitude": 26.25,
    "regions": []
  },
  {
    "code": "21a8e",
    "name": "Lātūr",
    "updated_at": "2014-09-22T21:12:32.472668Z",
    "country": "in",
    "parent": null,
    "longitude": 76.5832977294922,
    "latitude": 18.3999996185303,
    "regions": []
  },
  {
    "code": "21a8d",
    "name": "Lonand",
    "updated_at": "2014-09-22T21:12:32.407424Z",
    "country": "in",
    "parent": null,
    "longitude": 74.1832962036133,
    "latitude": 18.0333003997803,
    "regions": []
  },
  {
    "code": "21a8c",
    "name": "Lūni",
    "updated_at": "2014-09-22T21:12:32.297966Z",
    "country": "in",
    "parent": null,
    "longitude": 73.002197265625,
    "latitude": 26.0016994476318,
    "regions": []
  },
  {
    "code": "21a8b",
    "name": "Mahād",
    "updated_at": "2014-09-22T21:12:32.107508Z",
    "country": "in",
    "parent": null,
    "longitude": 73.4167022705078,
    "latitude": 18.0832996368408,
    "regions": []
  },
  {
    "code": "21a8a",
    "name": "Mahirāvani",
    "updated_at": "2014-09-22T21:12:32.089791Z",
    "country": "in",
    "parent": null,
    "longitude": 73.6500015258789,
    "latitude": 19.9666996002197,
    "regions": []
  },
  {
    "code": "21a89",
    "name": "Malar",
    "updated_at": "2014-09-22T21:12:32.006320Z",
    "country": "in",
    "parent": null,
    "longitude": 73.9167022705078,
    "latitude": 15.5166997909546,
    "regions": []
  },
  {
    "code": "21a88",
    "name": "Malayāttūr",
    "updated_at": "2014-09-22T21:12:31.979822Z",
    "country": "in",
    "parent": null,
    "longitude": 76.5333023071289,
    "latitude": 10.1999998092651,
    "regions": []
  },
  {
    "code": "21a87",
    "name": "Manglutān",
    "updated_at": "2014-09-22T21:12:31.769013Z",
    "country": "in",
    "parent": null,
    "longitude": 92.6500015258789,
    "latitude": 11.5832996368408,
    "regions": []
  },
  {
    "code": "21a86",
    "name": "Maniarwa",
    "updated_at": "2014-09-22T21:12:31.741460Z",
    "country": "in",
    "parent": null,
    "longitude": 86.1500015258789,
    "latitude": 26.4832992553711,
    "regions": []
  },
  {
    "code": "21a85",
    "name": "Mātherān",
    "updated_at": "2014-09-22T21:12:31.588347Z",
    "country": "in",
    "parent": null,
    "longitude": 73.2667007446289,
    "latitude": 18.9832992553711,
    "regions": []
  },
  {
    "code": "21a84",
    "name": "Mirik",
    "updated_at": "2014-09-22T21:12:31.455005Z",
    "country": "in",
    "parent": null,
    "longitude": 88.1667022705078,
    "latitude": 26.8999996185303,
    "regions": []
  },
  {
    "code": "21a83",
    "name": "Mohāna",
    "updated_at": "2014-09-22T21:12:31.387876Z",
    "country": "in",
    "parent": null,
    "longitude": 75.6999969482422,
    "latitude": 26.7999992370605,
    "regions": []
  },
  {
    "code": "21a82",
    "name": "Mokhāda",
    "updated_at": "2014-09-22T21:12:31.362410Z",
    "country": "in",
    "parent": null,
    "longitude": 73.3332977294922,
    "latitude": 19.9333000183105,
    "regions": []
  },
  {
    "code": "21a81",
    "name": "Mūlki",
    "updated_at": "2014-09-22T21:12:31.240435Z",
    "country": "in",
    "parent": null,
    "longitude": 74.8000030517578,
    "latitude": 13.1000003814697,
    "regions": []
  },
  {
    "code": "21a80",
    "name": "Nālāgarh",
    "updated_at": "2014-09-22T21:12:30.948018Z",
    "country": "in",
    "parent": null,
    "longitude": 76.7166976928711,
    "latitude": 31.0499992370605,
    "regions": []
  },
  {
    "code": "21a7f",
    "name": "Nāmakkal",
    "updated_at": "2014-09-22T21:12:30.917890Z",
    "country": "in",
    "parent": null,
    "longitude": 78.1667022705078,
    "latitude": 11.2333002090454,
    "regions": []
  },
  {
    "code": "21a7e",
    "name": "Narwar",
    "updated_at": "2014-09-22T21:12:30.759909Z",
    "country": "in",
    "parent": null,
    "longitude": 74.6832962036133,
    "latitude": 26.61669921875,
    "regions": []
  },
  {
    "code": "21a7d",
    "name": "Nigohi",
    "updated_at": "2014-09-22T21:12:30.516863Z",
    "country": "in",
    "parent": null,
    "longitude": 79.86669921875,
    "latitude": 28.1000003814697,
    "regions": []
  },
  {
    "code": "21a7c",
    "name": "Nimu",
    "updated_at": "2014-09-22T21:12:30.448781Z",
    "country": "in",
    "parent": null,
    "longitude": 77.3332977294922,
    "latitude": 34.2000007629395,
    "regions": []
  },
  {
    "code": "21a7b",
    "name": "Osiān",
    "updated_at": "2014-09-22T21:12:30.356641Z",
    "country": "in",
    "parent": null,
    "longitude": 72.9167022705078,
    "latitude": 26.7166996002197,
    "regions": []
  },
  {
    "code": "21a7a",
    "name": "Palasdhari",
    "updated_at": "2014-09-22T21:12:30.245835Z",
    "country": "in",
    "parent": null,
    "longitude": 73.3167037963867,
    "latitude": 18.8999996185303,
    "regions": []
  },
  {
    "code": "21a79",
    "name": "Pallipuram",
    "updated_at": "2014-09-22T21:12:30.226351Z",
    "country": "in",
    "parent": null,
    "longitude": 76.1832962036133,
    "latitude": 10.1667003631592,
    "regions": []
  },
  {
    "code": "21a78",
    "name": "Perintalmanna",
    "updated_at": "2014-09-22T21:12:29.841451Z",
    "country": "in",
    "parent": null,
    "longitude": 76.2332992553711,
    "latitude": 10.9833002090454,
    "regions": []
  },
  {
    "code": "21a77",
    "name": "Perumkulam",
    "updated_at": "2014-09-22T21:12:29.807229Z",
    "country": "in",
    "parent": null,
    "longitude": 77.0667037963867,
    "latitude": 8.5,
    "regions": []
  },
  {
    "code": "21a76",
    "name": "Perumpāvūr",
    "updated_at": "2014-09-22T21:12:29.778966Z",
    "country": "in",
    "parent": null,
    "longitude": 76.4779777526855,
    "latitude": 10.1169079949858,
    "regions": []
  },
  {
    "code": "21a75",
    "name": "Phaltan",
    "updated_at": "2014-09-22T21:12:29.740720Z",
    "country": "in",
    "parent": null,
    "longitude": 74.4332962036133,
    "latitude": 17.9832992553711,
    "regions": []
  },
  {
    "code": "21a74",
    "name": "Rājahmundry",
    "updated_at": "2014-09-22T21:12:29.119002Z",
    "country": "in",
    "parent": null,
    "longitude": 81.7833023071289,
    "latitude": 16.9832992553711,
    "regions": []
  },
  {
    "code": "21a73",
    "name": "Ratnāgiri",
    "updated_at": "2014-09-22T21:12:28.725616Z",
    "country": "in",
    "parent": null,
    "longitude": 73.3000030517578,
    "latitude": 16.9832992553711,
    "regions": []
  },
  {
    "code": "21a72",
    "name": "Revadanda",
    "updated_at": "2014-09-22T21:12:28.671586Z",
    "country": "in",
    "parent": null,
    "longitude": 72.9278030395508,
    "latitude": 18.5503005981445,
    "regions": []
  },
  {
    "code": "21a71",
    "name": "Rudāna",
    "updated_at": "2014-09-22T21:12:28.636236Z",
    "country": "in",
    "parent": null,
    "longitude": 73.0832977294922,
    "latitude": 20.1000003814697,
    "regions": []
  },
  {
    "code": "21a70",
    "name": "Sāngli",
    "updated_at": "2014-09-22T21:12:28.385779Z",
    "country": "in",
    "parent": null,
    "longitude": 74.5667037963867,
    "latitude": 16.86669921875,
    "regions": []
  },
  {
    "code": "21a6f",
    "name": "Sasoma",
    "updated_at": "2014-09-22T21:12:28.302881Z",
    "country": "in",
    "parent": null,
    "longitude": 77.4666976928711,
    "latitude": 34.88330078125,
    "regions": []
  },
  {
    "code": "21a6e",
    "name": "Sātabhāya",
    "updated_at": "2014-09-22T21:12:28.275308Z",
    "country": "in",
    "parent": null,
    "longitude": 86.9332962036133,
    "latitude": 20.63330078125,
    "regions": []
  },
  {
    "code": "21a6d",
    "name": "Sātej",
    "updated_at": "2014-09-22T21:12:28.241331Z",
    "country": "in",
    "parent": null,
    "longitude": 72.4666976928711,
    "latitude": 23.1000003814697,
    "regions": []
  },
  {
    "code": "21a6c",
    "name": "Shāhābād",
    "updated_at": "2014-09-22T21:12:28.103216Z",
    "country": "in",
    "parent": null,
    "longitude": 76.870002746582,
    "latitude": 30.1683006286621,
    "regions": []
  },
  {
    "code": "21a6b",
    "name": "Shikrapur",
    "updated_at": "2014-09-22T21:12:27.999064Z",
    "country": "in",
    "parent": null,
    "longitude": 74.1500015258789,
    "latitude": 18.6833000183105,
    "regions": []
  },
  {
    "code": "21a6a",
    "name": "Shūshot",
    "updated_at": "2014-09-22T21:12:27.829522Z",
    "country": "in",
    "parent": null,
    "longitude": 77.63330078125,
    "latitude": 34.0499992370605,
    "regions": []
  },
  {
    "code": "21a69",
    "name": "Sītāpur Mūāfi",
    "updated_at": "2014-09-22T21:12:27.636543Z",
    "country": "in",
    "parent": null,
    "longitude": 80.86669921875,
    "latitude": 25.1833000183105,
    "regions": []
  },
  {
    "code": "21a68",
    "name": "Sonāmarg",
    "updated_at": "2014-09-22T21:12:27.492204Z",
    "country": "in",
    "parent": null,
    "longitude": 75.3000030517578,
    "latitude": 34.2999992370605,
    "regions": []
  },
  {
    "code": "21a67",
    "name": "Spangmik",
    "updated_at": "2014-09-22T21:12:27.462349Z",
    "country": "in",
    "parent": null,
    "longitude": 78.4666976928711,
    "latitude": 33.9166984558105,
    "regions": []
  },
  {
    "code": "21a66",
    "name": "Srungavarapukota",
    "updated_at": "2014-09-22T21:12:27.340207Z",
    "country": "in",
    "parent": null,
    "longitude": 83.1667022705078,
    "latitude": 18.11669921875,
    "regions": []
  },
  {
    "code": "21a65",
    "name": "Subrahmanya",
    "updated_at": "2014-09-22T21:12:27.320486Z",
    "country": "in",
    "parent": null,
    "longitude": 75.5999984741211,
    "latitude": 12.6667003631592,
    "regions": []
  },
  {
    "code": "21a64",
    "name": "Sultānpur",
    "updated_at": "2014-09-22T21:12:27.281476Z",
    "country": "in",
    "parent": null,
    "longitude": 77.9332962036133,
    "latitude": 23.1499996185303,
    "regions": []
  },
  {
    "code": "21a63",
    "name": "Telkapalli",
    "updated_at": "2014-09-22T21:12:27.053003Z",
    "country": "in",
    "parent": null,
    "longitude": 78.4666976928711,
    "latitude": 16.4500007629395,
    "regions": []
  },
  {
    "code": "21a62",
    "name": "Tellicherry",
    "updated_at": "2014-09-22T21:12:27.034865Z",
    "country": "in",
    "parent": null,
    "longitude": 75.5333023071289,
    "latitude": 11.75,
    "regions": []
  },
  {
    "code": "21a61",
    "name": "Theni",
    "updated_at": "2014-09-22T21:12:27.015919Z",
    "country": "in",
    "parent": null,
    "longitude": 77.4832992553711,
    "latitude": 10.0,
    "regions": []
  },
  {
    "code": "21a60",
    "name": "Tezpur",
    "updated_at": "2014-09-22T21:12:26.988985Z",
    "country": "in",
    "parent": null,
    "longitude": 92.8000030517578,
    "latitude": 26.63330078125,
    "regions": []
  },
  {
    "code": "21a5f",
    "name": "Tiruttani",
    "updated_at": "2014-09-22T21:12:23.008317Z",
    "country": "in",
    "parent": null,
    "longitude": 79.63330078125,
    "latitude": 13.1833000183105,
    "regions": []
  },
  {
    "code": "21a5e",
    "name": "Tiruvalla",
    "updated_at": "2014-09-22T21:12:22.973714Z",
    "country": "in",
    "parent": null,
    "longitude": 76.5667037963867,
    "latitude": 9.38333034515381,
    "regions": []
  },
  {
    "code": "21a5d",
    "name": "Todgarh",
    "updated_at": "2014-09-22T21:12:22.893240Z",
    "country": "in",
    "parent": null,
    "longitude": 73.9666976928711,
    "latitude": 25.7000007629395,
    "regions": []
  },
  {
    "code": "21a5c",
    "name": "Trimbak",
    "updated_at": "2014-09-22T21:12:22.761182Z",
    "country": "in",
    "parent": null,
    "longitude": 73.5500030517578,
    "latitude": 19.9333000183105,
    "regions": []
  },
  {
    "code": "21a5b",
    "name": "Tripunittura",
    "updated_at": "2014-09-22T21:12:22.734311Z",
    "country": "in",
    "parent": null,
    "longitude": 76.3499984741211,
    "latitude": 9.94999980926514,
    "regions": []
  },
  {
    "code": "21a5a",
    "name": "Umaria",
    "updated_at": "2014-09-22T21:12:22.521973Z",
    "country": "in",
    "parent": null,
    "longitude": 78.63330078125,
    "latitude": 23.4167003631592,
    "regions": []
  },
  {
    "code": "21a59",
    "name": "Una",
    "updated_at": "2014-09-22T21:12:22.463615Z",
    "country": "in",
    "parent": null,
    "longitude": 76.2833023071289,
    "latitude": 31.4832992553711,
    "regions": []
  },
  {
    "code": "21a58",
    "name": "Uruli Kānchān",
    "updated_at": "2014-09-22T21:12:22.429026Z",
    "country": "in",
    "parent": null,
    "longitude": 74.13330078125,
    "latitude": 18.4832992553711,
    "regions": []
  },
  {
    "code": "21a57",
    "name": "Uttamapālaiyam",
    "updated_at": "2014-09-22T21:12:22.356097Z",
    "country": "in",
    "parent": null,
    "longitude": 77.3332977294922,
    "latitude": 9.80000019073486,
    "regions": []
  },
  {
    "code": "21a56",
    "name": "Vallam",
    "updated_at": "2014-09-22T21:12:22.256871Z",
    "country": "in",
    "parent": null,
    "longitude": 79.0832977294922,
    "latitude": 10.7166996002197,
    "regions": []
  },
  {
    "code": "21a55",
    "name": "Vellore",
    "updated_at": "2014-09-22T21:12:22.012466Z",
    "country": "in",
    "parent": null,
    "longitude": 79.13330078125,
    "latitude": 12.9333000183105,
    "regions": []
  },
  {
    "code": "21a54",
    "name": "Agban",
    "updated_at": "2014-09-22T21:12:21.543919Z",
    "country": "ci",
    "parent": null,
    "longitude": -4.03332996368408,
    "latitude": 5.36667013168335,
    "regions": []
  },
  {
    "code": "21a53",
    "name": "Isaka",
    "updated_at": "2014-09-22T21:12:21.481634Z",
    "country": "vu",
    "parent": null,
    "longitude": 169.399993896484,
    "latitude": -19.5333003997803,
    "regions": []
  },
  {
    "code": "21a52",
    "name": "Aalst",
    "updated_at": "2014-09-22T21:12:21.030143Z",
    "country": "nl",
    "parent": null,
    "longitude": 5.55000019073486,
    "latitude": 51.9500007629395,
    "regions": []
  },
  {
    "code": "21a51",
    "name": "Abbekerk",
    "updated_at": "2014-09-22T21:12:20.950720Z",
    "country": "nl",
    "parent": null,
    "longitude": 5.01667022705078,
    "latitude": 52.7332992553711,
    "regions": []
  },
  {
    "code": "21a50",
    "name": "Anjum",
    "updated_at": "2014-09-22T21:12:20.293116Z",
    "country": "nl",
    "parent": null,
    "longitude": 6.13332986831665,
    "latitude": 53.36669921875,
    "regions": []
  },
  {
    "code": "21a4f",
    "name": "Balgoij",
    "updated_at": "2014-09-22T21:12:19.597431Z",
    "country": "nl",
    "parent": null,
    "longitude": 5.71667003631592,
    "latitude": 51.7832984924316,
    "regions": []
  },
  {
    "code": "21a4e",
    "name": "Balloo",
    "updated_at": "2014-09-22T21:12:19.481543Z",
    "country": "nl",
    "parent": null,
    "longitude": 6.63332986831665,
    "latitude": 53.0,
    "regions": []
  },
  {
    "code": "21a4d",
    "name": "De Bangert",
    "updated_at": "2014-09-22T21:12:19.444863Z",
    "country": "nl",
    "parent": null,
    "longitude": 5.18333005905151,
    "latitude": 52.7332992553711,
    "regions": []
  },
  {
    "code": "21a4c",
    "name": "Bant",
    "updated_at": "2014-09-22T21:12:19.408337Z",
    "country": "nl",
    "parent": null,
    "longitude": 5.75,
    "latitude": 52.7667007446289,
    "regions": []
  },
  {
    "code": "21a4b",
    "name": "Benschop",
    "updated_at": "2014-09-22T21:12:18.860012Z",
    "country": "nl",
    "parent": null,
    "longitude": 4.98332977294922,
    "latitude": 52.0,
    "regions": []
  },
  {
    "code": "21a4a",
    "name": "Beringe",
    "updated_at": "2014-09-22T21:12:18.597623Z",
    "country": "nl",
    "parent": null,
    "longitude": 5.94999980926514,
    "latitude": 51.3333015441895,
    "regions": []
  },
  {
    "code": "21a49",
    "name": "Boelenslaan",
    "updated_at": "2014-09-22T21:12:18.107039Z",
    "country": "nl",
    "parent": null,
    "longitude": 6.15000009536743,
    "latitude": 53.1666984558105,
    "regions": []
  },
  {
    "code": "21a48",
    "name": "Bokhoven",
    "updated_at": "2014-09-22T21:12:18.089826Z",
    "country": "nl",
    "parent": null,
    "longitude": 5.23332977294922,
    "latitude": 51.7332992553711,
    "regions": []
  },
  {
    "code": "21a47",
    "name": "Bosch en Duin",
    "updated_at": "2014-09-22T21:12:17.947358Z",
    "country": "nl",
    "parent": null,
    "longitude": 5.25,
    "latitude": 52.11669921875,
    "regions": []
  },
  {
    "code": "21a46",
    "name": "Boxtel",
    "updated_at": "2014-09-22T21:12:17.836062Z",
    "country": "nl",
    "parent": null,
    "longitude": 5.31666994094849,
    "latitude": 51.5833015441895,
    "regions": []
  },
  {
    "code": "21a45",
    "name": "Brakel",
    "updated_at": "2014-09-22T21:12:17.777440Z",
    "country": "nl",
    "parent": null,
    "longitude": 5.09999990463257,
    "latitude": 51.8166999816895,
    "regions": []
  },
  {
    "code": "21a44",
    "name": "Budel",
    "updated_at": "2014-09-22T21:12:17.274436Z",
    "country": "nl",
    "parent": null,
    "longitude": 5.58333015441895,
    "latitude": 51.2667007446289,
    "regions": []
  },
  {
    "code": "21a43",
    "name": "Dalerpeel",
    "updated_at": "2014-09-22T21:12:16.673730Z",
    "country": "nl",
    "parent": null,
    "longitude": 6.66666984558105,
    "latitude": 52.6833000183105,
    "regions": []
  },
  {
    "code": "21a42",
    "name": "Den Ilp",
    "updated_at": "2014-09-22T21:12:16.027615Z",
    "country": "nl",
    "parent": null,
    "longitude": 4.91666984558105,
    "latitude": 52.4500007629395,
    "regions": []
  },
  {
    "code": "21a41",
    "name": "De Wilp",
    "updated_at": "2014-09-22T21:12:15.753092Z",
    "country": "nl",
    "parent": null,
    "longitude": 6.23332977294922,
    "latitude": 53.11669921875,
    "regions": []
  },
  {
    "code": "21a40",
    "name": "De Zilk",
    "updated_at": "2014-09-22T21:12:15.736140Z",
    "country": "nl",
    "parent": null,
    "longitude": 4.55000019073486,
    "latitude": 52.2999992370605,
    "regions": []
  },
  {
    "code": "21a3f",
    "name": "Diffelen",
    "updated_at": "2014-09-22T21:12:15.548182Z",
    "country": "nl",
    "parent": null,
    "longitude": 6.56666994094849,
    "latitude": 52.5167007446289,
    "regions": []
  },
  {
    "code": "21a3e",
    "name": "Donkervliet",
    "updated_at": "2014-09-22T21:12:15.306158Z",
    "country": "nl",
    "parent": null,
    "longitude": 5.0,
    "latitude": 52.2332992553711,
    "regions": []
  },
  {
    "code": "21a3d",
    "name": "Dussen",
    "updated_at": "2014-09-22T21:12:14.907681Z",
    "country": "nl",
    "parent": null,
    "longitude": 5.0,
    "latitude": 51.7332992553711,
    "regions": []
  },
  {
    "code": "21a3c",
    "name": "Ees",
    "updated_at": "2014-09-22T21:12:14.462696Z",
    "country": "nl",
    "parent": null,
    "longitude": 6.81666994094849,
    "latitude": 52.9166984558105,
    "regions": []
  },
  {
    "code": "21a3b",
    "name": "Frederiksoord",
    "updated_at": "2014-09-22T21:12:13.501524Z",
    "country": "nl",
    "parent": null,
    "longitude": 6.18333005905151,
    "latitude": 52.8499984741211,
    "regions": []
  },
  {
    "code": "21a3a",
    "name": "Garminge",
    "updated_at": "2014-09-22T21:12:13.390866Z",
    "country": "nl",
    "parent": null,
    "longitude": 6.63332986831665,
    "latitude": 52.8166999816895,
    "regions": []
  },
  {
    "code": "21a39",
    "name": "Geesteren",
    "updated_at": "2014-09-22T21:12:13.204706Z",
    "country": "nl",
    "parent": null,
    "longitude": 6.73332977294922,
    "latitude": 52.4166984558105,
    "regions": []
  },
  {
    "code": "21a38",
    "name": "Gelselaar",
    "updated_at": "2014-09-22T21:12:13.123698Z",
    "country": "nl",
    "parent": null,
    "longitude": 6.53332996368408,
    "latitude": 52.1666984558105,
    "regions": []
  },
  {
    "code": "21a37",
    "name": "Grijpskerk",
    "updated_at": "2014-09-22T21:12:12.706989Z",
    "country": "nl",
    "parent": null,
    "longitude": 6.30000019073486,
    "latitude": 53.2667007446289,
    "regions": []
  },
  {
    "code": "21a36",
    "name": "Hattem",
    "updated_at": "2014-09-22T21:12:12.009424Z",
    "country": "nl",
    "parent": null,
    "longitude": 6.06666994094849,
    "latitude": 52.4667015075684,
    "regions": []
  },
  {
    "code": "21a35",
    "name": "Heinkensand",
    "updated_at": "2016-02-09T09:32:30.057233Z",
    "country": "nl",
    "parent": null,
    "longitude": 3.81666994094849,
    "latitude": 51.4832992553711,
    "regions": []
  },
  {
    "code": "21a34",
    "name": "Hemmen",
    "updated_at": "2014-09-22T21:12:08.251225Z",
    "country": "nl",
    "parent": null,
    "longitude": 5.69999980926514,
    "latitude": 51.9333000183105,
    "regions": []
  },
  {
    "code": "21a33",
    "name": "Heusden",
    "updated_at": "2014-09-22T21:12:08.064604Z",
    "country": "nl",
    "parent": null,
    "longitude": 5.76667022705078,
    "latitude": 51.38330078125,
    "regions": []
  },
  {
    "code": "21a32",
    "name": "Hoek",
    "updated_at": "2014-09-22T21:12:07.794478Z",
    "country": "nl",
    "parent": null,
    "longitude": 3.78332996368408,
    "latitude": 51.3166999816895,
    "regions": []
  },
  {
    "code": "21a31",
    "name": "Hoensbroek",
    "updated_at": "2014-09-22T21:12:07.744599Z",
    "country": "nl",
    "parent": null,
    "longitude": 5.93333005905151,
    "latitude": 50.9166984558105,
    "regions": []
  },
  {
    "code": "21a30",
    "name": "Hoge-Hexel",
    "updated_at": "2014-09-22T21:12:07.536656Z",
    "country": "nl",
    "parent": null,
    "longitude": 6.58333015441895,
    "latitude": 52.4000015258789,
    "regions": []
  },
  {
    "code": "21a2f",
    "name": "IJzerlo",
    "updated_at": "2014-09-22T21:12:07.032382Z",
    "country": "nl",
    "parent": null,
    "longitude": 6.53332996368408,
    "latitude": 51.88330078125,
    "regions": []
  },
  {
    "code": "21a2e",
    "name": "Kapelle",
    "updated_at": "2014-09-22T21:12:06.772640Z",
    "country": "nl",
    "parent": null,
    "longitude": 3.95899796485901,
    "latitude": 51.4864082336426,
    "regions": []
  },
  {
    "code": "21a2d",
    "name": "Kesteren",
    "updated_at": "2014-09-22T21:12:06.485166Z",
    "country": "nl",
    "parent": null,
    "longitude": 5.56666994094849,
    "latitude": 51.9333000183105,
    "regions": []
  },
  {
    "code": "21a2c",
    "name": "Kloosterzande",
    "updated_at": "2014-09-22T21:12:06.313379Z",
    "country": "nl",
    "parent": null,
    "longitude": 4.01667022705078,
    "latitude": 51.36669921875,
    "regions": []
  },
  {
    "code": "21a2b",
    "name": "Koog aan de Zaan",
    "updated_at": "2014-09-22T21:12:06.124619Z",
    "country": "nl",
    "parent": null,
    "longitude": 4.80000019073486,
    "latitude": 52.4667015075684,
    "regions": []
  },
  {
    "code": "21a2a",
    "name": "Krabbendam",
    "updated_at": "2014-09-22T21:12:05.979286Z",
    "country": "nl",
    "parent": null,
    "longitude": 4.69999980926514,
    "latitude": 52.7332992553711,
    "regions": []
  },
  {
    "code": "21a29",
    "name": "Kreileroord",
    "updated_at": "2014-09-22T21:12:05.936465Z",
    "country": "nl",
    "parent": null,
    "longitude": 5.08333015441895,
    "latitude": 52.8499984741211,
    "regions": []
  },
  {
    "code": "21a28",
    "name": "Laag Zuthem",
    "updated_at": "2014-09-22T21:12:05.832046Z",
    "country": "nl",
    "parent": null,
    "longitude": 6.16666984558105,
    "latitude": 52.4667015075684,
    "regions": []
  },
  {
    "code": "21a27",
    "name": "Laak",
    "updated_at": "2014-09-22T21:12:05.809082Z",
    "country": "nl",
    "parent": null,
    "longitude": 5.81666994094849,
    "latitude": 51.11669921875,
    "regions": []
  },
  {
    "code": "21a26",
    "name": "Leersum",
    "updated_at": "2014-09-22T21:12:05.537961Z",
    "country": "nl",
    "parent": null,
    "longitude": 5.43333005905151,
    "latitude": 52.0167007446289,
    "regions": []
  },
  {
    "code": "21a25",
    "name": "Lettelbert",
    "updated_at": "2014-09-22T21:12:05.268651Z",
    "country": "nl",
    "parent": null,
    "longitude": 6.40000009536743,
    "latitude": 53.1833000183105,
    "regions": []
  },
  {
    "code": "21a24",
    "name": "Lewedorp",
    "updated_at": "2014-09-22T21:12:05.222046Z",
    "country": "nl",
    "parent": null,
    "longitude": 3.75,
    "latitude": 51.5,
    "regions": []
  },
  {
    "code": "21a23",
    "name": "Liessel",
    "updated_at": "2014-09-22T21:12:05.110191Z",
    "country": "nl",
    "parent": null,
    "longitude": 5.81666994094849,
    "latitude": 51.4166984558105,
    "regions": []
  },
  {
    "code": "21a22",
    "name": "Lutjebroek",
    "updated_at": "2014-09-22T21:12:04.669642Z",
    "country": "nl",
    "parent": null,
    "longitude": 5.19999980926514,
    "latitude": 52.7000007629395,
    "regions": []
  },
  {
    "code": "21a21",
    "name": "Lutjegast",
    "updated_at": "2014-09-22T21:12:04.653193Z",
    "country": "nl",
    "parent": null,
    "longitude": 6.26667022705078,
    "latitude": 53.2332992553711,
    "regions": []
  },
  {
    "code": "21a20",
    "name": "Mander",
    "updated_at": "2014-09-22T21:12:04.389149Z",
    "country": "nl",
    "parent": null,
    "longitude": 6.83333015441895,
    "latitude": 52.4500007629395,
    "regions": []
  },
  {
    "code": "21a1f",
    "name": "Menaldum",
    "updated_at": "2014-09-22T21:12:04.100997Z",
    "country": "nl",
    "parent": null,
    "longitude": 5.66666984558105,
    "latitude": 53.2167015075684,
    "regions": []
  },
  {
    "code": "21a1e",
    "name": "Munnekeburen",
    "updated_at": "2014-09-22T21:12:03.477117Z",
    "country": "nl",
    "parent": null,
    "longitude": 5.88332986831665,
    "latitude": 52.8499984741211,
    "regions": []
  },
  {
    "code": "21a1d",
    "name": "Nederwetten",
    "updated_at": "2014-09-22T21:12:03.321632Z",
    "country": "nl",
    "parent": null,
    "longitude": 5.53332996368408,
    "latitude": 51.4832992553711,
    "regions": []
  },
  {
    "code": "21a1c",
    "name": "Neeritter",
    "updated_at": "2014-09-22T21:12:03.246677Z",
    "country": "nl",
    "parent": null,
    "longitude": 5.80000019073486,
    "latitude": 51.1666984558105,
    "regions": []
  },
  {
    "code": "21a1b",
    "name": "Nekkeveld",
    "updated_at": "2014-09-22T21:12:03.231855Z",
    "country": "nl",
    "parent": null,
    "longitude": 5.40000009536743,
    "latitude": 52.25,
    "regions": []
  },
  {
    "code": "21a1a",
    "name": "Nieuwe-Niedorp",
    "updated_at": "2014-09-22T21:12:03.013275Z",
    "country": "nl",
    "parent": null,
    "longitude": 4.90000009536743,
    "latitude": 52.7332992553711,
    "regions": []
  },
  {
    "code": "21a19",
    "name": "Nieuwerkerk",
    "updated_at": "2014-09-22T21:12:02.998448Z",
    "country": "nl",
    "parent": null,
    "longitude": 4.0,
    "latitude": 51.6500015258789,
    "regions": []
  },
  {
    "code": "21a18",
    "name": "Nieuw-Heeten",
    "updated_at": "2014-09-22T21:12:02.869054Z",
    "country": "nl",
    "parent": null,
    "longitude": 6.34999990463257,
    "latitude": 52.3166999816895,
    "regions": []
  },
  {
    "code": "21a17",
    "name": "Nijeveen",
    "updated_at": "2014-09-22T21:12:02.561166Z",
    "country": "nl",
    "parent": null,
    "longitude": 6.16666984558105,
    "latitude": 52.7332992553711,
    "regions": []
  },
  {
    "code": "21a16",
    "name": "Noordwolde",
    "updated_at": "2014-09-22T21:12:02.266076Z",
    "country": "nl",
    "parent": null,
    "longitude": 6.15000009536743,
    "latitude": 52.9000015258789,
    "regions": []
  },
  {
    "code": "21a15",
    "name": "Notter",
    "updated_at": "2014-09-22T21:12:02.223681Z",
    "country": "nl",
    "parent": null,
    "longitude": 6.51667022705078,
    "latitude": 52.3333015441895,
    "regions": []
  },
  {
    "code": "21a14",
    "name": "Oldebroek",
    "updated_at": "2014-09-22T21:12:01.887601Z",
    "country": "nl",
    "parent": null,
    "longitude": 5.90000009536743,
    "latitude": 52.4500007629395,
    "regions": []
  },
  {
    "code": "21a13",
    "name": "Opijnen",
    "updated_at": "2014-09-22T21:12:01.301829Z",
    "country": "nl",
    "parent": null,
    "longitude": 5.30000019073486,
    "latitude": 51.8333015441895,
    "regions": []
  },
  {
    "code": "21a12",
    "name": "Opperdoes",
    "updated_at": "2014-09-22T21:12:01.273074Z",
    "country": "nl",
    "parent": null,
    "longitude": 5.08333015441895,
    "latitude": 52.7667007446289,
    "regions": []
  },
  {
    "code": "21a11",
    "name": "Osdorp",
    "updated_at": "2014-09-22T21:12:01.237569Z",
    "country": "nl",
    "parent": null,
    "longitude": 4.78332996368408,
    "latitude": 52.36669921875,
    "regions": []
  },
  {
    "code": "21a10",
    "name": "Oterleek",
    "updated_at": "2014-09-22T21:12:01.163888Z",
    "country": "nl",
    "parent": null,
    "longitude": 4.83333015441895,
    "latitude": 52.63330078125,
    "regions": []
  },
  {
    "code": "21a0f",
    "name": "Oud-Beijerland",
    "updated_at": "2014-09-22T21:12:01.077865Z",
    "country": "nl",
    "parent": null,
    "longitude": 4.41666984558105,
    "latitude": 51.8333015441895,
    "regions": []
  },
  {
    "code": "21a0e",
    "name": "Oudenbosch",
    "updated_at": "2014-09-22T21:12:00.992465Z",
    "country": "nl",
    "parent": null,
    "longitude": 4.53332996368408,
    "latitude": 51.5833015441895,
    "regions": []
  },
  {
    "code": "21a0d",
    "name": "Oudendijk",
    "updated_at": "2014-09-22T21:12:00.976513Z",
    "country": "nl",
    "parent": null,
    "longitude": 4.96667003631592,
    "latitude": 52.5999984741211,
    "regions": []
  },
  {
    "code": "21a0c",
    "name": "Oud-Gastel",
    "updated_at": "2014-09-22T21:12:00.795056Z",
    "country": "nl",
    "parent": null,
    "longitude": 4.46667003631592,
    "latitude": 51.5833015441895,
    "regions": []
  },
  {
    "code": "21a0b",
    "name": "Oudkarspel",
    "updated_at": "2014-09-22T21:12:00.776821Z",
    "country": "nl",
    "parent": null,
    "longitude": 4.80000019073486,
    "latitude": 52.7000007629395,
    "regions": []
  },
  {
    "code": "21a0a",
    "name": "Poppingawier",
    "updated_at": "2014-09-22T21:12:00.255757Z",
    "country": "nl",
    "parent": null,
    "longitude": 5.75,
    "latitude": 53.0833015441895,
    "regions": []
  },
  {
    "code": "21a09",
    "name": "Renswoude",
    "updated_at": "2014-09-22T21:11:59.934891Z",
    "country": "nl",
    "parent": null,
    "longitude": 5.53332996368408,
    "latitude": 52.0833015441895,
    "regions": []
  },
  {
    "code": "21a08",
    "name": "Rijnsburg",
    "updated_at": "2014-09-22T21:11:59.684530Z",
    "country": "nl",
    "parent": null,
    "longitude": 4.44999980926514,
    "latitude": 52.1833000183105,
    "regions": []
  },
  {
    "code": "21a07",
    "name": "Rijsbergen",
    "updated_at": "2014-09-22T21:11:59.638583Z",
    "country": "nl",
    "parent": null,
    "longitude": 4.69999980926514,
    "latitude": 51.5167007446289,
    "regions": []
  },
  {
    "code": "21a06",
    "name": "Rips",
    "updated_at": "2014-09-22T21:11:59.547629Z",
    "country": "nl",
    "parent": null,
    "longitude": 5.81666994094849,
    "latitude": 51.5499992370605,
    "regions": []
  },
  {
    "code": "21a05",
    "name": "Scherpenisse",
    "updated_at": "2014-09-22T21:11:58.810373Z",
    "country": "nl",
    "parent": null,
    "longitude": 4.09999990463257,
    "latitude": 51.5499992370605,
    "regions": []
  },
  {
    "code": "21a04",
    "name": "Scheulder",
    "updated_at": "2014-09-22T21:11:58.752690Z",
    "country": "nl",
    "parent": null,
    "longitude": 5.84999990463257,
    "latitude": 50.8333015441895,
    "regions": []
  },
  {
    "code": "21a03",
    "name": "Silvolde",
    "updated_at": "2014-09-22T21:11:55.302566Z",
    "country": "nl",
    "parent": null,
    "longitude": 6.38332986831665,
    "latitude": 51.9166984558105,
    "regions": []
  },
  {
    "code": "21a02",
    "name": "Sint Jansklooster",
    "updated_at": "2014-09-22T21:11:55.060423Z",
    "country": "nl",
    "parent": null,
    "longitude": 6.03332996368408,
    "latitude": 52.6833000183105,
    "regions": []
  },
  {
    "code": "21a01",
    "name": "Standdaarbuiten",
    "updated_at": "2014-09-22T21:11:54.192534Z",
    "country": "nl",
    "parent": null,
    "longitude": 4.51667022705078,
    "latitude": 51.61669921875,
    "regions": []
  },
  {
    "code": "21a00",
    "name": "Stuifzand",
    "updated_at": "2014-09-22T21:11:53.728804Z",
    "country": "nl",
    "parent": null,
    "longitude": 6.5,
    "latitude": 52.75,
    "regions": []
  },
  {
    "code": "219ff",
    "name": "Susteren",
    "updated_at": "2014-09-22T21:11:53.653964Z",
    "country": "nl",
    "parent": null,
    "longitude": 5.86667013168335,
    "latitude": 51.0666999816895,
    "regions": []
  },
  {
    "code": "219fe",
    "name": "Terheijden",
    "updated_at": "2014-09-22T21:11:53.452099Z",
    "country": "nl",
    "parent": null,
    "longitude": 4.75,
    "latitude": 51.6500015258789,
    "regions": []
  },
  {
    "code": "219fd",
    "name": "Tweede Exloërmond",
    "updated_at": "2014-09-22T21:11:52.985777Z",
    "country": "nl",
    "parent": null,
    "longitude": 6.96667003631592,
    "latitude": 52.9166984558105,
    "regions": []
  },
  {
    "code": "219fc",
    "name": "Udenhout",
    "updated_at": "2014-09-22T21:11:52.749322Z",
    "country": "nl",
    "parent": null,
    "longitude": 5.15000009536743,
    "latitude": 51.61669921875,
    "regions": []
  },
  {
    "code": "219fb",
    "name": "Ulrum",
    "updated_at": "2014-09-22T21:11:52.560684Z",
    "country": "nl",
    "parent": null,
    "longitude": 6.33333015441895,
    "latitude": 53.36669921875,
    "regions": []
  },
  {
    "code": "219fa",
    "name": "Visvliet",
    "updated_at": "2014-09-22T21:11:51.659985Z",
    "country": "nl",
    "parent": null,
    "longitude": 6.25,
    "latitude": 53.2667007446289,
    "regions": []
  },
  {
    "code": "219f9",
    "name": "Vlagtwedde",
    "updated_at": "2014-09-22T21:11:51.597562Z",
    "country": "nl",
    "parent": null,
    "longitude": 7.11667013168335,
    "latitude": 53.0332984924316,
    "regions": []
  },
  {
    "code": "219f8",
    "name": "Vlieland",
    "updated_at": "2014-09-22T21:11:51.539827Z",
    "country": "nl",
    "parent": null,
    "longitude": 4.96667003631592,
    "latitude": 53.2667007446289,
    "regions": []
  },
  {
    "code": "219f7",
    "name": "Voorhout",
    "updated_at": "2014-09-22T21:11:51.295404Z",
    "country": "nl",
    "parent": null,
    "longitude": 4.48332977294922,
    "latitude": 52.2167015075684,
    "regions": []
  },
  {
    "code": "219f6",
    "name": "Walem",
    "updated_at": "2014-09-22T21:11:50.942296Z",
    "country": "nl",
    "parent": null,
    "longitude": 5.86667013168335,
    "latitude": 50.86669921875,
    "regions": []
  },
  {
    "code": "219f5",
    "name": "Wanroij",
    "updated_at": "2014-09-22T21:11:50.864368Z",
    "country": "nl",
    "parent": null,
    "longitude": 5.81666994094849,
    "latitude": 51.6500015258789,
    "regions": []
  },
  {
    "code": "219f4",
    "name": "Wehe-den Hoorn",
    "updated_at": "2014-09-22T21:11:50.366382Z",
    "country": "nl",
    "parent": null,
    "longitude": 6.41666984558105,
    "latitude": 53.36669921875,
    "regions": []
  },
  {
    "code": "219f3",
    "name": "Well",
    "updated_at": "2014-09-22T21:11:50.229878Z",
    "country": "nl",
    "parent": null,
    "longitude": 5.19999980926514,
    "latitude": 51.75,
    "regions": []
  },
  {
    "code": "219f2",
    "name": "Wesepe",
    "updated_at": "2014-09-22T21:11:50.109704Z",
    "country": "nl",
    "parent": null,
    "longitude": 6.21667003631592,
    "latitude": 52.3333015441895,
    "regions": []
  },
  {
    "code": "219f1",
    "name": "Westelbeers",
    "updated_at": "2014-09-22T21:11:49.976687Z",
    "country": "nl",
    "parent": null,
    "longitude": 5.21667003631592,
    "latitude": 51.4500007629395,
    "regions": []
  },
  {
    "code": "219f0",
    "name": "Westerland",
    "updated_at": "2014-09-22T21:11:49.825206Z",
    "country": "nl",
    "parent": null,
    "longitude": 4.93333005905151,
    "latitude": 52.88330078125,
    "regions": []
  },
  {
    "code": "219ef",
    "name": "Westhem",
    "updated_at": "2014-09-22T21:11:49.687673Z",
    "country": "nl",
    "parent": null,
    "longitude": 5.55000019073486,
    "latitude": 53.0167007446289,
    "regions": []
  },
  {
    "code": "219ee",
    "name": "Willemsdorp",
    "updated_at": "2014-09-22T21:11:49.277631Z",
    "country": "nl",
    "parent": null,
    "longitude": 4.65000009536743,
    "latitude": 51.7332992553711,
    "regions": []
  },
  {
    "code": "219ed",
    "name": "Winsum",
    "updated_at": "2014-09-22T21:11:49.188023Z",
    "country": "nl",
    "parent": null,
    "longitude": 6.51667022705078,
    "latitude": 53.3333015441895,
    "regions": []
  },
  {
    "code": "219ec",
    "name": "Woerdense Verlaat",
    "updated_at": "2014-09-22T21:11:49.000763Z",
    "country": "nl",
    "parent": null,
    "longitude": 4.86667013168335,
    "latitude": 52.1500015258789,
    "regions": []
  },
  {
    "code": "219eb",
    "name": "Yerseke",
    "updated_at": "2014-09-22T21:11:48.737182Z",
    "country": "nl",
    "parent": null,
    "longitude": 4.05000019073486,
    "latitude": 51.5,
    "regions": []
  },
  {
    "code": "219ea",
    "name": "Adail",
    "updated_at": "2014-09-22T21:11:47.564078Z",
    "country": "pt",
    "parent": null,
    "longitude": -8.73332977294922,
    "latitude": 37.7999992370605,
    "regions": []
  },
  {
    "code": "219e9",
    "name": "Arcos",
    "updated_at": "2014-09-22T21:11:47.496480Z",
    "country": "pt",
    "parent": null,
    "longitude": -9.13333034515381,
    "latitude": 38.9667015075684,
    "regions": []
  },
  {
    "code": "219e8",
    "name": "Agualva",
    "updated_at": "2014-09-22T21:11:47.422227Z",
    "country": "pt",
    "parent": null,
    "longitude": -27.1833000183105,
    "latitude": 38.7667007446289,
    "regions": []
  },
  {
    "code": "219e7",
    "name": "Albufeira",
    "updated_at": "2014-09-22T21:11:47.166669Z",
    "country": "pt",
    "parent": null,
    "longitude": -8.23332977294922,
    "latitude": 37.13330078125,
    "regions": []
  },
  {
    "code": "219e6",
    "name": "Aldeia de Brescos",
    "updated_at": "2014-09-22T21:11:46.838174Z",
    "country": "pt",
    "parent": null,
    "longitude": -8.76667022705078,
    "latitude": 38.0999984741211,
    "regions": []
  },
  {
    "code": "219e5",
    "name": "Aldreu",
    "updated_at": "2014-09-22T21:11:46.649328Z",
    "country": "pt",
    "parent": null,
    "longitude": -8.71667003631592,
    "latitude": 41.5999984741211,
    "regions": []
  },
  {
    "code": "219e4",
    "name": "Algarvia",
    "updated_at": "2014-09-22T21:11:46.427120Z",
    "country": "pt",
    "parent": null,
    "longitude": -25.2332992553711,
    "latitude": 37.8499984741211,
    "regions": []
  },
  {
    "code": "219e3",
    "name": "Amonde",
    "updated_at": "2014-09-22T21:11:45.465794Z",
    "country": "pt",
    "parent": null,
    "longitude": -8.76667022705078,
    "latitude": 41.7832984924316,
    "regions": []
  },
  {
    "code": "219e2",
    "name": "Ancede",
    "updated_at": "2014-09-22T21:11:45.418163Z",
    "country": "pt",
    "parent": null,
    "longitude": -8.05000019073486,
    "latitude": 41.0999984741211,
    "regions": []
  },
  {
    "code": "219e1",
    "name": "Arcas",
    "updated_at": "2014-09-22T21:11:45.313889Z",
    "country": "pt",
    "parent": null,
    "longitude": -7.03332996368408,
    "latitude": 41.6500015258789,
    "regions": []
  },
  {
    "code": "219e0",
    "name": "Arcos",
    "updated_at": "2014-09-22T21:11:45.214477Z",
    "country": "pt",
    "parent": null,
    "longitude": -8.66666984558105,
    "latitude": 41.75,
    "regions": []
  },
  {
    "code": "219df",
    "name": "Arnozela",
    "updated_at": "2014-09-22T21:11:45.036260Z",
    "country": "pt",
    "parent": null,
    "longitude": -8.11666965484619,
    "latitude": 41.38330078125,
    "regions": []
  },
  {
    "code": "219de",
    "name": "Barão de São João",
    "updated_at": "2014-09-22T21:11:44.502643Z",
    "country": "pt",
    "parent": null,
    "longitude": -8.78332996368408,
    "latitude": 37.13330078125,
    "regions": []
  },
  {
    "code": "219dd",
    "name": "Benafim",
    "updated_at": "2014-09-22T21:11:41.114268Z",
    "country": "pt",
    "parent": null,
    "longitude": -8.13333034515381,
    "latitude": 37.2332992553711,
    "regions": []
  },
  {
    "code": "219dc",
    "name": "Benagil",
    "updated_at": "2014-09-22T21:11:41.094631Z",
    "country": "pt",
    "parent": null,
    "longitude": -8.43332958221436,
    "latitude": 37.0833015441895,
    "regions": []
  },
  {
    "code": "219db",
    "name": "Bica",
    "updated_at": "2014-09-22T21:11:40.960540Z",
    "country": "pt",
    "parent": null,
    "longitude": -9.05000019073486,
    "latitude": 39.5167007446289,
    "regions": []
  },
  {
    "code": "219da",
    "name": "Boa Vista",
    "updated_at": "2014-09-22T21:11:40.902799Z",
    "country": "pt",
    "parent": null,
    "longitude": -9.18332958221436,
    "latitude": 39.4832992553711,
    "regions": []
  },
  {
    "code": "219d9",
    "name": "Brejos",
    "updated_at": "2014-09-22T21:11:40.654424Z",
    "country": "pt",
    "parent": null,
    "longitude": -8.23332977294922,
    "latitude": 37.0999984741211,
    "regions": []
  },
  {
    "code": "219d8",
    "name": "Brunhais",
    "updated_at": "2014-09-22T21:11:40.622176Z",
    "country": "pt",
    "parent": null,
    "longitude": -7.36667013168335,
    "latitude": 41.5499992370605,
    "regions": []
  },
  {
    "code": "219d7",
    "name": "Cabeça Gorda",
    "updated_at": "2014-09-22T21:11:40.490827Z",
    "country": "pt",
    "parent": null,
    "longitude": -7.80000019073486,
    "latitude": 37.9166984558105,
    "regions": []
  },
  {
    "code": "219d6",
    "name": "Cadima",
    "updated_at": "2014-09-22T21:11:40.321370Z",
    "country": "pt",
    "parent": null,
    "longitude": -8.64999961853027,
    "latitude": 40.3166999816895,
    "regions": []
  },
  {
    "code": "219d5",
    "name": "Calheta de Nesquim",
    "updated_at": "2014-09-22T21:11:40.172187Z",
    "country": "pt",
    "parent": null,
    "longitude": -28.0832996368408,
    "latitude": 38.4000015258789,
    "regions": []
  },
  {
    "code": "219d4",
    "name": "Candal",
    "updated_at": "2014-09-22T21:11:39.984827Z",
    "country": "pt",
    "parent": null,
    "longitude": -8.18332958221436,
    "latitude": 40.8499984741211,
    "regions": []
  },
  {
    "code": "219d3",
    "name": "Cardigos",
    "updated_at": "2014-09-22T21:11:39.608813Z",
    "country": "pt",
    "parent": null,
    "longitude": -8.01667022705078,
    "latitude": 39.7000007629395,
    "regions": []
  },
  {
    "code": "219d2",
    "name": "Carregueiro",
    "updated_at": "2014-09-22T21:11:39.472637Z",
    "country": "pt",
    "parent": null,
    "longitude": -8.10000038146973,
    "latitude": 37.8166999816895,
    "regions": []
  },
  {
    "code": "219d1",
    "name": "Carvalhal",
    "updated_at": "2014-09-22T21:11:39.415531Z",
    "country": "pt",
    "parent": null,
    "longitude": -7.28332996368408,
    "latitude": 41.38330078125,
    "regions": []
  },
  {
    "code": "219d0",
    "name": "Carviçais",
    "updated_at": "2014-09-22T21:11:39.346062Z",
    "country": "pt",
    "parent": null,
    "longitude": -6.88332986831665,
    "latitude": 41.1833000183105,
    "regions": []
  },
  {
    "code": "219cf",
    "name": "Casa da Ferraria",
    "updated_at": "2014-09-22T21:11:39.292592Z",
    "country": "pt",
    "parent": null,
    "longitude": -9.23332977294922,
    "latitude": 39.4000015258789,
    "regions": []
  },
  {
    "code": "219ce",
    "name": "Casais dos Monizes",
    "updated_at": "2014-09-22T21:11:39.256281Z",
    "country": "pt",
    "parent": null,
    "longitude": -8.89999961853027,
    "latitude": 39.4500007629395,
    "regions": []
  },
  {
    "code": "219cd",
    "name": "Casal da Caneira",
    "updated_at": "2014-09-22T21:11:39.233873Z",
    "country": "pt",
    "parent": null,
    "longitude": -8.56667041778564,
    "latitude": 39.0666999816895,
    "regions": []
  },
  {
    "code": "219cc",
    "name": "Casal de São João",
    "updated_at": "2014-09-22T21:11:39.149360Z",
    "country": "pt",
    "parent": null,
    "longitude": -7.96667003631592,
    "latitude": 40.2667007446289,
    "regions": []
  },
  {
    "code": "219cb",
    "name": "Casal do Pardo",
    "updated_at": "2014-09-22T21:11:39.114900Z",
    "country": "pt",
    "parent": null,
    "longitude": -9.08333015441895,
    "latitude": 39.5,
    "regions": []
  },
  {
    "code": "219ca",
    "name": "Casal Novo",
    "updated_at": "2014-09-22T21:11:39.084460Z",
    "country": "pt",
    "parent": null,
    "longitude": -8.10000038146973,
    "latitude": 40.0833015441895,
    "regions": []
  },
  {
    "code": "219c9",
    "name": "Cedros",
    "updated_at": "2014-09-22T21:11:38.665490Z",
    "country": "pt",
    "parent": null,
    "longitude": -28.7000007629395,
    "latitude": 38.63330078125,
    "regions": []
  },
  {
    "code": "219c8",
    "name": "Celeirós",
    "updated_at": "2014-09-22T21:11:38.602079Z",
    "country": "pt",
    "parent": null,
    "longitude": -7.56666994094849,
    "latitude": 41.2332992553711,
    "regions": []
  },
  {
    "code": "219c7",
    "name": "Cimo de Vila",
    "updated_at": "2014-09-22T21:11:38.353456Z",
    "country": "pt",
    "parent": null,
    "longitude": -8.35000038146973,
    "latitude": 40.1666984558105,
    "regions": []
  },
  {
    "code": "219c6",
    "name": "Colmeal",
    "updated_at": "2014-09-22T21:11:38.232152Z",
    "country": "pt",
    "parent": null,
    "longitude": -8.0,
    "latitude": 40.1500015258789,
    "regions": []
  },
  {
    "code": "219c5",
    "name": "Condeixa a Nova",
    "updated_at": "2014-09-22T21:11:38.159036Z",
    "country": "pt",
    "parent": null,
    "longitude": -8.5,
    "latitude": 40.11669921875,
    "regions": []
  },
  {
    "code": "219c4",
    "name": "Corte Paral",
    "updated_at": "2014-09-22T21:11:38.061760Z",
    "country": "pt",
    "parent": null,
    "longitude": -8.30000019073486,
    "latitude": 37.38330078125,
    "regions": []
  },
  {
    "code": "219c3",
    "name": "Costa de Baixo",
    "updated_at": "2014-09-22T21:11:37.910992Z",
    "country": "pt",
    "parent": null,
    "longitude": -8.86666965484619,
    "latitude": 39.6833000183105,
    "regions": []
  },
  {
    "code": "219c2",
    "name": "Courelinhas",
    "updated_at": "2014-09-22T21:11:37.800558Z",
    "country": "pt",
    "parent": null,
    "longitude": -8.33333015441895,
    "latitude": 38.9166984558105,
    "regions": []
  },
  {
    "code": "219c1",
    "name": "Coval",
    "updated_at": "2014-09-22T21:11:37.767595Z",
    "country": "pt",
    "parent": null,
    "longitude": -8.14999961853027,
    "latitude": 40.38330078125,
    "regions": []
  },
  {
    "code": "219c0",
    "name": "Covelo",
    "updated_at": "2014-09-22T21:11:37.682856Z",
    "country": "pt",
    "parent": null,
    "longitude": -8.21667003631592,
    "latitude": 40.7667007446289,
    "regions": []
  },
  {
    "code": "219bf",
    "name": "Ermida",
    "updated_at": "2014-09-22T21:11:37.241407Z",
    "country": "pt",
    "parent": null,
    "longitude": -7.94999980926514,
    "latitude": 39.7999992370605,
    "regions": []
  },
  {
    "code": "219be",
    "name": "Ervidel",
    "updated_at": "2014-09-22T21:11:37.183736Z",
    "country": "pt",
    "parent": null,
    "longitude": -8.08333015441895,
    "latitude": 37.9667015075684,
    "regions": []
  },
  {
    "code": "219bd",
    "name": "Esperança",
    "updated_at": "2014-09-22T21:11:37.095083Z",
    "country": "pt",
    "parent": null,
    "longitude": -7.19999980926514,
    "latitude": 39.1500015258789,
    "regions": []
  },
  {
    "code": "219bc",
    "name": "Espiche",
    "updated_at": "2014-09-22T21:11:37.072921Z",
    "country": "pt",
    "parent": null,
    "longitude": -8.73332977294922,
    "latitude": 37.0999984741211,
    "regions": []
  },
  {
    "code": "219bb",
    "name": "Fermelã",
    "updated_at": "2014-09-22T21:11:36.542036Z",
    "country": "pt",
    "parent": null,
    "longitude": -8.55000019073486,
    "latitude": 40.7000007629395,
    "regions": []
  },
  {
    "code": "219ba",
    "name": "Ferragudo",
    "updated_at": "2014-09-22T21:11:36.455113Z",
    "country": "pt",
    "parent": null,
    "longitude": -8.51667022705078,
    "latitude": 37.13330078125,
    "regions": []
  },
  {
    "code": "219b9",
    "name": "Fiães do Rio",
    "updated_at": "2014-09-22T21:11:36.325700Z",
    "country": "pt",
    "parent": null,
    "longitude": -7.93333005905151,
    "latitude": 41.7667007446289,
    "regions": []
  },
  {
    "code": "219b8",
    "name": "Figueira",
    "updated_at": "2014-09-22T21:11:36.308519Z",
    "country": "pt",
    "parent": null,
    "longitude": -8.60000038146973,
    "latitude": 37.1666984558105,
    "regions": []
  },
  {
    "code": "219b7",
    "name": "Figueira de Lorvão",
    "updated_at": "2014-09-22T21:11:36.231359Z",
    "country": "pt",
    "parent": null,
    "longitude": -8.33333015441895,
    "latitude": 40.2832984924316,
    "regions": []
  },
  {
    "code": "219b6",
    "name": "Freixieiro de Soutelo",
    "updated_at": "2014-09-22T21:11:35.816809Z",
    "country": "pt",
    "parent": null,
    "longitude": -8.81667041778564,
    "latitude": 41.7999992370605,
    "regions": []
  },
  {
    "code": "219b5",
    "name": "Galeguinha Grande",
    "updated_at": "2014-09-22T21:11:35.435404Z",
    "country": "pt",
    "parent": null,
    "longitude": -7.98332977294922,
    "latitude": 37.6833000183105,
    "regions": []
  },
  {
    "code": "219b4",
    "name": "Geraz do Lima",
    "updated_at": "2014-09-22T21:11:35.330659Z",
    "country": "pt",
    "parent": null,
    "longitude": -8.68332958221436,
    "latitude": 41.7000007629395,
    "regions": []
  },
  {
    "code": "219b3",
    "name": "Germil",
    "updated_at": "2014-09-22T21:11:35.296175Z",
    "country": "pt",
    "parent": null,
    "longitude": -8.26667022705078,
    "latitude": 41.7832984924316,
    "regions": []
  },
  {
    "code": "219b2",
    "name": "Gestoso",
    "updated_at": "2014-09-22T21:11:35.279355Z",
    "country": "pt",
    "parent": null,
    "longitude": -8.25,
    "latitude": 40.8499984741211,
    "regions": []
  },
  {
    "code": "219b1",
    "name": "Ginetes",
    "updated_at": "2014-09-22T21:11:35.230945Z",
    "country": "pt",
    "parent": null,
    "longitude": -25.8332996368408,
    "latitude": 37.8499984741211,
    "regions": []
  },
  {
    "code": "219b0",
    "name": "Gondramaz",
    "updated_at": "2014-09-22T21:11:35.035218Z",
    "country": "pt",
    "parent": null,
    "longitude": -8.26667022705078,
    "latitude": 40.0666999816895,
    "regions": []
  },
  {
    "code": "219af",
    "name": "Gralheira",
    "updated_at": "2014-09-22T21:11:34.966598Z",
    "country": "pt",
    "parent": null,
    "longitude": -7.96667003631592,
    "latitude": 41.0,
    "regions": []
  },
  {
    "code": "219ae",
    "name": "Guilhabreu",
    "updated_at": "2014-09-22T21:11:34.760458Z",
    "country": "pt",
    "parent": null,
    "longitude": -8.63333034515381,
    "latitude": 41.2999992370605,
    "regions": []
  },
  {
    "code": "219ad",
    "name": "Juizo",
    "updated_at": "2014-09-22T21:11:34.514027Z",
    "country": "pt",
    "parent": null,
    "longitude": -7.16666984558105,
    "latitude": 40.86669921875,
    "regions": []
  },
  {
    "code": "219ac",
    "name": "Lagares da Beira",
    "updated_at": "2014-09-22T21:11:34.419564Z",
    "country": "pt",
    "parent": null,
    "longitude": -7.86667013168335,
    "latitude": 40.4000015258789,
    "regions": []
  },
  {
    "code": "219ab",
    "name": "Lagoa",
    "updated_at": "2014-09-22T21:11:34.349138Z",
    "country": "pt",
    "parent": null,
    "longitude": -25.5666999816895,
    "latitude": 37.7332992553711,
    "regions": []
  },
  {
    "code": "219aa",
    "name": "Lapa do Lobo",
    "updated_at": "2014-09-22T21:11:34.054613Z",
    "country": "pt",
    "parent": null,
    "longitude": -7.91666984558105,
    "latitude": 40.4667015075684,
    "regions": []
  },
  {
    "code": "219a9",
    "name": "Lever",
    "updated_at": "2014-09-22T21:11:33.910243Z",
    "country": "pt",
    "parent": null,
    "longitude": -8.48332977294922,
    "latitude": 41.0666999816895,
    "regions": []
  },
  {
    "code": "219a8",
    "name": "Linda-a-Pastora",
    "updated_at": "2014-09-22T21:11:33.845571Z",
    "country": "pt",
    "parent": null,
    "longitude": -9.26667022705078,
    "latitude": 38.7167015075684,
    "regions": []
  },
  {
    "code": "219a7",
    "name": "Macieira de Alcoba",
    "updated_at": "2014-09-22T21:11:33.368469Z",
    "country": "pt",
    "parent": null,
    "longitude": -8.28332996368408,
    "latitude": 40.61669921875,
    "regions": []
  },
  {
    "code": "219a6",
    "name": "Malhadinhas",
    "updated_at": "2014-09-22T21:11:33.190776Z",
    "country": "pt",
    "parent": null,
    "longitude": -8.78332996368408,
    "latitude": 37.7667007446289,
    "regions": []
  },
  {
    "code": "219a5",
    "name": "Serra de Mangues",
    "updated_at": "2014-09-22T21:11:33.097418Z",
    "country": "pt",
    "parent": null,
    "longitude": -9.11666965484619,
    "latitude": 39.5332984924316,
    "regions": []
  },