[
  {
    "code": "17f15",
    "name": "Botoşani",
    "updated_at": "2014-09-22T21:24:06.537807Z",
    "country": "ro",
    "parent": null,
    "longitude": 26.6667003631592,
    "latitude": 47.75,
    "regions": [
      "12bb"
    ]
  },
  {
    "code": "17f14",
    "name": "Brad",
    "updated_at": "2014-09-22T21:24:06.515650Z",
    "country": "ro",
    "parent": null,
    "longitude": 22.7833003997803,
    "latitude": 46.13330078125,
    "regions": [
      "12c8"
    ]
  },
  {
    "code": "17f13",
    "name": "Bradu",
    "updated_at": "2014-09-22T21:24:06.465716Z",
    "country": "ro",
    "parent": null,
    "longitude": 24.3332996368408,
    "latitude": 45.7167015075684,
    "regions": [
      "12d2"
    ]
  },
  {
    "code": "17f12",
    "name": "Bradu",
    "updated_at": "2014-09-22T21:24:06.430724Z",
    "country": "ro",
    "parent": null,
    "longitude": 25.86669921875,
    "latitude": 47.0,
    "regions": [
      "12cd"
    ]
  },
  {
    "code": "17f11",
    "name": "Bragadiru",
    "updated_at": "2014-09-22T21:24:06.396658Z",
    "country": "ro",
    "parent": null,
    "longitude": 25.9775009155273,
    "latitude": 44.3711013793945,
    "regions": [
      "12cb"
    ]
  },
  {
    "code": "17f10",
    "name": "Brăila",
    "updated_at": "2014-09-22T21:24:06.365916Z",
    "country": "ro",
    "parent": null,
    "longitude": 27.9832992553711,
    "latitude": 45.2667007446289,
    "regions": [
      "12bc"
    ]
  },
  {
    "code": "17f0f",
    "name": "Bran",
    "updated_at": "2014-09-22T21:24:06.349190Z",
    "country": "ro",
    "parent": null,
    "longitude": 25.3635711669922,
    "latitude": 45.5121917724609,
    "regions": [
      "11f7"
    ]
  },
  {
    "code": "17f0e",
    "name": "Braşov",
    "updated_at": "2014-09-22T21:24:06.316453Z",
    "country": "ro",
    "parent": null,
    "longitude": 25.5890369415283,
    "latitude": 45.6419448852539,
    "regions": [
      "11f7"
    ]
  },
  {
    "code": "17f0d",
    "name": "Brăzeşti",
    "updated_at": "2014-09-22T21:24:06.298835Z",
    "country": "ro",
    "parent": null,
    "longitude": 23.3166999816895,
    "latitude": 46.4000015258789,
    "regions": [
      "12b7"
    ]
  },
  {
    "code": "17f0c",
    "name": "Brazii de Sus",
    "updated_at": "2014-09-22T21:24:06.281844Z",
    "country": "ro",
    "parent": null,
    "longitude": 26.0167007446289,
    "latitude": 44.86669921875,
    "regions": [
      "12cf"
    ]
  },
  {
    "code": "17f0b",
    "name": "Breaza",
    "updated_at": "2014-09-22T21:24:06.256736Z",
    "country": "ro",
    "parent": null,
    "longitude": 25.6667003631592,
    "latitude": 45.1833000183105,
    "regions": [
      "12cf"
    ]
  },
  {
    "code": "17f0a",
    "name": "Brezoi",
    "updated_at": "2014-09-22T21:24:06.230774Z",
    "country": "ro",
    "parent": null,
    "longitude": 24.25,
    "latitude": 45.3499984741211,
    "regions": [
      "12d7"
    ]
  },
  {
    "code": "17f09",
    "name": "Bucium",
    "updated_at": "2014-09-22T21:24:06.201041Z",
    "country": "ro",
    "parent": null,
    "longitude": 25.0832996368408,
    "latitude": 45.7332992553711,
    "regions": [
      "11f7"
    ]
  },
  {
    "code": "17f08",
    "name": "Bucium",
    "updated_at": "2014-09-22T21:24:06.169897Z",
    "country": "ro",
    "parent": null,
    "longitude": 23.1833000183105,
    "latitude": 46.2667007446289,
    "regions": [
      "12b7"
    ]
  },
  {
    "code": "17f07",
    "name": "Satu Bucovei",
    "updated_at": "2014-09-22T21:24:06.141754Z",
    "country": "ro",
    "parent": null,
    "longitude": 26.0832996368408,
    "latitude": 44.9667015075684,
    "regions": [
      "12cf"
    ]
  },
  {
    "code": "17f06",
    "name": "Bucharest",
    "updated_at": "2016-02-09T09:32:30.337551Z",
    "country": "ro",
    "parent": null,
    "longitude": 26.1000003814697,
    "latitude": 44.4333000183105,
    "regions": []
  },
  {
    "code": "17f05",
    "name": "Budeşti",
    "updated_at": "2014-09-22T21:24:06.106782Z",
    "country": "ro",
    "parent": null,
    "longitude": 23.9500007629395,
    "latitude": 47.7332992553711,
    "regions": [
      "12cc"
    ]
  },
  {
    "code": "17f04",
    "name": "Budureasa",
    "updated_at": "2014-09-22T21:24:06.088928Z",
    "country": "ro",
    "parent": null,
    "longitude": 22.5,
    "latitude": 46.6666984558105,
    "regions": [
      "11f8"
    ]
  },
  {
    "code": "17f03",
    "name": "Buftea",
    "updated_at": "2014-09-22T21:24:06.072441Z",
    "country": "ro",
    "parent": null,
    "longitude": 25.9489002227783,
    "latitude": 44.5614013671875,
    "regions": [
      "12c3",
      "12cb"
    ]
  },
  {
    "code": "17f02",
    "name": "Buhalniţa",
    "updated_at": "2014-09-22T21:24:06.056020Z",
    "country": "ro",
    "parent": null,
    "longitude": 26.0666999816895,
    "latitude": 47.0167007446289,
    "regions": [
      "12cd"
    ]
  },
  {
    "code": "17f01",
    "name": "Buşteni",
    "updated_at": "2014-09-22T21:24:06.007727Z",
    "country": "ro",
    "parent": null,
    "longitude": 25.5333003997803,
    "latitude": 45.4000015258789,
    "regions": [
      "11f7",
      "12cf"
    ]
  },
  {
    "code": "17f00",
    "name": "Buziaş",
    "updated_at": "2014-09-22T21:24:05.977993Z",
    "country": "ro",
    "parent": null,
    "longitude": 21.6035995483398,
    "latitude": 45.6492004394531,
    "regions": [
      "12d4"
    ]
  },
  {
    "code": "17eff",
    "name": "Cacica",
    "updated_at": "2014-09-22T21:24:05.945541Z",
    "country": "ro",
    "parent": null,
    "longitude": 25.8999996185303,
    "latitude": 47.63330078125,
    "regions": [
      "12a8"
    ]
  },
  {
    "code": "17efe",
    "name": "Calafat",
    "updated_at": "2014-09-22T21:24:05.910721Z",
    "country": "ro",
    "parent": null,
    "longitude": 22.9328002929688,
    "latitude": 43.9911003112793,
    "regions": [
      "12c4"
    ]
  },
  {
    "code": "17efd",
    "name": "Călăraşi",
    "updated_at": "2014-09-22T21:24:05.888946Z",
    "country": "ro",
    "parent": null,
    "longitude": 27.3332996368408,
    "latitude": 44.2000007629395,
    "regions": [
      "12bf"
    ]
  },
  {
    "code": "17efc",
    "name": "Călăraşii Vechi",
    "updated_at": "2014-09-22T21:24:05.871656Z",
    "country": "ro",
    "parent": null,
    "longitude": 27.2833003997803,
    "latitude": 44.2667007446289,
    "regions": [
      "12bf"
    ]
  },
  {
    "code": "17efb",
    "name": "Călimăneşti",
    "updated_at": "2014-09-22T21:24:05.855350Z",
    "country": "ro",
    "parent": null,
    "longitude": 24.3332996368408,
    "latitude": 45.2332992553711,
    "regions": [
      "12d7"
    ]
  },
  {
    "code": "17efa",
    "name": "Călineşti",
    "updated_at": "2014-09-22T21:24:05.837957Z",
    "country": "ro",
    "parent": null,
    "longitude": 25.0499992370605,
    "latitude": 44.8166999816895,
    "regions": [
      "11f9"
    ]
  },
  {
    "code": "17ef9",
    "name": "Călugăreni",
    "updated_at": "2014-09-22T21:24:05.821521Z",
    "country": "ro",
    "parent": null,
    "longitude": 24.88330078125,
    "latitude": 46.63330078125,
    "regions": [
      "1272"
    ]
  },
  {
    "code": "17ef8",
    "name": "Căpăţîneni-Pămînteni",
    "updated_at": "2014-09-22T21:24:05.799802Z",
    "country": "ro",
    "parent": null,
    "longitude": 24.6499996185303,
    "latitude": 45.3166999816895,
    "regions": [
      "11f9"
    ]
  },
  {
    "code": "17ef7",
    "name": "Căpăţîneni-Ungureni",
    "updated_at": "2014-09-22T21:24:05.775214Z",
    "country": "ro",
    "parent": null,
    "longitude": 24.63330078125,
    "latitude": 45.3333015441895,
    "regions": [
      "11f9"
    ]
  },
  {
    "code": "17ef6",
    "name": "Caracal",
    "updated_at": "2014-09-22T21:24:05.749174Z",
    "country": "ro",
    "parent": null,
    "longitude": 24.3500003814697,
    "latitude": 44.11669921875,
    "regions": [
      "12ce"
    ]
  },
  {
    "code": "17ef5",
    "name": "Caransebeş",
    "updated_at": "2014-09-22T21:24:05.715626Z",
    "country": "ro",
    "parent": null,
    "longitude": 22.2166996002197,
    "latitude": 45.4166984558105,
    "regions": [
      "12be"
    ]
  },
  {
    "code": "17ef4",
    "name": "Cărbunari",
    "updated_at": "2014-09-22T21:24:05.685007Z",
    "country": "ro",
    "parent": null,
    "longitude": 23.6499996185303,
    "latitude": 47.5666999816895,
    "regions": [
      "12cc"
    ]
  },
  {
    "code": "17ef3",
    "name": "Căsoi",
    "updated_at": "2014-09-22T21:24:05.654349Z",
    "country": "ro",
    "parent": null,
    "longitude": 25.13330078125,
    "latitude": 47.3166999816895,
    "regions": [
      "12a8"
    ]
  },
  {
    "code": "17ef2",
    "name": "Cavnic",
    "updated_at": "2014-09-22T21:24:05.637764Z",
    "country": "ro",
    "parent": null,
    "longitude": 23.86669921875,
    "latitude": 47.6666984558105,
    "regions": [
      "12cc"
    ]
  },
  {
    "code": "17ef1",
    "name": "Ceahlău",
    "updated_at": "2014-09-22T21:24:05.621533Z",
    "country": "ro",
    "parent": null,
    "longitude": 25.9666996002197,
    "latitude": 47.0499992370605,
    "regions": [
      "12cd"
    ]
  },
  {
    "code": "17ef0",
    "name": "Ceraşul",
    "updated_at": "2014-09-22T21:24:05.605290Z",
    "country": "ro",
    "parent": null,
    "longitude": 26.0333003997803,
    "latitude": 45.3166999816895,
    "regions": [
      "12cf"
    ]
  },
  {
    "code": "17eef",
    "name": "Cheia",
    "updated_at": "2014-09-22T21:24:05.587715Z",
    "country": "ro",
    "parent": null,
    "longitude": 25.9333000183105,
    "latitude": 45.4500007629395,
    "regions": [
      "12cf"
    ]
  },
  {
    "code": "17eee",
    "name": "Chimindia",
    "updated_at": "2014-09-22T21:24:05.548730Z",
    "country": "ro",
    "parent": null,
    "longitude": 23.0,
    "latitude": 45.9000015258789,
    "regions": [
      "12c8"
    ]
  },
  {
    "code": "17eed",
    "name": "Chiojdu",
    "updated_at": "2014-09-22T21:24:05.523014Z",
    "country": "ro",
    "parent": null,
    "longitude": 26.2000007629395,
    "latitude": 45.3499984741211,
    "regions": [
      "12cf"
    ]
  },
  {
    "code": "17eec",
    "name": "Chişcău",
    "updated_at": "2014-09-22T21:24:05.495468Z",
    "country": "ro",
    "parent": null,
    "longitude": 22.5499992370605,
    "latitude": 46.5666999816895,
    "regions": [
      "11f8"
    ]
  },
  {
    "code": "17eeb",
    "name": "Cib",
    "updated_at": "2014-09-22T21:24:05.461278Z",
    "country": "ro",
    "parent": null,
    "longitude": 23.1833000183105,
    "latitude": 46.0666999816895,
    "regions": [
      "12b7"
    ]
  },
  {
    "code": "17eea",
    "name": "Cîinenii Mici",
    "updated_at": "2014-09-22T21:24:05.427727Z",
    "country": "ro",
    "parent": null,
    "longitude": 24.2999992370605,
    "latitude": 45.4832992553711,
    "regions": [
      "12d7"
    ]
  },
  {
    "code": "17ee9",
    "name": "Cîmpeni",
    "updated_at": "2014-09-22T21:24:05.399975Z",
    "country": "ro",
    "parent": null,
    "longitude": 23.0499992370605,
    "latitude": 46.36669921875,
    "regions": [
      "12b7"
    ]
  },
  {
    "code": "17ee8",
    "name": "Cîmpia Turzii",
    "updated_at": "2014-09-22T21:24:05.382734Z",
    "country": "ro",
    "parent": null,
    "longitude": 23.88330078125,
    "latitude": 46.5499992370605,
    "regions": [
      "12c0"
    ]
  },
  {
    "code": "17ee7",
    "name": "Campina",
    "updated_at": "2014-09-22T21:24:05.365184Z",
    "country": "ro",
    "parent": null,
    "longitude": 25.7332992553711,
    "latitude": 45.13330078125,
    "regions": [
      "12cf"
    ]
  },
  {
    "code": "17ee6",
    "name": "Cîmpu lui Neag",
    "updated_at": "2014-09-22T21:24:05.348031Z",
    "country": "ro",
    "parent": null,
    "longitude": 23.0499992370605,
    "latitude": 45.2999992370605,
    "regions": [
      "12c8"
    ]
  },
  {
    "code": "17ee5",
    "name": "Cîmpulung",
    "updated_at": "2014-09-22T21:24:05.331234Z",
    "country": "ro",
    "parent": null,
    "longitude": 25.0499992370605,
    "latitude": 45.2667007446289,
    "regions": [
      "11f9"
    ]
  },
  {
    "code": "17ee4",
    "name": "Câmpulung Moldovenesc",
    "updated_at": "2014-09-22T21:24:05.311343Z",
    "country": "ro",
    "parent": null,
    "longitude": 25.5666999816895,
    "latitude": 47.5332984924316,
    "regions": [
      "12a8"
    ]
  },
  {
    "code": "17ee3",
    "name": "Ciofliceni",
    "updated_at": "2014-09-22T21:24:05.235751Z",
    "country": "ro",
    "parent": null,
    "longitude": 26.11669921875,
    "latitude": 44.6833000183105,
    "regions": [
      "12cb"
    ]
  },
  {
    "code": "17ee2",
    "name": "Cîrlibaba",
    "updated_at": "2014-09-22T21:24:05.204465Z",
    "country": "ro",
    "parent": null,
    "longitude": 25.13330078125,
    "latitude": 47.5833015441895,
    "regions": [
      "12a8"
    ]
  },
  {
    "code": "17ee1",
    "name": "Cîrţişoara",
    "updated_at": "2014-09-22T21:24:05.174185Z",
    "country": "ro",
    "parent": null,
    "longitude": 24.5750999450684,
    "latitude": 45.728401184082,
    "regions": [
      "12d2"
    ]
  },
  {
    "code": "17ee0",
    "name": "Cisnădie",
    "updated_at": "2014-09-22T21:24:05.149062Z",
    "country": "ro",
    "parent": null,
    "longitude": 24.1499996185303,
    "latitude": 45.7167015075684,
    "regions": [
      "12d2"
    ]
  },
  {
    "code": "17edf",
    "name": "Ciungetu",
    "updated_at": "2014-09-22T21:24:05.117360Z",
    "country": "ro",
    "parent": null,
    "longitude": 23.9333000183105,
    "latitude": 45.38330078125,
    "regions": [
      "12d7"
    ]
  },
  {
    "code": "17ede",
    "name": "Cluj-Napoca",
    "updated_at": "2014-09-22T21:24:05.081636Z",
    "country": "ro",
    "parent": null,
    "longitude": 23.5979042053223,
    "latitude": 46.7694396972656,
    "regions": [
      "12c0"
    ]
  },
  {
    "code": "17edd",
    "name": "Colina",
    "updated_at": "2014-09-22T21:24:05.034917Z",
    "country": "ro",
    "parent": null,
    "longitude": 29.0167007446289,
    "latitude": 45.0499992370605,
    "regions": []
  },
  {
    "code": "17edc",
    "name": "Comana",
    "updated_at": "2014-09-22T21:24:05.008640Z",
    "country": "ro",
    "parent": null,
    "longitude": 26.1450004577637,
    "latitude": 44.1706008911133,
    "regions": [
      "12c5"
    ]
  },
  {
    "code": "17edb",
    "name": "Comarnic",
    "updated_at": "2014-09-22T21:24:04.943634Z",
    "country": "ro",
    "parent": null,
    "longitude": 25.63330078125,
    "latitude": 45.25,
    "regions": [
      "12cf"
    ]
  },
  {
    "code": "17eda",
    "name": "Constanţa",
    "updated_at": "2014-09-22T21:24:04.911208Z",
    "country": "ro",
    "parent": null,
    "longitude": 28.6499996185303,
    "latitude": 44.1833000183105,
    "regions": [
      "12c1"
    ]
  },
  {
    "code": "17ed9",
    "name": "Copăcelu",
    "updated_at": "2014-09-22T21:24:04.894499Z",
    "country": "ro",
    "parent": null,
    "longitude": 24.3166999816895,
    "latitude": 45.0666999816895,
    "regions": [
      "12d7"
    ]
  },
  {
    "code": "17ed8",
    "name": "Corbeanca",
    "updated_at": "2014-09-22T21:24:04.877730Z",
    "country": "ro",
    "parent": null,
    "longitude": 25.5650005340576,
    "latitude": 44.4757995605469,
    "regions": []
  },
  {
    "code": "17ed7",
    "name": "Corbeni",
    "updated_at": "2014-09-22T21:24:04.859610Z",
    "country": "ro",
    "parent": null,
    "longitude": 24.6499996185303,
    "latitude": 45.2999992370605,
    "regions": [
      "11f9"
    ]
  },
  {
    "code": "17ed6",
    "name": "Corbii Mari",
    "updated_at": "2014-09-22T21:24:04.842647Z",
    "country": "ro",
    "parent": null,
    "longitude": 25.5,
    "latitude": 44.5499992370605,
    "regions": [
      "12c3"
    ]
  },
  {
    "code": "17ed5",
    "name": "Cornu de Jos",
    "updated_at": "2014-09-22T21:24:04.777282Z",
    "country": "ro",
    "parent": null,
    "longitude": 25.7000007629395,
    "latitude": 45.1500015258789,
    "regions": [
      "12cf"
    ]
  },
  {
    "code": "17ed4",
    "name": "Corunca",
    "updated_at": "2014-09-22T21:24:04.749649Z",
    "country": "ro",
    "parent": null,
    "longitude": 24.61669921875,
    "latitude": 46.5167007446289,
    "regions": [
      "1272"
    ]
  },
  {
    "code": "17ed3",
    "name": "Corund",
    "updated_at": "2014-09-22T21:24:04.716312Z",
    "country": "ro",
    "parent": null,
    "longitude": 25.1833000183105,
    "latitude": 46.4667015075684,
    "regions": [
      "12c7"
    ]
  },
  {
    "code": "17ed2",
    "name": "Costeşti",
    "updated_at": "2014-09-22T21:24:04.684515Z",
    "country": "ro",
    "parent": null,
    "longitude": 24.0666999816895,
    "latitude": 45.1500015258789,
    "regions": [
      "12d7"
    ]
  },
  {
    "code": "17ed1",
    "name": "Costeşti",
    "updated_at": "2014-09-22T21:24:04.656516Z",
    "country": "ro",
    "parent": null,
    "longitude": 23.1667003631592,
    "latitude": 45.7000007629395,
    "regions": [
      "12c8"
    ]
  },
  {
    "code": "17ed0",
    "name": "Coteneşti",
    "updated_at": "2014-09-22T21:24:04.639183Z",
    "country": "ro",
    "parent": null,
    "longitude": 25.1833000183105,
    "latitude": 45.2332992553711,
    "regions": [
      "11f9"
    ]
  },
  {
    "code": "17ecf",
    "name": "Cotmeana",
    "updated_at": "2014-09-22T21:24:04.621602Z",
    "country": "ro",
    "parent": null,
    "longitude": 24.75,
    "latitude": 44.5999984741211,
    "regions": []
  },
  {
    "code": "17ece",
    "name": "Coţofenii din Faţă",
    "updated_at": "2014-09-22T21:24:04.604529Z",
    "country": "ro",
    "parent": null,
    "longitude": 23.6667003631592,
    "latitude": 44.4500007629395,
    "regions": [
      "12c4"
    ]
  },
  {
    "code": "17ecd",
    "name": "Cotu Siretului",
    "updated_at": "2014-09-22T21:24:04.588060Z",
    "country": "ro",
    "parent": null,
    "longitude": 26.9333000183105,
    "latitude": 46.6833000183105,
    "regions": []
  },
  {
    "code": "17ecc",
    "name": "Covaci",
    "updated_at": "2014-09-22T21:24:04.570133Z",
    "country": "ro",
    "parent": null,
    "longitude": 21.228099822998,
    "latitude": 45.8314018249512,
    "regions": [
      "12d4"
    ]
  },
  {
    "code": "17ecb",
    "name": "Covasna",
    "updated_at": "2014-09-22T21:24:04.545055Z",
    "country": "ro",
    "parent": null,
    "longitude": 26.1833000183105,
    "latitude": 45.8499984741211,
    "regions": [
      "12c2"
    ]
  },
  {
    "code": "17eca",
    "name": "Cozmeni",
    "updated_at": "2014-09-22T21:24:04.518884Z",
    "country": "ro",
    "parent": null,
    "longitude": 25.9333000183105,
    "latitude": 46.2332992553711,
    "regions": [
      "12c7"
    ]
  },
  {
    "code": "17ec9",
    "name": "Crainimăt",
    "updated_at": "2014-09-22T21:24:04.492777Z",
    "country": "ro",
    "parent": null,
    "longitude": 24.3999996185303,
    "latitude": 47.0666999816895,
    "regions": [
      "12ba"
    ]
  },
  {
    "code": "17ec8",
    "name": "Craiova",
    "updated_at": "2014-09-22T21:24:04.461041Z",
    "country": "ro",
    "parent": null,
    "longitude": 23.7999992370605,
    "latitude": 44.3166999816895,
    "regions": [
      "12c4"
    ]
  },
  {
    "code": "17ec7",
    "name": "Crasna",
    "updated_at": "2014-09-22T21:24:04.424214Z",
    "country": "ro",
    "parent": null,
    "longitude": 26.13330078125,
    "latitude": 45.5833015441895,
    "regions": [
      "12c2"
    ]
  },
  {
    "code": "17ec6",
    "name": "Cristian",
    "updated_at": "2014-09-22T21:24:04.405080Z",
    "country": "ro",
    "parent": null,
    "longitude": 25.4699993133545,
    "latitude": 45.6199989318848,
    "regions": [
      "11f7"
    ]
  },
  {
    "code": "17ec5",
    "name": "Cristian",
    "updated_at": "2014-09-22T21:24:04.387886Z",
    "country": "ro",
    "parent": null,
    "longitude": 24.0333003997803,
    "latitude": 45.7832984924316,
    "regions": [
      "12d2"
    ]
  },
  {
    "code": "17ec4",
    "name": "Cugir",
    "updated_at": "2014-09-22T21:24:04.354125Z",
    "country": "ro",
    "parent": null,
    "longitude": 23.36669921875,
    "latitude": 45.8333015441895,
    "regions": [
      "12b7"
    ]
  },
  {
    "code": "17ec3",
    "name": "Cumpăna",
    "updated_at": "2014-09-22T21:24:04.336362Z",
    "country": "ro",
    "parent": null,
    "longitude": 24.6000003814697,
    "latitude": 45.4500007629395,
    "regions": [
      "11f9"
    ]
  },
  {
    "code": "17ec2",
    "name": "Curtea de Argeş",
    "updated_at": "2014-09-22T21:24:04.316134Z",
    "country": "ro",
    "parent": null,
    "longitude": 24.6833000183105,
    "latitude": 45.13330078125,
    "regions": [
      "11f9"
    ]
  },
  {
    "code": "17ec1",
    "name": "Curtici",
    "updated_at": "2014-09-22T21:24:04.288232Z",
    "country": "ro",
    "parent": null,
    "longitude": 21.2999992370605,
    "latitude": 46.3499984741211,
    "regions": [
      "12b8"
    ]
  },
  {
    "code": "17ec0",
    "name": "Dálnol",
    "updated_at": "2014-09-22T21:24:04.261853Z",
    "country": "ro",
    "parent": null,
    "longitude": 25.9832992553711,
    "latitude": 45.9166984558105,
    "regions": [
      "12c2"
    ]
  },
  {
    "code": "17ebf",
    "name": "Daneş",
    "updated_at": "2014-09-22T21:24:04.228454Z",
    "country": "ro",
    "parent": null,
    "longitude": 24.7000007629395,
    "latitude": 46.2167015075684,
    "regions": [
      "1272"
    ]
  },
  {
    "code": "17ebe",
    "name": "Dărmăneşti",
    "updated_at": "2014-09-22T21:24:04.195356Z",
    "country": "ro",
    "parent": null,
    "longitude": 24.8999996185303,
    "latitude": 45.0167007446289,
    "regions": [
      "11f9"
    ]
  },
  {
    "code": "17ebd",
    "name": "Dărmăneşti",
    "updated_at": "2014-09-22T21:24:04.166349Z",
    "country": "ro",
    "parent": null,
    "longitude": 26.4832992553711,
    "latitude": 46.36669921875,
    "regions": [
      "12b9"
    ]
  },
  {
    "code": "17ebc",
    "name": "Dej",
    "updated_at": "2014-09-22T21:24:04.149581Z",
    "country": "ro",
    "parent": null,
    "longitude": 23.86669921875,
    "latitude": 47.1500015258789,
    "regions": [
      "12c0"
    ]
  },
  {
    "code": "17ebb",
    "name": "Dejani",
    "updated_at": "2014-09-22T21:24:04.133558Z",
    "country": "ro",
    "parent": null,
    "longitude": 24.9333000183105,
    "latitude": 45.7167015075684,
    "regions": [
      "11f7"
    ]
  },
  {
    "code": "17eba",
    "name": "Deseşti",
    "updated_at": "2014-09-22T21:24:04.084333Z",
    "country": "ro",
    "parent": null,
    "longitude": 23.8500003814697,
    "latitude": 47.7667007446289,
    "regions": [
      "12cc"
    ]
  },
  {
    "code": "17eb9",
    "name": "Deva",
    "updated_at": "2014-09-22T21:24:04.062794Z",
    "country": "ro",
    "parent": null,
    "longitude": 22.8999996185303,
    "latitude": 45.88330078125,
    "regions": [
      "12c8"
    ]
  },
  {
    "code": "17eb8",
    "name": "Dîmbovicioara",
    "updated_at": "2014-09-22T21:24:04.036508Z",
    "country": "ro",
    "parent": null,
    "longitude": 25.2332992553711,
    "latitude": 45.4500007629395,
    "regions": [
      "11f9"
    ]
  },
  {
    "code": "17eb7",
    "name": "Dobriţa",
    "updated_at": "2014-09-22T21:24:04.010114Z",
    "country": "ro",
    "parent": null,
    "longitude": 23.1667003631592,
    "latitude": 45.13330078125,
    "regions": [
      "12c6"
    ]
  },
  {
    "code": "17eb6",
    "name": "Doctor Petru Groza",
    "updated_at": "2014-09-22T21:24:03.976039Z",
    "country": "ro",
    "parent": null,
    "longitude": 22.4500007629395,
    "latitude": 46.5332984924316,
    "regions": [
      "11f8"
    ]
  },
  {
    "code": "17eb5",
    "name": "Două Mai",
    "updated_at": "2014-09-22T21:24:03.941368Z",
    "country": "ro",
    "parent": null,
    "longitude": 28.5832996368408,
    "latitude": 43.7832984924316,
    "regions": [
      "12c1"
    ]
  },
  {
    "code": "17eb4",
    "name": "Douăzeci şi Trei August",
    "updated_at": "2014-09-22T21:24:03.916512Z",
    "country": "ro",
    "parent": null,
    "longitude": 28.5832996368408,
    "latitude": 43.9166984558105,
    "regions": [
      "12c1"
    ]
  },
  {
    "code": "17eb3",
    "name": "Dragomirna",
    "updated_at": "2014-09-22T21:24:03.899707Z",
    "country": "ro",
    "parent": null,
    "longitude": 26.2332992553711,
    "latitude": 47.75,
    "regions": [
      "12a8"
    ]
  },
  {
    "code": "17eb2",
    "name": "Drobeta-Turnu Severin",
    "updated_at": "2014-09-22T21:24:03.882185Z",
    "country": "ro",
    "parent": null,
    "longitude": 22.656099319458,
    "latitude": 44.6319007873535,
    "regions": [
      "11fa"
    ]
  },
  {
    "code": "17eb1",
    "name": "Dubova",
    "updated_at": "2014-09-22T21:24:03.864510Z",
    "country": "ro",
    "parent": null,
    "longitude": 22.2667007446289,
    "latitude": 44.61669921875,
    "regions": [
      "11fa"
    ]
  },
  {
    "code": "17eb0",
    "name": "Dumbrava Roşie",
    "updated_at": "2014-09-22T21:24:03.847736Z",
    "country": "ro",
    "parent": null,
    "longitude": 26.4333000183105,
    "latitude": 46.88330078125,
    "regions": [
      "12cd"
    ]
  },
  {
    "code": "17eaf",
    "name": "Dunavăţu de Jos",
    "updated_at": "2014-09-22T21:24:03.831159Z",
    "country": "ro",
    "parent": null,
    "longitude": 29.2166996002197,
    "latitude": 44.9832992553711,
    "regions": [
      "12d5"
    ]
  },
  {
    "code": "17eae",
    "name": "Dunăvăţul-de-Sus",
    "updated_at": "2014-09-22T21:24:03.806453Z",
    "country": "ro",
    "parent": null,
    "longitude": 29.2332992553711,
    "latitude": 45.0167007446289,
    "regions": [
      "12d5"
    ]
  },
  {
    "code": "17ead",
    "name": "Enisala",
    "updated_at": "2014-09-22T21:24:03.779823Z",
    "country": "ro",
    "parent": null,
    "longitude": 28.8166999816895,
    "latitude": 44.88330078125,
    "regions": [
      "12d5"
    ]
  },
  {
    "code": "17eac",
    "name": "Eremitu",
    "updated_at": "2014-09-22T21:24:03.750892Z",
    "country": "ro",
    "parent": null,
    "longitude": 24.9333000183105,
    "latitude": 46.6666984558105,
    "regions": [
      "1272"
    ]
  },
  {
    "code": "17eab",
    "name": "Ernei",
    "updated_at": "2014-09-22T21:24:03.715463Z",
    "country": "ro",
    "parent": null,
    "longitude": 24.6499996185303,
    "latitude": 46.5999984741211,
    "regions": [
      "1272"
    ]
  },
  {
    "code": "17eaa",
    "name": "Eşelniţa",
    "updated_at": "2014-09-22T21:24:03.680062Z",
    "country": "ro",
    "parent": null,
    "longitude": 22.3621997833252,
    "latitude": 44.6991996765137,
    "regions": [
      "11fa"
    ]
  },
  {
    "code": "17ea9",
    "name": "Făgăraş",
    "updated_at": "2014-09-22T21:24:03.654964Z",
    "country": "ro",
    "parent": null,
    "longitude": 24.9666996002197,
    "latitude": 45.8499984741211,
    "regions": [
      "11f7"
    ]
  },
  {
    "code": "17ea8",
    "name": "Fălticeni",
    "updated_at": "2014-09-22T21:24:03.637451Z",
    "country": "ro",
    "parent": null,
    "longitude": 26.2999992370605,
    "latitude": 47.4500007629395,
    "regions": [
      "12a8"
    ]
  },
  {
    "code": "17ea7",
    "name": "Fieni",
    "updated_at": "2014-09-22T21:24:03.620073Z",
    "country": "ro",
    "parent": null,
    "longitude": 25.4167003631592,
    "latitude": 45.13330078125,
    "regions": [
      "12c3"
    ]
  },
  {
    "code": "17ea6",
    "name": "Fîntîna Brazilor",
    "updated_at": "2014-09-22T21:24:03.604433Z",
    "country": "ro",
    "parent": null,
    "longitude": 25.2667007446289,
    "latitude": 46.4832992553711,
    "regions": []
  },
  {
    "code": "17ea5",
    "name": "Fîntîna Dulce",
    "updated_at": "2014-09-22T21:24:03.586544Z",
    "country": "ro",
    "parent": null,
    "longitude": 29.1667003631592,
    "latitude": 45.25,
    "regions": [
      "12d5"
    ]
  },
  {
    "code": "17ea4",
    "name": "Fîntînele",
    "updated_at": "2014-09-22T21:24:03.566105Z",
    "country": "ro",
    "parent": null,
    "longitude": 24.75,
    "latitude": 46.4166984558105,
    "regions": [
      "1272"
    ]
  },
  {
    "code": "17ea3",
    "name": "Floreşti",
    "updated_at": "2014-09-22T21:24:03.513515Z",
    "country": "ro",
    "parent": null,
    "longitude": 25.7833003997803,
    "latitude": 45.0499992370605,
    "regions": [
      "12cf"
    ]
  },
  {
    "code": "17ea2",
    "name": "Floreşti",
    "updated_at": "2014-09-22T21:24:03.451131Z",
    "country": "ro",
    "parent": null,
    "longitude": 23.4832992553711,
    "latitude": 46.7332992553711,
    "regions": [
      "12c0"
    ]
  },
  {
    "code": "17ea1",
    "name": "Focşani",
    "updated_at": "2014-09-22T21:24:03.415574Z",
    "country": "ro",
    "parent": null,
    "longitude": 27.1833000183105,
    "latitude": 45.7000007629395,
    "regions": [
      "12d8"
    ]
  },
  {
    "code": "17ea0",
    "name": "Frasin",
    "updated_at": "2014-09-22T21:24:03.396878Z",
    "country": "ro",
    "parent": null,
    "longitude": 25.7999992370605,
    "latitude": 47.5332984924316,
    "regions": [
      "12a8"
    ]
  },
  {
    "code": "17e9f",
    "name": "Frumoasa",
    "updated_at": "2014-09-22T21:24:03.379262Z",
    "country": "ro",
    "parent": null,
    "longitude": 25.8500003814697,
    "latitude": 46.4500007629395,
    "regions": [
      "12c7"
    ]
  },
  {
    "code": "17e9e",
    "name": "Frumosu",
    "updated_at": "2014-09-22T21:24:03.361497Z",
    "country": "ro",
    "parent": null,
    "longitude": 25.6499996185303,
    "latitude": 47.61669921875,
    "regions": [
      "12a8"
    ]
  },
  {
    "code": "17e9d",
    "name": "Fundata",
    "updated_at": "2014-09-22T21:24:03.343981Z",
    "country": "ro",
    "parent": null,
    "longitude": 25.2999992370605,
    "latitude": 45.4500007629395,
    "regions": [
      "11f9"
    ]
  },
  {
    "code": "17e9c",
    "name": "Fundu Moldovei",
    "updated_at": "2014-09-22T21:24:03.327229Z",
    "country": "ro",
    "parent": null,
    "longitude": 25.3999996185303,
    "latitude": 47.5332984924316,
    "regions": [
      "12a8"
    ]
  },
  {
    "code": "17e9b",
    "name": "Găeşti",
    "updated_at": "2014-09-22T21:24:03.305701Z",
    "country": "ro",
    "parent": null,
    "longitude": 25.3166999816895,
    "latitude": 44.7167015075684,
    "regions": [
      "12c3"
    ]
  },
  {
    "code": "17e9a",
    "name": "Galaţi",
    "updated_at": "2014-09-22T21:24:03.281163Z",
    "country": "ro",
    "parent": null,
    "longitude": 28.0499992370605,
    "latitude": 45.4500007629395,
    "regions": [
      "1271"
    ]
  },
  {
    "code": "17e99",
    "name": "Geoagiu Băi",
    "updated_at": "2014-09-22T21:24:03.254565Z",
    "country": "ro",
    "parent": null,
    "longitude": 23.1667003631592,
    "latitude": 45.9333000183105,
    "regions": [
      "12c8"
    ]
  },
  {
    "code": "17e98",
    "name": "Geoagiu de Sus",
    "updated_at": "2014-09-22T21:24:03.225103Z",
    "country": "ro",
    "parent": null,
    "longitude": 23.6000003814697,
    "latitude": 46.25,
    "regions": [
      "12b7"
    ]
  },
  {
    "code": "17e97",
    "name": "Onești",
    "updated_at": "2014-09-22T21:24:03.192430Z",
    "country": "ro",
    "parent": null,
    "longitude": 26.75,
    "latitude": 46.25,
    "regions": [
      "12b9"
    ]
  },
  {
    "code": "17e96",
    "name": "Gheorgheni",
    "updated_at": "2014-09-22T21:24:03.158800Z",
    "country": "ro",
    "parent": null,
    "longitude": 25.61669921875,
    "latitude": 46.7167015075684,
    "regions": [
      "12c7"
    ]
  },
  {
    "code": "17e95",
    "name": "Gherla",
    "updated_at": "2014-09-22T21:24:03.126049Z",
    "country": "ro",
    "parent": null,
    "longitude": 23.9167003631592,
    "latitude": 47.0332984924316,
    "regions": [
      "12c0"
    ]
  },
  {
    "code": "17e94",
    "name": "Ghimeş-Făget",
    "updated_at": "2014-09-22T21:24:03.091103Z",
    "country": "ro",
    "parent": null,
    "longitude": 26.0666999816895,
    "latitude": 46.5833015441895,
    "regions": []
  },
  {
    "code": "17e93",
    "name": "Ghioroc",
    "updated_at": "2014-09-22T21:24:03.072653Z",
    "country": "ro",
    "parent": null,
    "longitude": 21.5832996368408,
    "latitude": 46.1500015258789,
    "regions": [
      "12b8"
    ]
  },
  {
    "code": "17e92",
    "name": "Gilău",
    "updated_at": "2014-09-22T21:24:03.050394Z",
    "country": "ro",
    "parent": null,
    "longitude": 23.38330078125,
    "latitude": 46.75,
    "regions": [
      "12c0"
    ]
  },
  {
    "code": "17e91",
    "name": "Gîrbova",
    "updated_at": "2014-09-22T21:24:03.026928Z",
    "country": "ro",
    "parent": null,
    "longitude": 23.7332992553711,
    "latitude": 45.86669921875,
    "regions": [
      "12b7"
    ]
  },
  {
    "code": "17e90",
    "name": "Gîrda de Sus",
    "updated_at": "2014-09-22T21:24:03.005705Z",
    "country": "ro",
    "parent": null,
    "longitude": 22.8166999816895,
    "latitude": 46.4500007629395,
    "regions": [
      "12b7"
    ]
  },
  {
    "code": "17e8f",
    "name": "Giurcuţa de Sus",
    "updated_at": "2014-09-22T21:24:02.940329Z",
    "country": "ro",
    "parent": null,
    "longitude": 22.9167003631592,
    "latitude": 46.6500015258789,
    "regions": [
      "12c0"
    ]
  },
  {
    "code": "17e8e",
    "name": "Giurgiu",
    "updated_at": "2014-09-22T21:24:02.906576Z",
    "country": "ro",
    "parent": null,
    "longitude": 25.9666996002197,
    "latitude": 43.88330078125,
    "regions": [
      "12c5"
    ]
  },
  {
    "code": "17e8d",
    "name": "La Glod",
    "updated_at": "2014-09-22T21:24:02.889727Z",
    "country": "ro",
    "parent": null,
    "longitude": 25.4500007629395,
    "latitude": 45.25,
    "regions": []
  },
  {
    "code": "17e8c",
    "name": "Glod",
    "updated_at": "2014-09-22T21:24:02.872775Z",
    "country": "ro",
    "parent": null,
    "longitude": 24.0832996368408,
    "latitude": 47.7167015075684,
    "regions": [
      "12cc"
    ]
  },
  {
    "code": "17e8b",
    "name": "Goranul",
    "updated_at": "2014-09-22T21:24:02.856558Z",
    "country": "ro",
    "parent": null,
    "longitude": 24.38330078125,
    "latitude": 45.0999984741211,
    "regions": []
  },
  {
    "code": "17e8a",
    "name": "Gorgova",
    "updated_at": "2014-09-22T21:24:02.838737Z",
    "country": "ro",
    "parent": null,
    "longitude": 29.1667003631592,
    "latitude": 45.1833000183105,
    "regions": [
      "12d5"
    ]
  },
  {
    "code": "17e89",
    "name": "Gorneşti",
    "updated_at": "2014-09-22T21:24:02.820888Z",
    "country": "ro",
    "parent": null,
    "longitude": 24.6499996185303,
    "latitude": 46.6666984558105,
    "regions": [
      "1272"
    ]
  },
  {
    "code": "17e88",
    "name": "Greaca",
    "updated_at": "2014-09-22T21:24:02.795078Z",
    "country": "ro",
    "parent": null,
    "longitude": 26.3393993377686,
    "latitude": 44.1094017028809,
    "regions": [
      "12c5"
    ]
  },
  {
    "code": "17e87",
    "name": "Gura Humorului",
    "updated_at": "2014-09-22T21:24:02.768583Z",
    "country": "ro",
    "parent": null,
    "longitude": 25.8999996185303,
    "latitude": 47.5499992370605,
    "regions": [
      "12a8"
    ]
  },
  {
    "code": "17e86",
    "name": "Gura Rîului",
    "updated_at": "2014-09-22T21:24:02.742269Z",
    "country": "ro",
    "parent": null,
    "longitude": 23.9832992553711,
    "latitude": 45.7332992553711,
    "regions": [
      "12d2"
    ]
  },
  {
    "code": "17e85",
    "name": "Heldsdorf",
    "updated_at": "2014-09-22T21:24:02.706753Z",
    "country": "ro",
    "parent": null,
    "longitude": 25.5499992370605,
    "latitude": 45.7667007446289,
    "regions": [
      "11f7"
    ]
  },
  {
    "code": "17e84",
    "name": "Hălmăgel",
    "updated_at": "2014-09-22T21:24:02.672514Z",
    "country": "ro",
    "parent": null,
    "longitude": 22.61669921875,
    "latitude": 46.2667007446289,
    "regions": [
      "12b8"
    ]
  },
  {
    "code": "17e83",
    "name": "Hangul",
    "updated_at": "2014-09-22T21:24:02.648171Z",
    "country": "ro",
    "parent": null,
    "longitude": 26.0333003997803,
    "latitude": 47.0499992370605,
    "regions": [
      "12cd"
    ]
  },
  {
    "code": "17e82",
    "name": "Harghita-Băi",
    "updated_at": "2014-09-22T21:24:02.631956Z",
    "country": "ro",
    "parent": null,
    "longitude": 25.6366004943848,
    "latitude": 46.3861999511719,
    "regions": [
      "12c7"
    ]
  },
  {
    "code": "17e81",
    "name": "Hărman",
    "updated_at": "2014-09-22T21:24:02.615706Z",
    "country": "ro",
    "parent": null,
    "longitude": 25.6833000183105,
    "latitude": 45.7167015075684,
    "regions": [
      "11f7"
    ]
  },
  {
    "code": "17e80",
    "name": "Haţeg",
    "updated_at": "2014-09-22T21:24:02.598589Z",
    "country": "ro",
    "parent": null,
    "longitude": 22.9500007629395,
    "latitude": 45.61669921875,
    "regions": [
      "12c8"
    ]
  },
  {
    "code": "17e7f",
    "name": "Hemeius",
    "updated_at": "2014-09-22T21:24:02.580702Z",
    "country": "ro",
    "parent": null,
    "longitude": 26.8500003814697,
    "latitude": 46.61669921875,
    "regions": [
      "12b9"
    ]
  },
  {
    "code": "17e7e",
    "name": "Hidişelul-de Sus",
    "updated_at": "2014-09-22T21:24:02.560646Z",
    "country": "ro",
    "parent": null,
    "longitude": 22.0499992370605,
    "latitude": 46.9500007629395,
    "regions": []
  },
  {
    "code": "17e7d",
    "name": "Hîrtoape",
    "updated_at": "2014-09-22T21:24:02.532205Z",
    "country": "ro",
    "parent": null,
    "longitude": 26.7332992553711,
    "latitude": 47.3333015441895,
    "regions": [
      "12ca"
    ]
  },
  {
    "code": "17e7c",
    "name": "Horezu",
    "updated_at": "2014-09-22T21:24:02.505655Z",
    "country": "ro",
    "parent": null,
    "longitude": 24.0167007446289,
    "latitude": 45.1500015258789,
    "regions": [
      "12d7"
    ]
  },
  {
    "code": "17e7b",
    "name": "Horodnic de Sus",
    "updated_at": "2014-09-22T21:24:02.473051Z",
    "country": "ro",
    "parent": null,
    "longitude": 25.8500003814697,
    "latitude": 47.8499984741211,
    "regions": [
      "12a8"
    ]
  },
  {
    "code": "17e7a",
    "name": "Hunedoara",
    "updated_at": "2014-09-22T21:24:02.440691Z",
    "country": "ro",
    "parent": null,
    "longitude": 22.8999996185303,
    "latitude": 45.75,
    "regions": [
      "12c8"
    ]
  },
  {
    "code": "17e79",
    "name": "Iaşi",
    "updated_at": "2014-09-22T21:24:02.406312Z",
    "country": "ro",
    "parent": null,
    "longitude": 27.6000003814697,
    "latitude": 47.1666984558105,
    "regions": [
      "12ca"
    ]
  },
  {
    "code": "17e78",
    "name": "Ieud",
    "updated_at": "2014-09-22T21:24:02.389427Z",
    "country": "ro",
    "parent": null,
    "longitude": 24.2332992553711,
    "latitude": 47.6833000183105,
    "regions": [
      "12cc"
    ]
  },
  {
    "code": "17e77",
    "name": "Ighiu",
    "updated_at": "2014-09-22T21:24:02.373286Z",
    "country": "ro",
    "parent": null,
    "longitude": 23.5167007446289,
    "latitude": 46.1500015258789,
    "regions": [
      "12b7"
    ]
  },
  {
    "code": "17e76",
    "name": "Ineu",
    "updated_at": "2014-09-22T21:24:02.338943Z",
    "country": "ro",
    "parent": null,
    "longitude": 21.8500003814697,
    "latitude": 46.4333000183105,
    "regions": [
      "12b8"
    ]
  },
  {
    "code": "17e75",
    "name": "Întorsura Buzăului",
    "updated_at": "2014-09-22T21:24:02.321035Z",
    "country": "ro",
    "parent": null,
    "longitude": 26.0333003997803,
    "latitude": 45.6833000183105,
    "regions": [
      "12c2"
    ]
  },
  {
    "code": "17e74",
    "name": "Islaz",
    "updated_at": "2014-09-22T21:24:02.294819Z",
    "country": "ro",
    "parent": null,
    "longitude": 24.75,
    "latitude": 43.7332992553711,
    "regions": [
      "12d3"
    ]
  },
  {
    "code": "17e73",
    "name": "Iteşti",
    "updated_at": "2014-09-22T21:24:02.267919Z",
    "country": "ro",
    "parent": null,
    "longitude": 26.86669921875,
    "latitude": 46.6500015258789,
    "regions": [
      "12b9"
    ]
  },
  {
    "code": "17e72",
    "name": "Izvin",
    "updated_at": "2014-09-22T21:24:02.240717Z",
    "country": "ro",
    "parent": null,
    "longitude": 21.4500007629395,
    "latitude": 45.7999992370605,
    "regions": [
      "12d4"
    ]
  },
  {
    "code": "17e71",
    "name": "Izvoare",
    "updated_at": "2014-09-22T21:24:02.204839Z",
    "country": "ro",
    "parent": null,
    "longitude": 25.36669921875,
    "latitude": 46.38330078125,
    "regions": [
      "12c7"
    ]
  },
  {
    "code": "17e70",
    "name": "Izvoru Muntelui",
    "updated_at": "2014-09-22T21:24:02.170447Z",
    "country": "ro",
    "parent": null,
    "longitude": 26.0832996368408,
    "latitude": 46.9333000183105,
    "regions": [
      "12cd"
    ]
  },
  {
    "code": "17e6f",
    "name": "Izvoru Mureşului",
    "updated_at": "2014-09-22T21:24:02.147486Z",
    "country": "ro",
    "parent": null,
    "longitude": 25.7166996002197,
    "latitude": 46.61669921875,
    "regions": [
      "12c7"
    ]
  },
  {
    "code": "17e6e",
    "name": "Jitaru",
    "updated_at": "2014-09-22T21:24:02.128770Z",
    "country": "ro",
    "parent": null,
    "longitude": 24.5499992370605,
    "latitude": 44.5499992370605,
    "regions": [
      "12ce"
    ]
  },
  {
    "code": "17e6d",
    "name": "Joseni",
    "updated_at": "2014-09-22T21:24:02.110018Z",
    "country": "ro",
    "parent": null,
    "longitude": 26.4832992553711,
    "latitude": 46.36669921875,
    "regions": []
  },
  {
    "code": "17e6c",
    "name": "Lotrioara",
    "updated_at": "2014-09-22T21:24:02.090583Z",
    "country": "ro",
    "parent": null,
    "longitude": 24.2261238098145,
    "latitude": 45.5741844177246,
    "regions": [
      "12d2"
    ]
  },
  {
    "code": "17e6b",
    "name": "Lăzarea",
    "updated_at": "2014-09-22T21:24:02.073264Z",
    "country": "ro",
    "parent": null,
    "longitude": 25.5333003997803,
    "latitude": 46.75,
    "regions": [
      "12c7"
    ]
  },
  {
    "code": "17e6a",
    "name": "Leordina",
    "updated_at": "2014-09-22T21:24:02.052945Z",
    "country": "ro",
    "parent": null,
    "longitude": 24.25,
    "latitude": 47.7832984924316,
    "regions": [
      "12cc"
    ]
  },
  {
    "code": "17e69",
    "name": "Lepşa",
    "updated_at": "2014-09-22T21:24:02.025936Z",
    "country": "ro",
    "parent": null,
    "longitude": 26.5666999816895,
    "latitude": 45.9500007629395,
    "regions": [
      "12d8"
    ]
  },
  {
    "code": "17e68",
    "name": "Letea",
    "updated_at": "2014-09-22T21:24:01.999578Z",
    "country": "ro",
    "parent": null,
    "longitude": 29.5167007446289,
    "latitude": 45.2999992370605,
    "regions": [
      "12d5"
    ]
  },
  {
    "code": "17e67",
    "name": "Linteşti",
    "updated_at": "2014-09-22T21:24:01.942153Z",
    "country": "ro",
    "parent": null,
    "longitude": 24.6000003814697,
    "latitude": 45.0167007446289,
    "regions": [
      "11f9"
    ]
  },
  {
    "code": "17e66",
    "name": "Lugoj",
    "updated_at": "2014-09-22T21:24:01.908423Z",
    "country": "ro",
    "parent": null,
    "longitude": 21.9030990600586,
    "latitude": 45.6885986328125,
    "regions": [
      "12d4"
    ]
  },
  {
    "code": "17e65",
    "name": "Luna de Sus",
    "updated_at": "2014-09-22T21:24:01.884233Z",
    "country": "ro",
    "parent": null,
    "longitude": 23.4333000183105,
    "latitude": 46.7332992553711,
    "regions": [
      "12c0"
    ]
  },
  {
    "code": "17e64",
    "name": "Lunca Bradului",
    "updated_at": "2014-09-22T21:24:01.865347Z",
    "country": "ro",
    "parent": null,
    "longitude": 25.1000003814697,
    "latitude": 46.9500007629395,
    "regions": [
      "1272"
    ]
  },
  {
    "code": "17e63",
    "name": "Lunca de Jos",
    "updated_at": "2014-09-22T21:24:01.847250Z",
    "country": "ro",
    "parent": null,
    "longitude": 25.9832992553711,
    "latitude": 46.5666999816895,
    "regions": [
      "12c7"
    ]
  },
  {
    "code": "17e62",
    "name": "Lupeni",
    "updated_at": "2014-09-22T21:24:01.828731Z",
    "country": "ro",
    "parent": null,
    "longitude": 23.2332992553711,
    "latitude": 45.3499984741211,
    "regions": [
      "12c8"
    ]
  },
  {
    "code": "17e61",
    "name": "Măgura",
    "updated_at": "2014-09-22T21:24:01.810895Z",
    "country": "ro",
    "parent": null,
    "longitude": 26.5832996368408,
    "latitude": 45.2667007446289,
    "regions": [
      "12bd"
    ]
  },
  {
    "code": "17e60",
    "name": "Măgurele",
    "updated_at": "2014-09-22T21:24:01.788739Z",
    "country": "ro",
    "parent": null,
    "longitude": 26.0333003997803,
    "latitude": 44.3499984741211,
    "regions": [
      "12cb"
    ]
  },
  {
    "code": "17e5f",
    "name": "Măgurelele",
    "updated_at": "2014-09-22T21:24:01.761784Z",
    "country": "ro",
    "parent": null,
    "longitude": 26.0333003997803,
    "latitude": 45.0999984741211,
    "regions": []
  },
  {
    "code": "17e5e",
    "name": "Mahmudia",
    "updated_at": "2014-09-22T21:24:01.735350Z",
    "country": "ro",
    "parent": null,
    "longitude": 29.0832996368408,
    "latitude": 45.0833015441895,
    "regions": [
      "12d5"
    ]
  },
  {
    "code": "17e5d",
    "name": "Mălăeşti",
    "updated_at": "2014-09-22T21:24:01.699990Z",
    "country": "ro",
    "parent": null,
    "longitude": 22.9500007629395,
    "latitude": 45.4832992553711,
    "regions": [
      "12c8"
    ]
  },
  {
    "code": "17e5c",
    "name": "Măldăreşti",
    "updated_at": "2014-09-22T21:24:01.634391Z",
    "country": "ro",
    "parent": null,
    "longitude": 24.0,
    "latitude": 45.11669921875,
    "regions": [
      "12d7"
    ]
  },
  {
    "code": "17e5b",
    "name": "Malu",
    "updated_at": "2014-09-22T21:24:01.616485Z",
    "country": "ro",
    "parent": null,
    "longitude": 26.3999996185303,
    "latitude": 46.9832992553711,
    "regions": [
      "12cd"
    ]
  },
  {
    "code": "17e5a",
    "name": "Mamaia",
    "updated_at": "2014-09-22T21:24:01.599762Z",
    "country": "ro",
    "parent": null,
    "longitude": 28.6214008331299,
    "latitude": 44.2486000061035,
    "regions": [
      "12c1"
    ]
  },
  {
    "code": "17e59",
    "name": "Mangalia",
    "updated_at": "2014-09-22T21:24:01.582428Z",
    "country": "ro",
    "parent": null,
    "longitude": 28.5832996368408,
    "latitude": 43.7999992370605,
    "regions": [
      "12c1"
    ]
  },
  {
    "code": "17e58",
    "name": "Mărişel",
    "updated_at": "2014-09-22T21:24:01.499531Z",
    "country": "ro",
    "parent": null,
    "longitude": 23.13330078125,
    "latitude": 46.6500015258789,
    "regions": [
      "12c0"
    ]
  },
  {
    "code": "17e57",
    "name": "Mariţa",
    "updated_at": "2014-09-22T21:24:01.472297Z",
    "country": "ro",
    "parent": null,
    "longitude": 23.88330078125,
    "latitude": 45.1833000183105,
    "regions": [
      "12d7"
    ]
  },
  {
    "code": "17e56",
    "name": "Maxut",
    "updated_at": "2014-09-22T21:24:01.439838Z",
    "country": "ro",
    "parent": null,
    "longitude": 26.88330078125,
    "latitude": 47.4333000183105,
    "regions": [
      "12ca"
    ]
  },
  {
    "code": "17e55",
    "name": "Mediaş",
    "updated_at": "2014-09-22T21:24:01.408543Z",
    "country": "ro",
    "parent": null,
    "longitude": 24.3500003814697,
    "latitude": 46.1666984558105,
    "regions": [
      "12d2"
    ]
  },
  {
    "code": "17e54",
    "name": "Miercurea-Ciuc",
    "updated_at": "2014-09-22T21:24:01.373973Z",
    "country": "ro",
    "parent": null,
    "longitude": 25.7999992370605,
    "latitude": 46.3499984741211,
    "regions": [
      "12c7"
    ]
  },
  {
    "code": "17e53",
    "name": "Mihai Viteazu",
    "updated_at": "2014-09-22T21:24:01.355928Z",
    "country": "ro",
    "parent": null,
    "longitude": 23.75,
    "latitude": 46.5332984924316,
    "regions": [
      "12c0"
    ]
  },
  {
    "code": "17e52",
    "name": "Mila Douăzeci şi Trei",
    "updated_at": "2014-09-22T21:24:01.338742Z",
    "country": "ro",
    "parent": null,
    "longitude": 29.2449836730957,
    "latitude": 45.226634979248,
    "regions": [
      "12d5"
    ]
  },
  {
    "code": "17e51",
    "name": "Mănăstirea Humorului",
    "updated_at": "2014-09-22T21:24:01.321380Z",
    "country": "ro",
    "parent": null,
    "longitude": 25.86669921875,
    "latitude": 47.5999984741211,
    "regions": [
      "12a8"
    ]
  },
  {
    "code": "17e50",
    "name": "Moieciu de Jos",
    "updated_at": "2014-09-22T21:24:01.230184Z",
    "country": "ro",
    "parent": null,
    "longitude": 25.3166999816895,
    "latitude": 45.4832992553711,
    "regions": [
      "11f7"
    ]
  },
  {
    "code": "17e4f",
    "name": "Moieciu de Sus",
    "updated_at": "2014-09-22T21:24:01.203134Z",
    "country": "ro",
    "parent": null,
    "longitude": 25.3332996368408,
    "latitude": 45.4333000183105,
    "regions": [
      "11f7"
    ]
  },
  {
    "code": "17e4e",
    "name": "Moldoviţa",
    "updated_at": "2014-09-22T21:24:01.105385Z",
    "country": "ro",
    "parent": null,
    "longitude": 25.5333003997803,
    "latitude": 47.6833000183105,
    "regions": [
      "12a8"
    ]
  },
  {
    "code": "17e4d",
    "name": "Moldoviţa",
    "updated_at": "2014-09-22T21:24:01.088409Z",
    "country": "ro",
    "parent": null,
    "longitude": 21.7108001708984,
    "latitude": 44.815299987793,
    "regions": []
  },
  {
    "code": "17e4c",
    "name": "Moneasa",
    "updated_at": "2014-09-22T21:24:01.071027Z",
    "country": "ro",
    "parent": null,
    "longitude": 22.25,
    "latitude": 46.4500007629395,
    "regions": [
      "12b8"
    ]
  },
  {
    "code": "17e4b",
    "name": "Moroeni",
    "updated_at": "2014-09-22T21:24:01.033654Z",
    "country": "ro",
    "parent": null,
    "longitude": 25.4333000183105,
    "latitude": 45.2167015075684,
    "regions": [
      "12c3"
    ]
  },
  {
    "code": "17e4a",
    "name": "Muntele Băişorii",
    "updated_at": "2014-09-22T21:24:01.013533Z",
    "country": "ro",
    "parent": null,
    "longitude": 23.3500003814697,
    "latitude": 46.5666999816895,
    "regions": [
      "12c0"
    ]
  },
  {
    "code": "17e49",
    "name": "Muntele Cacovei",
    "updated_at": "2014-09-22T21:24:00.988413Z",
    "country": "ro",
    "parent": null,
    "longitude": 23.3500003814697,
    "latitude": 46.5499992370605,
    "regions": [
      "12c0"
    ]
  },
  {
    "code": "17e48",
    "name": "Murighiol",
    "updated_at": "2014-09-22T21:24:00.961920Z",
    "country": "ro",
    "parent": null,
    "longitude": 29.1667003631592,
    "latitude": 45.0332984924316,
    "regions": [
      "12d5"
    ]
  },
  {
    "code": "17e47",
    "name": "Muşeteşti",
    "updated_at": "2014-09-22T21:24:00.930743Z",
    "country": "ro",
    "parent": null,
    "longitude": 23.4666996002197,
    "latitude": 45.1500015258789,
    "regions": [
      "12c6"
    ]
  },
  {
    "code": "17e46",
    "name": "Nădăşelu",
    "updated_at": "2014-09-22T21:24:00.896146Z",
    "country": "ro",
    "parent": null,
    "longitude": 23.4167003631592,
    "latitude": 46.8166999816895,
    "regions": [
      "12c0"
    ]
  },
  {
    "code": "17e45",
    "name": "Năvodari",
    "updated_at": "2014-09-22T21:24:00.861176Z",
    "country": "ro",
    "parent": null,
    "longitude": 28.6000003814697,
    "latitude": 44.3166999816895,
    "regions": [
      "12c1"
    ]
  },
  {
    "code": "17e44",
    "name": "Negreni",
    "updated_at": "2014-09-22T21:24:00.836848Z",
    "country": "ro",
    "parent": null,
    "longitude": 22.7999992370605,
    "latitude": 46.9500007629395,
    "regions": [
      "12c0"
    ]
  },
  {
    "code": "17e43",
    "name": "Nehoiu",
    "updated_at": "2014-09-22T21:24:00.818309Z",
    "country": "ro",
    "parent": null,
    "longitude": 26.2999992370605,
    "latitude": 45.4166984558105,
    "regions": [
      "12bd"
    ]
  },
  {
    "code": "17e42",
    "name": "Nemşa",
    "updated_at": "2014-09-22T21:24:00.800415Z",
    "country": "ro",
    "parent": null,
    "longitude": 24.4333000183105,
    "latitude": 46.0833015441895,
    "regions": [
      "12d2"
    ]
  },
  {
    "code": "17e41",
    "name": "Nojorid",
    "updated_at": "2014-09-22T21:24:00.779433Z",
    "country": "ro",
    "parent": null,
    "longitude": 21.88330078125,
    "latitude": 46.9832992553711,
    "regions": [
      "11f8"
    ]
  },
  {
    "code": "17e40",
    "name": "Novaci-Străini",
    "updated_at": "2014-09-22T21:24:00.761650Z",
    "country": "ro",
    "parent": null,
    "longitude": 23.6667003631592,
    "latitude": 45.1833000183105,
    "regions": [
      "12c6"
    ]
  },
  {
    "code": "17e3f",
    "name": "Nucet",
    "updated_at": "2014-09-22T21:24:00.741432Z",
    "country": "ro",
    "parent": null,
    "longitude": 24.38330078125,
    "latitude": 45.7999992370605,
    "regions": [
      "12d2"
    ]
  },
  {
    "code": "17e3e",
    "name": "Oarja",
    "updated_at": "2014-09-22T21:24:00.685123Z",
    "country": "ro",
    "parent": null,
    "longitude": 24.9666996002197,
    "latitude": 44.7667007446289,
    "regions": [
      "11f9"
    ]
  },
  {
    "code": "17e3d",
    "name": "Ocna Sibiului",
    "updated_at": "2014-09-22T21:24:00.650541Z",
    "country": "ro",
    "parent": null,
    "longitude": 24.0499992370605,
    "latitude": 45.88330078125,
    "regions": [
      "12d2"
    ]
  },
  {
    "code": "17e3c",
    "name": "Ocna Şugatag",
    "updated_at": "2014-09-22T21:24:00.616275Z",
    "country": "ro",
    "parent": null,
    "longitude": 23.9333000183105,
    "latitude": 47.7832984924316,
    "regions": [
      "12cc"
    ]
  },
  {
    "code": "17e3b",
    "name": "Odorheiu Secuiesc",
    "updated_at": "2014-09-22T21:24:00.568393Z",
    "country": "ro",
    "parent": null,
    "longitude": 25.2999992370605,
    "latitude": 46.2999992370605,
    "regions": [
      "12c7"
    ]
  },
  {
    "code": "17e3a",
    "name": "Oglinzi",
    "updated_at": "2014-09-22T21:24:00.549520Z",
    "country": "ro",
    "parent": null,
    "longitude": 26.3500003814697,
    "latitude": 47.25,
    "regions": [
      "12cd"
    ]
  },
  {
    "code": "17e39",
    "name": "Ogra",
    "updated_at": "2014-09-22T21:24:00.528856Z",
    "country": "ro",
    "parent": null,
    "longitude": 24.3166999816895,
    "latitude": 46.4333000183105,
    "regions": [
      "1272"
    ]
  },
  {
    "code": "17e38",
    "name": "Olteniţa",
    "updated_at": "2014-09-22T21:24:00.511214Z",
    "country": "ro",
    "parent": null,
    "longitude": 26.63330078125,
    "latitude": 44.0833015441895,
    "regions": [
      "12bf"
    ]
  },
  {
    "code": "17e37",
    "name": "Onceşti",
    "updated_at": "2014-09-22T21:24:00.492163Z",
    "country": "ro",
    "parent": null,
    "longitude": 23.9832992553711,
    "latitude": 47.8499984741211,
    "regions": [
      "12cc"
    ]
  },
  {
    "code": "17e36",
    "name": "Oradea",
    "updated_at": "2014-09-22T21:24:00.465048Z",
    "country": "ro",
    "parent": null,
    "longitude": 21.9333000183105,
    "latitude": 47.0666999816895,
    "regions": [
      "11f8"
    ]
  },
  {
    "code": "17e35",
    "name": "Orăştie",
    "updated_at": "2014-09-22T21:24:00.438527Z",
    "country": "ro",
    "parent": null,
    "longitude": 23.2000007629395,
    "latitude": 45.8333015441895,
    "regions": [
      "12c8"
    ]
  },
  {
    "code": "17e34",
    "name": "Orşova",
    "updated_at": "2014-09-22T21:24:00.409009Z",
    "country": "ro",
    "parent": null,
    "longitude": 22.3960990905762,
    "latitude": 44.7252998352051,
    "regions": [
      "11fa"
    ]
  },
  {
    "code": "17e33",
    "name": "Otopeni",
    "updated_at": "2014-09-22T21:24:00.340106Z",
    "country": "ro",
    "parent": null,
    "longitude": 26.0666999816895,
    "latitude": 44.5499992370605,
    "regions": [
      "12cb"
    ]
  },
  {
    "code": "17e32",
    "name": "Păltiniş",
    "updated_at": "2014-09-22T21:24:00.296052Z",
    "country": "ro",
    "parent": null,
    "longitude": 23.9167003631592,
    "latitude": 45.6500015258789,
    "regions": [
      "12d2"
    ]
  },
  {
    "code": "17e31",
    "name": "Partizanii",
    "updated_at": "2014-09-22T21:24:00.277257Z",
    "country": "ro",
    "parent": null,
    "longitude": 28.9333000183105,
    "latitude": 45.1833000183105,
    "regions": [
      "12d5"
    ]
  },
  {
    "code": "17e30",
    "name": "Păuleni-Ciuc",
    "updated_at": "2014-09-22T21:24:00.239491Z",
    "country": "ro",
    "parent": null,
    "longitude": 25.8332996368408,
    "latitude": 46.4000015258789,
    "regions": [
      "12c7"
    ]
  },
  {
    "code": "17e2f",
    "name": "Pecica",
    "updated_at": "2014-09-22T21:24:00.190825Z",
    "country": "ro",
    "parent": null,
    "longitude": 21.0666999816895,
    "latitude": 46.1666984558105,
    "regions": [
      "12b8"
    ]
  },
  {
    "code": "17e2e",
    "name": "Periprava",
    "updated_at": "2014-09-22T21:24:00.163756Z",
    "country": "ro",
    "parent": null,
    "longitude": 29.5333003997803,
    "latitude": 45.4000015258789,
    "regions": [
      "12d5"
    ]
  },
  {
    "code": "17e2d",
    "name": "Peştera",
    "updated_at": "2014-09-22T21:24:00.102426Z",
    "country": "ro",
    "parent": null,
    "longitude": 25.2833003997803,
    "latitude": 45.5167007446289,
    "regions": [
      "11f7"
    ]
  },
  {
    "code": "17e2c",
    "name": "Petreştii de Jos",
    "updated_at": "2014-09-22T21:24:00.067673Z",
    "country": "ro",
    "parent": null,
    "longitude": 23.6499996185303,
    "latitude": 46.5833015441895,
    "regions": [
      "12c0"
    ]
  },
  {
    "code": "17e2b",
    "name": "Petrindu",
    "updated_at": "2014-09-22T21:24:00.029571Z",
    "country": "ro",
    "parent": null,
    "longitude": 23.2000007629395,
    "latitude": 46.9333000183105,
    "regions": [
      "12d1"
    ]
  },
  {
    "code": "17e2a",
    "name": "Petroşani",
    "updated_at": "2014-09-22T21:24:00.010755Z",
    "country": "ro",
    "parent": null,
    "longitude": 23.36669921875,
    "latitude": 45.4166984558105,
    "regions": [
      "12c8"
    ]
  },
  {
    "code": "17e29",
    "name": "Pianu de Jos",
    "updated_at": "2014-09-22T21:23:59.991526Z",
    "country": "ro",
    "parent": null,
    "longitude": 23.4832992553711,
    "latitude": 45.9333000183105,
    "regions": [
      "12b7"
    ]
  },
  {
    "code": "17e28",
    "name": "Pianu de Sus",
    "updated_at": "2014-09-22T21:23:59.973826Z",
    "country": "ro",
    "parent": null,
    "longitude": 23.4832992553711,
    "latitude": 45.9000015258789,
    "regions": [
      "12b7"
    ]
  },
  {
    "code": "17e27",
    "name": "Piatra Neamţ",
    "updated_at": "2014-09-22T21:23:59.949641Z",
    "country": "ro",
    "parent": null,
    "longitude": 26.3708027824759,
    "latitude": 46.9316122242426,
    "regions": [
      "12cd"
    ]
  },
  {
    "code": "17e26",
    "name": "Pietroasa",
    "updated_at": "2014-09-22T21:23:59.924652Z",
    "country": "ro",
    "parent": null,
    "longitude": 22.5499992370605,
    "latitude": 46.5833015441895,
    "regions": [
      "11f8"
    ]
  },
  {
    "code": "17e25",
    "name": "Pipera",
    "updated_at": "2014-09-22T21:23:59.898440Z",
    "country": "ro",
    "parent": null,
    "longitude": 26.13330078125,
    "latitude": 44.5,
    "regions": []
  },
  {
    "code": "17e24",
    "name": "Piteşti",
    "updated_at": "2014-09-22T21:23:59.828439Z",
    "country": "ro",
    "parent": null,
    "longitude": 24.86669921875,
    "latitude": 44.8499984741211,
    "regions": [
      "11f9"
    ]
  },
  {
    "code": "17e23",
    "name": "Ploieşti",
    "updated_at": "2014-09-22T21:23:59.763811Z",
    "country": "ro",
    "parent": null,
    "longitude": 26.0167007446289,
    "latitude": 44.9500007629395,
    "regions": [
      "12cf"
    ]
  },
  {
    "code": "17e22",
    "name": "Poiana",
    "updated_at": "2014-09-22T21:23:59.706533Z",
    "country": "ro",
    "parent": null,
    "longitude": 24.4333000183105,
    "latitude": 45.3499984741211,
    "regions": [
      "12d7"
    ]
  },
  {
    "code": "17e21",
    "name": "Poiana Mărului",
    "updated_at": "2014-09-22T21:23:59.679806Z",
    "country": "ro",
    "parent": null,
    "longitude": 22.5499992370605,
    "latitude": 45.4000015258789,
    "regions": [
      "12be"
    ]
  },
  {
    "code": "17e20",
    "name": "Poiana Teiului",
    "updated_at": "2014-09-22T21:23:59.657319Z",
    "country": "ro",
    "parent": null,
    "longitude": 25.9666996002197,
    "latitude": 47.0999984741211,
    "regions": [
      "12cd"
    ]
  },
  {
    "code": "17e1f",
    "name": "Poienile Izei",
    "updated_at": "2014-09-22T21:23:59.628691Z",
    "country": "ro",
    "parent": null,
    "longitude": 24.11669921875,
    "latitude": 47.7000007629395,
    "regions": [
      "12cc"
    ]
  },
  {
    "code": "17e1e",
    "name": "Pojorîta",
    "updated_at": "2014-09-22T21:23:59.593546Z",
    "country": "ro",
    "parent": null,
    "longitude": 25.4500007629395,
    "latitude": 47.5167007446289,
    "regions": [
      "12a8"
    ]
  },
  {
    "code": "17e1d",
    "name": "Polovragi",
    "updated_at": "2014-09-22T21:23:59.558909Z",
    "country": "ro",
    "parent": null,
    "longitude": 23.7999992370605,
    "latitude": 45.1833000183105,
    "regions": [
      "12c6"
    ]
  },
  {
    "code": "17e1c",
    "name": "Ponor",
    "updated_at": "2014-09-22T21:23:59.534626Z",
    "country": "ro",
    "parent": null,
    "longitude": 23.4167003631592,
    "latitude": 46.3333015441895,
    "regions": [
      "11f8"
    ]
  },
  {
    "code": "17e1b",
    "name": "Popeşti-Leordeni",
    "updated_at": "2014-09-22T21:23:59.517964Z",
    "country": "ro",
    "parent": null,
    "longitude": 26.1667003631592,
    "latitude": 44.38330078125,
    "regions": []
  },
  {
    "code": "17e1a",
    "name": "Porumbacu de Sus",
    "updated_at": "2014-09-22T21:23:59.500469Z",
    "country": "ro",
    "parent": null,
    "longitude": 24.4666996002197,
    "latitude": 45.7167015075684,
    "regions": [
      "12d2"
    ]
  },
  {
    "code": "17e19",
    "name": "Potlogi",
    "updated_at": "2014-09-22T21:23:59.483240Z",
    "country": "ro",
    "parent": null,
    "longitude": 25.5832996368408,
    "latitude": 44.5499992370605,
    "regions": [
      "12c3"
    ]
  },
  {
    "code": "17e18",
    "name": "Praid",
    "updated_at": "2014-09-22T21:23:59.466609Z",
    "country": "ro",
    "parent": null,
    "longitude": 25.13330078125,
    "latitude": 46.5499992370605,
    "regions": [
      "1272"
    ]
  },
  {
    "code": "17e17",
    "name": "Predeal",
    "updated_at": "2014-09-22T21:23:59.445248Z",
    "country": "ro",
    "parent": null,
    "longitude": 25.5666999816895,
    "latitude": 45.5,
    "regions": [
      "11f7"
    ]
  },
  {
    "code": "17e16",
    "name": "Prejmer",
    "updated_at": "2014-09-22T21:23:59.421225Z",
    "country": "ro",
    "parent": null,
    "longitude": 25.7667007446289,
    "latitude": 45.7167015075684,
    "regions": [
      "12c2"
    ]
  },
  {
    "code": "17e15",
    "name": "Putna",
    "updated_at": "2014-09-22T21:23:59.362911Z",
    "country": "ro",
    "parent": null,
    "longitude": 25.61669921875,
    "latitude": 47.86669921875,
    "regions": [
      "12a8"
    ]
  },
  {
    "code": "17e14",
    "name": "Răchiţele",
    "updated_at": "2014-09-22T21:23:59.331002Z",
    "country": "ro",
    "parent": null,
    "longitude": 22.8999996185303,
    "latitude": 46.7000007629395,
    "regions": [
      "12c0"
    ]
  },
  {
    "code": "17e13",
    "name": "Rădăuţi",
    "updated_at": "2014-09-22T21:23:59.280039Z",
    "country": "ro",
    "parent": null,
    "longitude": 25.9167003631592,
    "latitude": 47.8499984741211,
    "regions": [
      "12a8"
    ]
  },
  {
    "code": "17e12",
    "name": "Răşinari",
    "updated_at": "2014-09-22T21:23:59.262539Z",
    "country": "ro",
    "parent": null,
    "longitude": 24.0666999816895,
    "latitude": 45.7000007629395,
    "regions": [
      "12d2"
    ]
  },
  {
    "code": "17e11",
    "name": "Recea",
    "updated_at": "2014-09-22T21:23:59.244671Z",
    "country": "ro",
    "parent": null,
    "longitude": 23.5167007446289,
    "latitude": 47.63330078125,
    "regions": [
      "12cc"
    ]
  },
  {
    "code": "17e10",
    "name": "Reghin",
    "updated_at": "2014-09-22T21:23:59.227003Z",
    "country": "ro",
    "parent": null,
    "longitude": 24.7000007629395,
    "latitude": 46.7667007446289,
    "regions": [
      "1272"
    ]
  },
  {
    "code": "17e0f",
    "name": "Remeţi",
    "updated_at": "2014-09-22T21:23:59.210265Z",
    "country": "ro",
    "parent": null,
    "longitude": 22.6667003631592,
    "latitude": 46.8499984741211,
    "regions": [
      "11f8"
    ]
  },
  {
    "code": "17e0e",
    "name": "Reşiţa",
    "updated_at": "2014-09-22T21:23:59.186034Z",
    "country": "ro",
    "parent": null,
    "longitude": 21.8892002105713,
    "latitude": 45.3008003234863,
    "regions": [
      "12be"
    ]
  },
  {
    "code": "17e0d",
    "name": "Rimetea",
    "updated_at": "2014-09-22T21:23:59.159910Z",
    "country": "ro",
    "parent": null,
    "longitude": 23.5666999816895,
    "latitude": 46.4500007629395,
    "regions": [
      "12b7"
    ]
  },
  {
    "code": "17e0c",
    "name": "Râmnicu Vâlcea",
    "updated_at": "2014-09-22T21:23:59.134475Z",
    "country": "ro",
    "parent": null,
    "longitude": 24.36669921875,
    "latitude": 45.0999984741211,
    "regions": [
      "12d7"
    ]
  },
  {
    "code": "17e0b",
    "name": "Rîşnov",
    "updated_at": "2014-09-22T21:23:59.100246Z",
    "country": "ro",
    "parent": null,
    "longitude": 25.4500007629395,
    "latitude": 45.5833015441895,
    "regions": [
      "11f7"
    ]
  },
  {
    "code": "17e0a",
    "name": "Rau Sadului",
    "updated_at": "2014-09-22T21:23:59.038738Z",
    "country": "ro",
    "parent": null,
    "longitude": 24.0666999816895,
    "latitude": 45.61669921875,
    "regions": [
      "12d2"
    ]
  },
  {
    "code": "17e09",
    "name": "Rojiştea",
    "updated_at": "2014-09-22T21:23:59.003264Z",
    "country": "ro",
    "parent": null,
    "longitude": 23.9333000183105,
    "latitude": 44.0666999816895,
    "regions": [
      "12c4"
    ]
  },
  {
    "code": "17e08",
    "name": "Roman",
    "updated_at": "2014-09-22T21:23:58.984538Z",
    "country": "ro",
    "parent": null,
    "longitude": 26.9167003631592,
    "latitude": 46.9166984558105,
    "regions": [
      "12cd"
    ]
  },
  {
    "code": "17e07",
    "name": "Roşcani",
    "updated_at": "2014-09-22T21:23:58.968012Z",
    "country": "ro",
    "parent": null,
    "longitude": 22.5666999816895,
    "latitude": 45.86669921875,
    "regions": [
      "12c8"
    ]
  },
  {
    "code": "17e06",
    "name": "Rucăr",
    "updated_at": "2014-09-22T21:23:58.948483Z",
    "country": "ro",
    "parent": null,
    "longitude": 25.1667003631592,
    "latitude": 45.4000015258789,
    "regions": [
      "11f9"
    ]
  },
  {
    "code": "17e05",
    "name": "Runcu",
    "updated_at": "2014-09-22T21:23:58.924250Z",
    "country": "ro",
    "parent": null,
    "longitude": 25.38330078125,
    "latitude": 45.1833000183105,
    "regions": [
      "12c3"
    ]
  },
  {
    "code": "17e04",
    "name": "Rupea",
    "updated_at": "2014-09-22T21:23:58.897634Z",
    "country": "ro",
    "parent": null,
    "longitude": 25.2166996002197,
    "latitude": 46.0332984924316,
    "regions": [
      "11f7"
    ]
  },
  {
    "code": "17e03",
    "name": "Ruscova",
    "updated_at": "2014-09-22T21:23:58.869688Z",
    "country": "ro",
    "parent": null,
    "longitude": 24.2833003997803,
    "latitude": 47.7999992370605,
    "regions": [
      "12cc"
    ]
  },
  {
    "code": "17e02",
    "name": "Săcădat",
    "updated_at": "2014-09-22T21:23:58.833204Z",
    "country": "ro",
    "parent": null,
    "longitude": 22.1499996185303,
    "latitude": 47.0332984924316,
    "regions": [
      "11f8"
    ]
  },
  {
    "code": "17e01",
    "name": "Săcălăşeni",
    "updated_at": "2014-09-22T21:23:58.798572Z",
    "country": "ro",
    "parent": null,
    "longitude": 23.5666999816895,
    "latitude": 47.5833015441895,
    "regions": [
      "12cc"
    ]
  },
  {
    "code": "17e00",
    "name": "Săcalul de Pădure",
    "updated_at": "2014-09-22T21:23:58.776396Z",
    "country": "ro",
    "parent": null,
    "longitude": 24.7166996002197,
    "latitude": 46.88330078125,
    "regions": []
  },
  {
    "code": "17dff",
    "name": "Săcel",
    "updated_at": "2014-09-22T21:23:58.760381Z",
    "country": "ro",
    "parent": null,
    "longitude": 24.4333000183105,
    "latitude": 47.63330078125,
    "regions": [
      "12cc"
    ]
  },
  {
    "code": "17dfe",
    "name": "Săcele",
    "updated_at": "2014-09-22T21:23:58.744045Z",
    "country": "ro",
    "parent": null,
    "longitude": 25.6833000183105,
    "latitude": 45.61669921875,
    "regions": [
      "11f7"
    ]
  },
  {
    "code": "17dfd",
    "name": "Sadova",
    "updated_at": "2014-09-22T21:23:58.726728Z",
    "country": "ro",
    "parent": null,
    "longitude": 25.5,
    "latitude": 47.5332984924316,
    "regions": [
      "12a8"
    ]
  },
  {
    "code": "17dfc",
    "name": "Sadu",
    "updated_at": "2014-09-22T21:23:58.708664Z",
    "country": "ro",
    "parent": null,
    "longitude": 24.1833000183105,
    "latitude": 45.6666984558105,
    "regions": [
      "12d2"
    ]
  },
  {
    "code": "17dfb",
    "name": "Săftica",
    "updated_at": "2014-09-22T21:23:58.686613Z",
    "country": "ro",
    "parent": null,
    "longitude": 26.0666999816895,
    "latitude": 44.61669921875,
    "regions": [
      "12cb"
    ]
  },
  {
    "code": "17dfa",
    "name": "Sălaşu de Sus",
    "updated_at": "2014-09-22T21:23:58.658434Z",
    "country": "ro",
    "parent": null,
    "longitude": 22.9500007629395,
    "latitude": 45.5167007446289,
    "regions": [
      "12c8"
    ]
  },
  {
    "code": "17df9",
    "name": "Sălciua de Sus",
    "updated_at": "2014-09-22T21:23:58.631777Z",
    "country": "ro",
    "parent": null,
    "longitude": 23.4167003631592,
    "latitude": 46.4000015258789,
    "regions": []
  },
  {
    "code": "17df8",
    "name": "Sălişte",
    "updated_at": "2014-09-22T21:23:58.602779Z",
    "country": "ro",
    "parent": null,
    "longitude": 23.88330078125,
    "latitude": 45.7832984924316,
    "regions": [
      "12d2"
    ]
  },
  {
    "code": "17df7",
    "name": "Săliştea",
    "updated_at": "2014-09-22T21:23:58.568404Z",
    "country": "ro",
    "parent": null,
    "longitude": 24.13330078125,
    "latitude": 45.3499984741211,
    "regions": [
      "12d7"
    ]
  },
  {
    "code": "17df6",
    "name": "Salonta",
    "updated_at": "2014-09-22T21:23:58.534488Z",
    "country": "ro",
    "parent": null,
    "longitude": 21.6499996185303,
    "latitude": 46.7999992370605,
    "regions": [
      "11f8"
    ]
  },
  {
    "code": "17df5",
    "name": "Săpînţa",
    "updated_at": "2014-09-22T21:23:58.500861Z",
    "country": "ro",
    "parent": null,
    "longitude": 23.7000007629395,
    "latitude": 47.9667015075684,
    "regions": [
      "12cc"
    ]
  },
  {
    "code": "17df4",
    "name": "Sărata",
    "updated_at": "2014-09-22T21:23:58.448954Z",
    "country": "ro",
    "parent": null,
    "longitude": 26.38330078125,
    "latitude": 46.9832992553711,
    "regions": []
  },
  {
    "code": "17df3",
    "name": "Sărata-Monteoru",
    "updated_at": "2014-09-22T21:23:58.422973Z",
    "country": "ro",
    "parent": null,
    "longitude": 26.6499996185303,
    "latitude": 45.13330078125,
    "regions": [
      "12bd"
    ]
  },
  {
    "code": "17df2",
    "name": "Sărişor",
    "updated_at": "2014-09-22T21:23:58.396531Z",
    "country": "ro",
    "parent": null,
    "longitude": 25.3166999816895,
    "latitude": 47.2667007446289,
    "regions": [
      "12a8"
    ]
  },
  {
    "code": "17df1",
    "name": "Sarmizegetusa",
    "updated_at": "2014-09-22T21:23:58.370524Z",
    "country": "ro",
    "parent": null,
    "longitude": 22.7833003997803,
    "latitude": 45.5167007446289,
    "regions": [
      "12c8"
    ]
  },
  {
    "code": "17df0",
    "name": "Şarul Dornei",
    "updated_at": "2014-09-22T21:23:58.334286Z",
    "country": "ro",
    "parent": null,
    "longitude": 25.3500003814697,
    "latitude": 47.2832984924316,
    "regions": []
  },
  {
    "code": "17def",
    "name": "Sasca Montană",
    "updated_at": "2014-09-22T21:23:58.301683Z",
    "country": "ro",
    "parent": null,
    "longitude": 21.7038993835449,
    "latitude": 44.8828010559082,
    "regions": [
      "12be"
    ]
  },
  {
    "code": "17dee",
    "name": "Saschiz",
    "updated_at": "2014-09-22T21:23:58.274792Z",
    "country": "ro",
    "parent": null,
    "longitude": 24.9666996002197,
    "latitude": 46.1833000183105,
    "regions": [
      "1272"
    ]
  },
  {
    "code": "17ded",
    "name": "Satu Mare",
    "updated_at": "2014-09-22T21:23:58.258871Z",
    "country": "ro",
    "parent": null,
    "longitude": 22.88330078125,
    "latitude": 47.7999992370605,
    "regions": [
      "12d0"
    ]
  },
  {
    "code": "17dec",
    "name": "Săvădisla",
    "updated_at": "2014-09-22T21:23:58.242848Z",
    "country": "ro",
    "parent": null,
    "longitude": 23.4500007629395,
    "latitude": 46.6833000183105,
    "regions": [
      "12c0"
    ]
  },
  {
    "code": "17deb",
    "name": "Săvineşti",
    "updated_at": "2014-09-22T21:23:58.225703Z",
    "country": "ro",
    "parent": null,
    "longitude": 26.4670944213867,
    "latitude": 46.860897064209,
    "regions": [
      "12cd"
    ]
  },
  {
    "code": "17dea",
    "name": "Scheia",
    "updated_at": "2014-09-22T21:23:58.208120Z",
    "country": "ro",
    "parent": null,
    "longitude": 26.2332992553711,
    "latitude": 47.6500015258789,
    "regions": [
      "12a8"
    ]
  },
  {
    "code": "17de9",
    "name": "Schitu-Goleşti",
    "updated_at": "2014-09-22T21:23:58.188137Z",
    "country": "ro",
    "parent": null,
    "longitude": 25.0,
    "latitude": 45.2000007629395,
    "regions": [
      "11f9"
    ]
  },
  {
    "code": "17de8",
    "name": "Scrind-Frăsinet",
    "updated_at": "2014-09-22T21:23:58.163400Z",
    "country": "ro",
    "parent": null,
    "longitude": 22.8999996185303,
    "latitude": 46.75,
    "regions": [
      "12c0"
    ]
  },
  {
    "code": "17de7",
    "name": "Sebeşu",
    "updated_at": "2014-09-22T21:23:58.137383Z",
    "country": "ro",
    "parent": null,
    "longitude": 25.0333003997803,
    "latitude": 45.7167015075684,
    "regions": []
  },
  {
    "code": "17de6",
    "name": "Sebeş",
    "updated_at": "2014-09-22T21:23:58.108165Z",
    "country": "ro",
    "parent": null,
    "longitude": 23.5666999816895,
    "latitude": 45.9667015075684,
    "regions": [
      "12b7"
    ]
  },
  {
    "code": "17de5",
    "name": "Sebeşel",
    "updated_at": "2014-09-22T21:23:58.088379Z",
    "country": "ro",
    "parent": null,
    "longitude": 23.5666999816895,
    "latitude": 45.88330078125,
    "regions": [
      "12b7"
    ]
  },
  {
    "code": "17de4",
    "name": "Seimeni",
    "updated_at": "2014-09-22T21:23:58.044051Z",
    "country": "ro",
    "parent": null,
    "longitude": 28.0666999816895,
    "latitude": 44.38330078125,
    "regions": [
      "12c1"
    ]
  },
  {
    "code": "17de3",
    "name": "Şelimbăr",
    "updated_at": "2014-09-22T21:23:58.017190Z",
    "country": "ro",
    "parent": null,
    "longitude": 24.2000007629395,
    "latitude": 45.7667007446289,
    "regions": [
      "12d2"
    ]
  },
  {
    "code": "17de2",
    "name": "Sfântu Gheorghe",
    "updated_at": "2014-09-22T21:23:57.985722Z",
    "country": "ro",
    "parent": null,
    "longitude": 29.6000003814697,
    "latitude": 44.88330078125,
    "regions": [
      "12d5"
    ]
  },
  {
    "code": "17de1",
    "name": "Sfântu-Gheorghe",
    "updated_at": "2014-09-22T21:23:57.951095Z",
    "country": "ro",
    "parent": null,
    "longitude": 25.7833003997803,
    "latitude": 45.86669921875,
    "regions": [
      "12c2"
    ]
  },
  {
    "code": "17de0",
    "name": "Sibiel",
    "updated_at": "2014-09-22T21:23:57.916468Z",
    "country": "ro",
    "parent": null,
    "longitude": 23.9167003631592,
    "latitude": 45.7667007446289,
    "regions": [
      "12d2"
    ]
  },
  {
    "code": "17ddf",
    "name": "Sibiu",
    "updated_at": "2014-09-22T21:23:57.899761Z",
    "country": "ro",
    "parent": null,
    "longitude": 24.1515140533447,
    "latitude": 45.7965049743652,
    "regions": [
      "12d2"
    ]
  },
  {
    "code": "17dde",
    "name": "Sic",
    "updated_at": "2014-09-22T21:23:57.882325Z",
    "country": "ro",
    "parent": null,
    "longitude": 23.88330078125,
    "latitude": 46.9333000183105,
    "regions": [
      "12c0"
    ]
  },
  {
    "code": "17ddd",
    "name": "Sicasău",
    "updated_at": "2014-09-22T21:23:57.864761Z",
    "country": "ro",
    "parent": null,
    "longitude": 25.4589195251465,
    "latitude": 46.5141944885254,
    "regions": [
      "12c7"
    ]
  },
  {
    "code": "17ddc",
    "name": "Sighetu Marmaţiei",
    "updated_at": "2014-09-22T21:23:57.831577Z",
    "country": "ro",
    "parent": null,
    "longitude": 23.88330078125,
    "latitude": 47.9333000183105,
    "regions": [
      "12cc"
    ]
  },
  {
    "code": "17ddb",
    "name": "Sighişoara",
    "updated_at": "2014-09-22T21:23:57.809781Z",
    "country": "ro",
    "parent": null,
    "longitude": 24.7999992370605,
    "latitude": 46.2167015075684,
    "regions": [
      "1272"
    ]
  },
  {
    "code": "17dda",
    "name": "Sîmbăta",
    "updated_at": "2014-09-22T21:23:57.783571Z",
    "country": "ro",
    "parent": null,
    "longitude": 22.2000007629395,
    "latitude": 46.7999992370605,
    "regions": [
      "11f8"
    ]
  },
  {
    "code": "17dd9",
    "name": "Sîmbăta de Sus",
    "updated_at": "2014-09-22T21:23:57.758714Z",
    "country": "ro",
    "parent": null,
    "longitude": 24.8166999816895,
    "latitude": 45.75,
    "regions": [
      "11f7"
    ]
  },
  {
    "code": "17dd8",
    "name": "Simeria",
    "updated_at": "2014-09-22T21:23:57.721985Z",
    "country": "ro",
    "parent": null,
    "longitude": 23.0167007446289,
    "latitude": 45.8499984741211,
    "regions": [
      "12c8"
    ]
  },
  {
    "code": "17dd7",
    "name": "Şimian",
    "updated_at": "2014-09-22T21:23:57.695451Z",
    "country": "ro",
    "parent": null,
    "longitude": 22.7071990966797,
    "latitude": 44.614200592041,
    "regions": [
      "11fa"
    ]
  },
  {
    "code": "17dd6",
    "name": "Şimleu Silvaniei",
    "updated_at": "2014-09-22T21:23:57.667001Z",
    "country": "ro",
    "parent": null,
    "longitude": 22.7999992370605,
    "latitude": 47.2332992553711,
    "regions": [
      "12d1"
    ]
  },
  {
    "code": "17dd5",
    "name": "Sinaia",
    "updated_at": "2014-09-22T21:23:57.650484Z",
    "country": "ro",
    "parent": null,
    "longitude": 25.5499992370605,
    "latitude": 45.3499984741211,
    "regions": [
      "12cf"
    ]
  },
  {
    "code": "17dd4",
    "name": "Sîncrăieni",
    "updated_at": "2014-09-22T21:23:57.633107Z",
    "country": "ro",
    "parent": null,
    "longitude": 25.8500003814697,
    "latitude": 46.2999992370605,
    "regions": [
      "12c7"
    ]
  },
  {
    "code": "17dd3",
    "name": "Sîncraiu",
    "updated_at": "2014-09-22T21:23:57.615259Z",
    "country": "ro",
    "parent": null,
    "longitude": 22.9832992553711,
    "latitude": 46.8333015441895,
    "regions": [
      "12c0"
    ]
  },
  {
    "code": "17dd2",
    "name": "Sîncraiu de Mureş",
    "updated_at": "2014-09-22T21:23:57.598649Z",
    "country": "ro",
    "parent": null,
    "longitude": 24.5,
    "latitude": 46.5499992370605,
    "regions": [
      "1272"
    ]
  },
  {
    "code": "17dd1",
    "name": "Sîndominic",
    "updated_at": "2014-09-22T21:23:57.580008Z",
    "country": "ro",
    "parent": null,
    "longitude": 25.7833003997803,
    "latitude": 46.5833015441895,
    "regions": [
      "12c7"
    ]
  },
  {
    "code": "17dd0",
    "name": "Sîngeorgiu de Mureş",
    "updated_at": "2014-09-22T21:23:57.555508Z",
    "country": "ro",
    "parent": null,
    "longitude": 24.6000003814697,
    "latitude": 46.5666999816895,
    "regions": [
      "1272"
    ]
  },
  {
    "code": "17dcf",
    "name": "Sînmartin",
    "updated_at": "2014-09-22T21:23:57.529750Z",
    "country": "ro",
    "parent": null,
    "longitude": 22.0,
    "latitude": 47.0,
    "regions": [
      "11f8"
    ]
  },
  {
    "code": "17dce",
    "name": "Sînnicolau Mare",
    "updated_at": "2014-09-22T21:23:57.499263Z",
    "country": "ro",
    "parent": null,
    "longitude": 20.63330078125,
    "latitude": 46.0833015441895,
    "regions": [
      "12d4"
    ]
  },
  {
    "code": "17dcd",
    "name": "Sînpetru",
    "updated_at": "2014-09-22T21:23:57.464462Z",
    "country": "ro",
    "parent": null,
    "longitude": 25.63330078125,
    "latitude": 45.7167015075684,
    "regions": [
      "11f7"
    ]
  },
  {
    "code": "17dcc",
    "name": "Slănic",
    "updated_at": "2014-09-22T21:23:57.411019Z",
    "country": "ro",
    "parent": null,
    "longitude": 25.9392223358154,
    "latitude": 45.2333199565675,
    "regions": [
      "12cf"
    ]
  },
  {
    "code": "17dcb",
    "name": "Slănic-Moldova",
    "updated_at": "2014-09-22T21:23:57.395013Z",
    "country": "ro",
    "parent": null,
    "longitude": 26.4333000183105,
    "latitude": 46.2000007629395,
    "regions": [
      "12b9"
    ]
  },
  {
    "code": "17dca",
    "name": "Slatina",
    "updated_at": "2014-09-22T21:23:57.378876Z",
    "country": "ro",
    "parent": null,
    "longitude": 24.36669921875,
    "latitude": 44.4333000183105,
    "regions": [
      "12ce"
    ]
  },
  {
    "code": "17dc9",
    "name": "Slobozia",
    "updated_at": "2014-09-22T21:23:57.343802Z",
    "country": "ro",
    "parent": null,
    "longitude": 27.36669921875,
    "latitude": 44.5666999816895,
    "regions": [
      "12c9"
    ]
  },
  {
    "code": "17dc8",
    "name": "Snagov",
    "updated_at": "2014-09-22T21:23:54.430303Z",
    "country": "ro",
    "parent": null,
    "longitude": 26.1833000183105,
    "latitude": 44.7000007629395,
    "regions": [
      "12cb"
    ]
  },
  {
    "code": "17dc7",
    "name": "Sohodol",
    "updated_at": "2014-09-22T21:23:54.405872Z",
    "country": "ro",
    "parent": null,
    "longitude": 25.3999996185303,
    "latitude": 45.5167007446289,
    "regions": []
  },
  {
    "code": "17dc6",
    "name": "Şoimuş",
    "updated_at": "2014-09-22T21:23:54.379425Z",
    "country": "ro",
    "parent": null,
    "longitude": 22.8999996185303,
    "latitude": 45.9166984558105,
    "regions": [
      "12c8"
    ]
  },
  {
    "code": "17dc5",
    "name": "Someşu Rece",
    "updated_at": "2014-09-22T21:23:54.316579Z",
    "country": "ro",
    "parent": null,
    "longitude": 23.36669921875,
    "latitude": 46.7332992553711,
    "regions": [
      "12c0"
    ]
  },
  {
    "code": "17dc4",
    "name": "Sovata",
    "updated_at": "2014-09-22T21:23:54.263290Z",
    "country": "ro",
    "parent": null,
    "longitude": 25.0666999816895,
    "latitude": 46.5833015441895,
    "regions": [
      "1272"
    ]
  },
  {
    "code": "17dc3",
    "name": "Ştefăneşti",
    "updated_at": "2014-09-22T21:23:54.245917Z",
    "country": "ro",
    "parent": null,
    "longitude": 24.9333000183105,
    "latitude": 44.86669921875,
    "regions": [
      "11f9"
    ]
  },
  {
    "code": "17dc2",
    "name": "Strejnicul",
    "updated_at": "2014-09-22T21:23:54.211678Z",
    "country": "ro",
    "parent": null,
    "longitude": 25.9500007629395,
    "latitude": 44.9166984558105,
    "regions": []
  },
  {
    "code": "17dc1",
    "name": "Strîmtura",
    "updated_at": "2014-09-22T21:23:54.194907Z",
    "country": "ro",
    "parent": null,
    "longitude": 25.6667003631592,
    "latitude": 47.5833015441895,
    "regions": [
      "12a8"
    ]
  },
  {
    "code": "17dc0",
    "name": "Sub Cetate",
    "updated_at": "2014-09-22T21:23:54.169100Z",
    "country": "ro",
    "parent": null,
    "longitude": 25.36669921875,
    "latitude": 46.38330078125,
    "regions": [
      "12c7"
    ]
  },
  {
    "code": "17dbf",
    "name": "Suceava",
    "updated_at": "2014-09-22T21:23:54.143043Z",
    "country": "ro",
    "parent": null,
    "longitude": 26.25,
    "latitude": 47.63330078125,
    "regions": [
      "12a8"
    ]
  },
  {
    "code": "17dbe",
    "name": "Suceviţa",
    "updated_at": "2014-09-22T21:23:54.118441Z",
    "country": "ro",
    "parent": null,
    "longitude": 25.7166996002197,
    "latitude": 47.7832984924316,
    "regions": [
      "12a8"
    ]
  },
  {
    "code": "17dbd",
    "name": "Şugag",
    "updated_at": "2014-09-22T21:23:54.082307Z",
    "country": "ro",
    "parent": null,
    "longitude": 23.63330078125,
    "latitude": 45.7667007446289,
    "regions": []
  },
  {
    "code": "17dbc",
    "name": "Suhaia",
    "updated_at": "2014-09-22T21:23:54.047904Z",
    "country": "ro",
    "parent": null,
    "longitude": 25.25,
    "latitude": 43.7332992553711,
    "regions": [
      "12d3"
    ]
  },
  {
    "code": "17dbb",
    "name": "Sulina",
    "updated_at": "2014-09-22T21:23:54.021124Z",
    "country": "ro",
    "parent": null,
    "longitude": 29.6667003631592,
    "latitude": 45.1500015258789,
    "regions": [
      "12d5"
    ]
  },
  {
    "code": "17dba",
    "name": "Şuncuiuş",
    "updated_at": "2014-09-22T21:23:54.005159Z",
    "country": "ro",
    "parent": null,
    "longitude": 22.5333003997803,
    "latitude": 46.9333000183105,
    "regions": [
      "11f8"
    ]
  },
  {
    "code": "17db9",
    "name": "Şura Mică",
    "updated_at": "2014-09-22T21:23:53.988882Z",
    "country": "ro",
    "parent": null,
    "longitude": 24.0666999816895,
    "latitude": 45.8333015441895,
    "regions": [
      "12d2"
    ]
  },
  {
    "code": "17db8",
    "name": "Tălmăcel",
    "updated_at": "2014-09-22T21:23:53.955599Z",
    "country": "ro",
    "parent": null,
    "longitude": 24.2332992553711,
    "latitude": 45.63330078125,
    "regions": [
      "12d2"
    ]
  },
  {
    "code": "17db7",
    "name": "Tarcău",
    "updated_at": "2014-09-22T21:23:53.937279Z",
    "country": "ro",
    "parent": null,
    "longitude": 26.13330078125,
    "latitude": 46.86669921875,
    "regions": [
      "12cd"
    ]
  },
  {
    "code": "17db6",
    "name": "Tău Bistra",
    "updated_at": "2014-09-22T21:23:53.909540Z",
    "country": "ro",
    "parent": null,
    "longitude": 23.6000003814697,
    "latitude": 45.6833000183105,
    "regions": [
      "12b7"
    ]
  },
  {
    "code": "17db5",
    "name": "Teliucu Inferior",
    "updated_at": "2014-09-22T21:23:53.819306Z",
    "country": "ro",
    "parent": null,
    "longitude": 22.88330078125,
    "latitude": 45.7167015075684,
    "regions": [
      "12c8"
    ]
  },
  {
    "code": "17db4",
    "name": "Teşila",
    "updated_at": "2014-09-22T21:23:53.765046Z",
    "country": "ro",
    "parent": null,
    "longitude": 25.7000007629395,
    "latitude": 45.2999992370605,
    "regions": [
      "12cf"
    ]
  },
  {
    "code": "17db3",
    "name": "Ţicleni",
    "updated_at": "2014-09-22T21:23:53.747581Z",
    "country": "ro",
    "parent": null,
    "longitude": 23.3999996185303,
    "latitude": 44.88330078125,
    "regions": [
      "12c6"
    ]
  },
  {
    "code": "17db2",
    "name": "Tilişca",
    "updated_at": "2014-09-22T21:23:53.730008Z",
    "country": "ro",
    "parent": null,
    "longitude": 23.8500003814697,
    "latitude": 45.7999992370605,
    "regions": [
      "12d2"
    ]
  },
  {
    "code": "17db1",
    "name": "Timişoara",
    "updated_at": "2014-09-22T21:23:53.712853Z",
    "country": "ro",
    "parent": null,
    "longitude": 21.2271995544434,
    "latitude": 45.7494010925293,
    "regions": [
      "12d4"
    ]
  },
  {
    "code": "17db0",
    "name": "Târgovişte",
    "updated_at": "2014-09-22T21:23:53.675891Z",
    "country": "ro",
    "parent": null,
    "longitude": 25.4500007629395,
    "latitude": 44.9333000183105,
    "regions": [
      "12c3"
    ]
  },
  {
    "code": "17daf",
    "name": "Târgu Jiu",
    "updated_at": "2014-09-22T21:23:53.649372Z",
    "country": "ro",
    "parent": null,
    "longitude": 23.2833003997803,
    "latitude": 45.0499992370605,
    "regions": [
      "12c6"
    ]
  },
  {
    "code": "17dae",
    "name": "Tîrgu Lăpuş",
    "updated_at": "2014-09-22T21:23:53.623655Z",
    "country": "ro",
    "parent": null,
    "longitude": 23.86669921875,
    "latitude": 47.4500007629395,
    "regions": [
      "12cc"
    ]
  },
  {
    "code": "17dad",
    "name": "Târgu-Mureş",
    "updated_at": "2014-09-22T21:23:53.592339Z",
    "country": "ro",
    "parent": null,
    "longitude": 24.5666999816895,
    "latitude": 46.5499992370605,
    "regions": [
      "1272"
    ]
  },
  {
    "code": "17dac",
    "name": "Tîrgu Neamţ",
    "updated_at": "2014-09-22T21:23:53.558081Z",
    "country": "ro",
    "parent": null,
    "longitude": 26.36669921875,
    "latitude": 47.2000007629395,
    "regions": [
      "12cd"
    ]
  },
  {
    "code": "17dab",
    "name": "Tîrgu Ocna",
    "updated_at": "2014-09-22T21:23:53.523478Z",
    "country": "ro",
    "parent": null,
    "longitude": 26.61669921875,
    "latitude": 46.2832984924316,
    "regions": [
      "12b9"
    ]
  },
  {
    "code": "17daa",
    "name": "Tîrgu Secuiesc",
    "updated_at": "2014-09-22T21:23:53.503399Z",
    "country": "ro",
    "parent": null,
    "longitude": 26.13330078125,
    "latitude": 46.0,
    "regions": [
      "12c2"
    ]
  },
  {
    "code": "17da9",
    "name": "Tîrnăveni",
    "updated_at": "2014-09-22T21:23:53.486112Z",
    "country": "ro",
    "parent": null,
    "longitude": 24.2833003997803,
    "latitude": 46.3333015441895,
    "regions": [
      "1272"
    ]
  },
  {
    "code": "17da8",
    "name": "Tîrpeşti",
    "updated_at": "2014-09-22T21:23:53.468439Z",
    "country": "ro",
    "parent": null,
    "longitude": 26.4167003631592,
    "latitude": 47.1500015258789,
    "regions": [
      "12cd"
    ]
  },
  {
    "code": "17da7",
    "name": "Tismana",
    "updated_at": "2014-09-22T21:23:53.434053Z",
    "country": "ro",
    "parent": null,
    "longitude": 22.9666996002197,
    "latitude": 45.0499992370605,
    "regions": [
      "12c6"
    ]
  },
  {
    "code": "17da6",
    "name": "Tomeşti",
    "updated_at": "2014-09-22T21:23:53.411801Z",
    "country": "ro",
    "parent": null,
    "longitude": 27.6833000183105,
    "latitude": 47.11669921875,
    "regions": [
      "12ca"
    ]
  },
  {
    "code": "17da5",
    "name": "Topliţa",
    "updated_at": "2014-09-22T21:23:53.385815Z",
    "country": "ro",
    "parent": null,
    "longitude": 25.3332996368408,
    "latitude": 46.9166984558105,
    "regions": [
      "12c7"
    ]
  },
  {
    "code": "17da4",
    "name": "Trăisteni",
    "updated_at": "2014-09-22T21:23:53.324258Z",
    "country": "ro",
    "parent": null,
    "longitude": 25.7166996002197,
    "latitude": 45.3499984741211,
    "regions": [
      "12cf"
    ]
  },
  {
    "code": "17da3",
    "name": "Tulcea",
    "updated_at": "2014-09-22T21:23:53.292632Z",
    "country": "ro",
    "parent": null,
    "longitude": 28.7999992370605,
    "latitude": 45.1666984558105,
    "regions": [
      "12d5"
    ]
  },
  {
    "code": "17da2",
    "name": "Turda",
    "updated_at": "2014-09-22T21:23:53.229976Z",
    "country": "ro",
    "parent": null,
    "longitude": 23.7833003997803,
    "latitude": 46.5666999816895,
    "regions": [
      "12c0"
    ]
  },
  {
    "code": "17da1",
    "name": "Tureni",
    "updated_at": "2014-09-22T21:23:53.213169Z",
    "country": "ro",
    "parent": null,
    "longitude": 23.7000007629395,
    "latitude": 46.61669921875,
    "regions": [
      "12c0"
    ]
  },
  {
    "code": "17da0",
    "name": "Turnu Roşu",
    "updated_at": "2014-09-22T21:23:53.195197Z",
    "country": "ro",
    "parent": null,
    "longitude": 24.2999992370605,
    "latitude": 45.63330078125,
    "regions": [
      "12d2"
    ]
  },
  {
    "code": "17d9f",
    "name": "Ungheni",
    "updated_at": "2014-09-22T21:23:53.152681Z",
    "country": "ro",
    "parent": null,
    "longitude": 24.4666996002197,
    "latitude": 46.4832992553711,
    "regions": [
      "1272"
    ]
  },
  {
    "code": "17d9e",
    "name": "Urziceni",
    "updated_at": "2014-09-22T21:23:53.126527Z",
    "country": "ro",
    "parent": null,
    "longitude": 26.63330078125,
    "latitude": 44.7167015075684,
    "regions": [
      "12c9"
    ]
  },
  {
    "code": "17d9d",
    "name": "Uzlina",
    "updated_at": "2014-09-22T21:23:53.103221Z",
    "country": "ro",
    "parent": null,
    "longitude": 29.2332992553711,
    "latitude": 45.0666999816895,
    "regions": [
      "12d5"
    ]
  },
  {
    "code": "17d9c",
    "name": "Vadu Crişului",
    "updated_at": "2014-09-22T21:23:53.067587Z",
    "country": "ro",
    "parent": null,
    "longitude": 22.5167007446289,
    "latitude": 46.9832992553711,
    "regions": [
      "11f8"
    ]
  },
  {
    "code": "17d9b",
    "name": "Vadu Izei",
    "updated_at": "2014-09-22T21:23:53.032723Z",
    "country": "ro",
    "parent": null,
    "longitude": 23.9500007629395,
    "latitude": 47.88330078125,
    "regions": [
      "12cc"
    ]
  },
  {
    "code": "17d9a",
    "name": "Vadu Moţilor",
    "updated_at": "2014-09-22T21:23:53.005984Z",
    "country": "ro",
    "parent": null,
    "longitude": 22.9666996002197,
    "latitude": 46.4000015258789,
    "regions": [
      "12b7"
    ]
  },
  {
    "code": "17d99",
    "name": "Vădurele",
    "updated_at": "2014-09-22T21:23:52.990180Z",
    "country": "ro",
    "parent": null,
    "longitude": 26.25,
    "latitude": 46.9166984558105,
    "regions": [
      "12cd"
    ]
  },
  {
    "code": "17d98",
    "name": "Valea Borcutului",
    "updated_at": "2014-09-22T21:23:52.974085Z",
    "country": "ro",
    "parent": null,
    "longitude": 24.6833000183105,
    "latitude": 47.36669921875,
    "regions": [
      "12ba"
    ]
  },
  {
    "code": "17d97",
    "name": "Valea Călugărească",
    "updated_at": "2014-09-22T21:23:52.956901Z",
    "country": "ro",
    "parent": null,
    "longitude": 26.1499996185303,
    "latitude": 44.9667015075684,
    "regions": [
      "12cf"
    ]
  },
  {
    "code": "17d96",
    "name": "Valea Drăganului",
    "updated_at": "2014-09-22T21:23:52.939293Z",
    "country": "ro",
    "parent": null,
    "longitude": 22.88330078125,
    "latitude": 46.9166984558105,
    "regions": [
      "12c0"
    ]
  },
  {
    "code": "17d95",
    "name": "Valea Hotarului",
    "updated_at": "2014-09-22T21:23:52.919238Z",
    "country": "ro",
    "parent": null,
    "longitude": 25.1667003631592,
    "latitude": 45.3499984741211,
    "regions": []
  },
  {
    "code": "17d94",
    "name": "Valea Lupului",
    "updated_at": "2014-09-22T21:23:52.890719Z",
    "country": "ro",
    "parent": null,
    "longitude": 26.3332996368408,
    "latitude": 45.36669921875,
    "regions": []
  },
  {
    "code": "17d93",
    "name": "Valea Mare",
    "updated_at": "2014-09-22T21:23:52.832382Z",
    "country": "ro",
    "parent": null,
    "longitude": 24.9500007629395,
    "latitude": 47.4667015075684,
    "regions": [
      "12ba"
    ]
  },
  {
    "code": "17d92",
    "name": "Valea Mare-Podgoria",
    "updated_at": "2014-09-22T21:23:52.797690Z",
    "country": "ro",
    "parent": null,
    "longitude": 24.8999996185303,
    "latitude": 44.88330078125,
    "regions": [
      "11f9"
    ]
  },
  {
    "code": "17d91",
    "name": "Valea Neagră",
    "updated_at": "2014-09-22T21:23:52.747101Z",
    "country": "ro",
    "parent": null,
    "longitude": 23.61669921875,
    "latitude": 47.7667007446289,
    "regions": [
      "12cc"
    ]
  },
  {
    "code": "17d90",
    "name": "Valea Rece",
    "updated_at": "2014-09-22T21:23:52.729839Z",
    "country": "ro",
    "parent": null,
    "longitude": 25.9666996002197,
    "latitude": 46.5999984741211,
    "regions": [
      "12c7"
    ]
  },
  {
    "code": "17d8f",
    "name": "Valea Seacă",
    "updated_at": "2014-09-22T21:23:52.712187Z",
    "country": "ro",
    "parent": null,
    "longitude": 26.11669921875,
    "latitude": 46.0833015441895,
    "regions": [
      "12c7"
    ]
  },
  {
    "code": "17d8e",
    "name": "Valea Seacă",
    "updated_at": "2014-09-22T21:23:52.694560Z",
    "country": "ro",
    "parent": null,
    "longitude": 27.0333003997803,
    "latitude": 46.2332992553711,
    "regions": [
      "12b9"
    ]
  },
  {
    "code": "17d8d",
    "name": "Vălenii de Munte",
    "updated_at": "2014-09-22T21:23:52.678085Z",
    "country": "ro",
    "parent": null,
    "longitude": 26.0333003997803,
    "latitude": 45.1833000183105,
    "regions": [
      "12cf"
    ]
  },
  {
    "code": "17d8c",
    "name": "Vălişoara",
    "updated_at": "2014-09-22T21:23:52.655779Z",
    "country": "ro",
    "parent": null,
    "longitude": 23.5666999816895,
    "latitude": 46.38330078125,
    "regions": [
      "12b7"
    ]
  },
  {
    "code": "17d8b",
    "name": "Văliug",
    "updated_at": "2014-09-22T21:23:52.627508Z",
    "country": "ro",
    "parent": null,
    "longitude": 22.0333003997803,
    "latitude": 45.2332992553711,
    "regions": [
      "12be"
    ]
  },
  {
    "code": "17d8a",
    "name": "Vama",
    "updated_at": "2014-09-22T21:23:52.601085Z",
    "country": "ro",
    "parent": null,
    "longitude": 25.6833000183105,
    "latitude": 47.5666999816895,
    "regions": [
      "12a8"
    ]
  },
  {
    "code": "17d89",
    "name": "Vama",
    "updated_at": "2014-09-22T21:23:52.567383Z",
    "country": "ro",
    "parent": null,
    "longitude": 23.3999996185303,
    "latitude": 47.8333015441895,
    "regions": [
      "12d0"
    ]
  },
  {
    "code": "17d88",
    "name": "Vama Veche",
    "updated_at": "2014-09-22T21:23:52.502596Z",
    "country": "ro",
    "parent": null,
    "longitude": 28.5666999816895,
    "latitude": 43.75,
    "regions": [
      "12c1"
    ]
  },
  {
    "code": "17d87",
    "name": "Văratec",
    "updated_at": "2014-09-22T21:23:52.485725Z",
    "country": "ro",
    "parent": null,
    "longitude": 26.2667007446289,
    "latitude": 47.13330078125,
    "regions": [
      "12cd"
    ]
  },
  {
    "code": "17d86",
    "name": "Vărsătura",
    "updated_at": "2014-09-22T21:23:52.452050Z",
    "country": "ro",
    "parent": null,
    "longitude": 27.9333000183105,
    "latitude": 45.2332992553711,
    "regions": []
  },
  {
    "code": "17d85",
    "name": "Vatra Dornei",
    "updated_at": "2014-09-22T21:23:52.415986Z",
    "country": "ro",
    "parent": null,
    "longitude": 25.36669921875,
    "latitude": 47.3499984741211,
    "regions": [
      "12a8"
    ]
  },
  {
    "code": "17d84",
    "name": "Vatra Moldoviţei",
    "updated_at": "2014-09-22T21:23:52.388214Z",
    "country": "ro",
    "parent": null,
    "longitude": 25.5666999816895,
    "latitude": 47.6500015258789,
    "regions": [
      "12a8"
    ]
  },
  {
    "code": "17d83",
    "name": "Vidra",
    "updated_at": "2014-09-22T21:23:52.338224Z",
    "country": "ro",
    "parent": null,
    "longitude": 22.9167003631592,
    "latitude": 46.38330078125,
    "regions": [
      "12b7"
    ]
  },
  {
    "code": "17d82",
    "name": "Viscri",
    "updated_at": "2014-09-22T21:23:52.303986Z",
    "country": "ro",
    "parent": null,
    "longitude": 25.0832996368408,
    "latitude": 46.0499992370605,
    "regions": [
      "11f7"
    ]
  },